55.22,T,,M,0.50,N,0.92,K,A*32

$GPGGA,144524.000,4709.3794,N,00138.2809,W,1,08,0.97,60.3,M,48.7,M,,*4E

$GPGLL,4709.3794,N,00138.2809,W,144524.000,A,A*43

$GPGSA,A,3,26,10,07,18,21,27,08,16,,,,,1.26,0.97,0.80*03

$GPGSV,4,1,13,27,80,071,16,08,58,303,18,10,55,106,26,16,41,177,17*79

$GPGSV,4,2,13,18,40,064,16,11,19,265,,21,18,064,16,07,15,286,17*7A

$GPGSV,4,3,13,26,15,167,16,30,10,319,,01,07,244,,15,05,034,*70

$GPGSV,4,4,13,51,,,*7F

$GPRMC,144524.000,A,4709.3794,N,00138.2809,W,0.64,148.55,180717,,,A*73

$GPVTG,148.55,T,,M,0.64,N,1.19,K,A*3B

$GPGGA,144525.000,4709.3790,N,00138.2802,W,1,08,0.97,60.2,M,48.7,M,,*41

$GPGLL,4709.3790,N,00138.2802,W,144525.000,A,A*4D

$GPGSA,A,3,26,10,07,18,21,27,08,16,,,,,1.25,0.97,0.80*00

$GPGSV,4,1,13,27,80,071,16,08,58,303,19,10,55,106,26,16,41,177,17*78

$GPGSV,4,2,13,18,40,064,16,11,19,265,,21,18,064,14,07,15,286,17*78

$GPGSV,4,3,13,26,15,167,16,30,10,319,,01,07,244,,15,05,034,*70

$GPGSV,4,4,13,48,,,*77

$GPRMC,144525.000,A,4709.3790,N,00138.2802,W,0.74,144.31,180717,,,A*72

$GPVTG,144.31,T,,M,0.74,N,1.36,K,A*39

$GPGGA,144526.000,4709.3785,N,00138.2791,W,1,08,0.97,60.2,M,48.7,M,,*43

$GPGLL,4709.3785,N,00138.2791,W,144526.000,A,A*4F

$GPGSA,A,3,26,10,07,18,21,27,08,16,,,,,1.25,0.97,0.80*00

$GPGSV,4,1,13,27,80,071,17,08,58,303,19,10,55,106,26,16,41,177,17*79

$GPGSV,4,2,13,18,40,064,16,11,19,265,,21,18,064,14,07,15,286,17*78

$GPGSV,4,3,13,26,15,167,16,30,10,319,,01,07,244,,15,05,034,*70

$GPGSV,4,4,13,48,,,*77

$GPRMC,144526.000,A,4709.3785,N,00138.2791,W,0.81,140.08,180717,,,A*74

$GPVTG,140.08,T,,M,0.81,N,1.50,K,A*3D

$GPGGA,144527.000,4709.3779,N,00138.2781,W,1,08,0.97,60.3,M,48.7,M,,*41

$GPGLL,4709.3779,N,00138.2781,W,144527.000,A,A*4C

$GPGSA,A,3,26,10,07,18,21,27,08,16,,,,,1.25,0.97,0.80*00

$GPGSV,4,1,13,27,80,071,17,08,58,303,19,10,55,106,26,16,41,177,17*79

$GPGSV,4,2,13,18,40,064,16,11,19,265,,21,18,064,16,07,15,286,17*7A

$GPGSV,4,3,13,26,15,167,16,30,10,319,,01,07,244,,15,05,034,*70

$GPGSV,4,4,13,48,,,*77

$GPRMC,144527.000,A,4709.3779,N,00138.2781,W,0.87,139.70,180717,,,A*70

$GPVTG,139.70,T,,M,0.87,N,1.61,K,A*38

$GPGGA,144528.000,4709.3772,N,00138.2778,W,1,08,0.97,60.3,M,48.7,M,,*43

$GPGLL,4709.3772,N,00138.2778,W,144528.000,A,A*4E

$GPGSA,A,3,26,10,07,18,21,27,08,16,,,,,1.25,0.97,0.80*00

$GPGSV,4,1,13,27,80,071,17,08,58,303,19,10,55,106,26,16,41,177,17*79

$GPGSV,4,2,13,18,40,064,16,11,19,265,,21,18,064,15,07,15,286,17*79

$GPGSV,4,3,13,26,15,167,16,30,10,319,,01,07,244,,15,05,034,*70

$GPGSV,4,4,13,48,,,*77

$GPRMC,144528.000,A,4709.3772,N,00138.2778,W,0.89,143.96,180717,,,A*79

$GPVTG,143.96,T,,M,0.89,N,1.65,K,A*37

$GPGGA,144529.000,4709.3765,N,00138.2774,W,1,08,0.97,60.3,M,48.7,M,,*48

$GPGLL,4709.3765,N,00138.2774,W,144529.000,A,A*45

$GPGSA,A,3,26,10,07,18,21,27,08,16,,,,,1.25,0.97,0.80*00

$GPGSV,4,1,13,27,80,071,17,08,58,303,19,10,55,106,26,16,41,177,17*79

$GPGSV,4,2,13,18,40,064,16,11,19,265,,21,18,064,15,07,15,286,17*79

$GPGSV,4,3,13,26,15,167,16,30,10,319,,01,07,244,,15,05,034,*70

$GPGSV,4,4,13,48,,,*77

$GPRMC,144529.000,A,4709.3765,N,00138.2774,W,0.95,146.28,180717,,,A*7F

$GPVTG,146.28,T,,M,0.95,N,1.75,K,A*3B

$GPGGA,144530.000,4709.3759,N,00138.2766,W,1,08,0.97,60.3,M,48.7,M,,*4C

$GPGLL,4709.3759,N,00138.2766,W,144530.000,A,A*41

$GPGSA,A,3,26,10,07,18,21,27,08,16,,,,,1.25,0.97,0.80*00

$GPGSV,4,1,13,27,80,071,17,08,58,303,19,10,55,106,27,16,41,177,17*78

$GPGSV,4,2,13,18,40,064,16,11,19,265,,21,18,064,14,07,15,286,17*78

$GPGSV,4,3,13,26,15,167,16,30,10,319,,01,07,244,,15,05,034,*70

$GPGSV,4,4,13,48,,,*77

$GPRMC,144530.000,A,4709.3759,N,00138.2766,W,0.99,148.03,180717,,,A*70

$GPVTG,148.03,T,,M,0.99,N,1.83,K,A*39

$GPGGA,144531.000,4709.3753,N,00138.2762,W,1,08,0.97,60.3,M,48.7,M,,*43

$GPGLL,4709.3753,N,00138.2762,W,144531.000,A,A*4E

$GPGSA,A,3,26,10,07,18,21,27,08,16,,,,,1.25,0.97,0.80*00

$GPGSV,4,1,13,27,80,071,17,08,58,303,19,10,55,106,27,16,41,177,17*78

$GPGSV,4,2,13,18,40,064,16,11,19,265,,21,18,064,14,07,15,286,17*78

$GPGSV,4,3,13,26,15,167,16,30,10,319,,01,07,244,,15,05,034,*70

$GPGSV,4,4,13,42,,,*7D

$GPRMC,144531.000,A,4709.3753,N,00138.2762,W,0.99,149.80,180717,,,A*75

$GPVTG,149.80,T,,M,0.99,N,1.84,K,A*34

$GPGGA,144532.000,4709.3748,N,00138.2755,W,1,08,0.97,60.4,M,48.7,M,,*49

$GPGLL,4709.3748,N,00138.2755,W,144532.000,A,A*43

$GPGSA,A,3,26,10,07,18,21,27,08,16,,,,,1.25,0.97,0.80*00

$GPGSV,4,1,13,27,80,071,17,08,58,303,19,10,55,106,27,16,41,177,17*78

$GPGSV,4,2,13,18,40,064,16,11,19,265,,21,18,064,14,07,15,286,17*78

$GPGSV,4,3,13,26,15,167,16,30,10,319,,01,07,244,,15,05,034,*70

$GPGSV,4,4,13,42,,,*7D

$GPRMC,144532.000,A,4709.3748,N,00138.2755,W,0.98,151.06,180717,,,A*7E

$GPVTG,151.06,T,,M,0.98,N,1.82,K,A*34

$GPGGA,144533.000,4709.3746,N,00138.2745,W,1,08,0.97,60.5,M,48.7,M,,*46

$GPGLL,4709.3746,N,00138.2745,W,144533.000,A,A*4D

$GPGSA,A,3,26,10,07,18,21,27,08,16,,,,,1.25,0.97,0.80*00

$GPGSV,4,1,13,27,80,071,17,08,58,303,19,10,55,106,27,16,41,177,17*78

$GPGSV,4,2,13,18,40,064,16,11,19,265,,21,18,064,15,07,15,286,16*78

$GPGSV,4,3,13,26,15,167,16,30,10,319,,01,07,244,,15,05,034,*70

$GPGSV,4,4,13,42,,,*7D

$GPRMC,144533.000,A,4709.3746,N,00138.2745,W,0.96,147.49,180717,,,A*72

$GPVTG,147.49,T,,M,0.96,N,1.78,K,A*33

$GPGGA,144534.000,4709.3745,N,00138.2735,W,1,08,0.97,60.5,M,48.7,M,,*45

$GPGLL,4709.3745,N,00138.2735,W,144534.000,A,A*4E

$GPGSA,A,3,26,10,07,18,21,27,08,16,,,,,1.25,0.97,0.80*00

$GPGSV,4,1,13,27,80,071,17,08,58,303,19,10,55,106,27,16,41,177,18*77

$GPGSV,4,2,13,18,40,064,16,11,19,265,,21,18,064,15,07,15,286,16*78

$GPGSV,4,3,13,26,15,167,16,30,10,319,,01,07,244,,15,05,034,*70

$GPGSV,4,4,13,42,,,*7D

$GPRMC,144534.000,A,4709.3745,N,00138.2735,W,0.96,142.50,180717,,,A*7C

$GPVTG,142.50,T,,M,0.96,N,1.78,K,A*3E

$GPGGA,144535.000,4709.3745,N,00138.2726,W,1,08,0.97,60.6,M,48.7,M,,*45

$GPGLL,4709.3745,N,00138.2726,W,144535.000,A,A*4D

$GPGSA,A,3,26,10,07,18,21,27,08,16,,,,,1.25,0.97,0.80*00

$GPGSV,4,1,13,27,80,071,17,08,58,303,19,10,55,106,27,16,41,177,18*77

$GPGSV,4,2,13,18,40,064,16,11,19,265,,21,18,064,15,07,15,286,16*78

$GPGSV,4,3,13,26,15,167,16,30,10,319,,01,07,244,,15,05,034,*70

$GPGSV,4,4,13,42,,,*7D

$GPRMC,144535.000,A,4709.3745,N,00138.2726,W,0.88,140.12,180717,,,A*74

$GPVTG,140.12,T,,M,0.88,N,1.63,K,A*3F

$GPGGA,144536.000,4709.3744,N,00138.2722,W,1,08,0.97,60.7,M,48.7,M,,*42

$GPGLL,4709.3744,N,00138.2722,W,144536.000,A,A*4B

$GPGSA,A,3,26,10,07,18,21,27,08,16,,,,,1.25,0.97,0.80*00

$GPGSV,4,1,13,27,80,071,17,08,58,303,19,10,55,106,27,16,41,177,18*77

$GPGSV,4,2,13,18,40,064,16,11,19,265,,21,18,064,12,07,15,286,16*7F

$GPGSV,4,3,13,26,15,167,16,30,10,319,,01,07,244,,15,05,034,*70

$GPGSV,4,4,13,42,,,*7D

$GPRMC,144536.000,A,4709.3744,N,00138.2722,W,0.82,136.38,180717,,,A*71

$GPVTG,136.38,T,,M,0.82,N,1.52,K,A*3E

$GPGGA,144537.000,4709.3745,N,00138.2720,W,1,08,0.97,60.9,M,48.7,M,,*4E

$GPGLL,4709.3745,N,00138.2720,W,144537.000,A,A*49

$GPGSA,A,3,26,10,07,18,21,27,08,16,,,,,1.25,0.97,0.80*00

$GPGSV,4,1,13,27,80,073,17,08,58,303,19,10,55,106,27,16,41,177,18*75

$GPGSV,4,2,13,18,40,064,16,11,19,265,,21,18,064,12,07,15,286,16*7F

$GPGSV,4,3,13,26,15,167,16,30,10,319,,01,07,244,,15,05,034,*70

$GPGSV,4,4,13,50,,,*7E

$GPRMC,144537.000,A,4709.3745,N,00138.2720,W,0.59,139.57,180717,,,A*73

$GPVTG,139.57,T,,M,0.59,N,1.09,K,A*30

$GPGGA,144538.000,4709.3742,N,00138.2718,W,1,08,0.97,61.0,M,48.7,M,,*45

$GPGLL,4709.3742,N,00138.2718,W,144538.000,A,A*4A

$GPGSA,A,3,26,10,07,18,21,27,08,16,,,,,1.25,0.97,0.80*00

$GPGSV,4,1,13,27,80,073,17,08,58,303,19,10,55,106,27,16,41,177,19*74

$GPGSV,4,2,13,18,40,064,16,11,19,265,,21,18,064,13,07,15,286,16*7E

$GPGSV,4,3,13,26,15,167,16,30,10,319,,01,07,244,,15,05,034,*70

$GPGSV,4,4,13,50,,,*7E

$GPRMC,144538.000,A,4709.3742,N,00138.2718,W,0.56,142.52,180717,,,A*76

$GPVTG,142.52,T,,M,0.56,N,1.04,K,A*3B

$GPGGA,144539.000,4709.3740,N,00138.2715,W,1,08,0.97,61.2,M,48.7,M,,*49

$GPGLL,4709.3740,N,00138.2715,W,144539.000,A,A*44

$GPGSA,A,3,26,10,07,18,21,27,08,16,,,,,1.25,0.97,0.80*00

$GPGSV,4,1,13,27,80,073,17,08,58,303,19,10,55,106,27,16,41,177,19*74

$GPGSV,4,2,13,18,40,064,16,11,19,265,,21,18,064,15,07,15,286,16*78

$GPGSV,4,3,13,26,15,167,16,30,10,319,,01,07,244,,15,05,034,*70

$GPGSV,4,4,13,50,,,*7E

$GPRMC,144539.000,A,4709.3740,N,00138.2715,W,0.46,148.18,180717,,,A*7D

$GPVTG,148.18,T,,M,0.46,N,0.86,K,A*35

$GPGGA,144540.000,4709.3738,N,00138.2713,W,1,08,0.97,61.3,M,48.7,M,,*4F

$GPGLL,4709.3738,N,00138.2713,W,144540.000,A,A*43

$GPGSA,A,3,26,10,07,18,21,27,08,16,,,,,1.26,0.97,0.80*03

$GPGSV,4,1,13,27,80,073,17,08,58,303,19,10,55,106,27,16,41,177,19*74

$GPGSV,4,2,13,18,40,064,16,11,19,265,,21,18,064,16,07,15,286,16*7B

$GPGSV,4,3,13,26,15,167,16,30,10,319,,01,07,244,,15,05,034,*70

$GPGSV,4,4,13,50,,,*7E

$GPRMC,144540.000,A,4709.3738,N,00138.2713,W,0.35,167.60,180717,,,A*7C

$GPVTG,167.60,T,,M,0.35,N,0.65,K,A*3E

$GPGGA,144541.000,4709.3736,N,00138.2708,W,1,08,0.97,61.4,M,48.7,M,,*4D

$GPGLL,4709.3736,N,00138.2708,W,144541.000,A,A*46

$GPGSA,A,3,26,10,07,18,21,27,08,16,,,,,1.25,0.97,0.80*00

$GPGSV,4,1,13,27,80,073,16,08,58,303,19,10,55,106,27,16,41,177,19*75

$GPGSV,4,2,13,18,40,064,16,11,19,265,,21,18,064,15,07,15,286,16*78

$GPGSV,4,3,13,26,15,167,16,30,10,319,,01,07,244,,15,05,034,*70

$GPGSV,4,4,13,50,,,*7E

$GPRMC,144541.000,A,4709.3736,N,00138.2708,W,0.34,172.96,180717,,,A*75

$GPVTG,172.96,T,,M,0.34,N,0.63,K,A*34

$GPGGA,144542.000,4709.3735,N,00138.2708,W,1,08,0.97,61.4,M,48.7,M,,*4D

$GPGLL,4709.3735,N,00138.2708,W,144542.000,A,A*46

$GPGSA,A,3,26,10,07,18,21,27,08,16,,,,,1.25,0.97,0.80*00

$GPGSV,4,1,13,27,80,073,16,08,58,303,19,10,55,106,27,16,41,177,20*7F

$GPGSV,4,2,13,18,40,064,16,11,19,265,,21,18,064,16,07,15,286,16*7B

$GPGSV,4,3,13,26,15,167,16,30,10,319,,01,07,244,,15,05,034,*70

$GPGSV,4,4,13,50,,,*7E

$GPRMC,144542.000,A,4709.3735,N,00138.2708,W,0.32,178.88,180717,,,A*76

$GPVTG,178.88,T,,M,0.32,N,0.60,K,A*34

$GPGGA,144543.000,4709.3734,N,00138.2708,W,1,08,0.97,61.4,M,48.7,M,,*4D

$GPGLL,4709.3734,N,00138.2708,W,144543.000,A,A*46

$GPGSA,A,3,26,10,07,18,21,27,08,16,,,,,1.25,0.97,0.80*00

$GPGSV,4,1,13,27,80,073,16,08,58,303,19,10,55,106,27,16,41,177,20*7F

$GPGSV,4,2,13,18,40,064,16,11,19,265,,21,18,064,17,07,15,286,16*7A

$GPGSV,4,3,13,26,15,167,16,30,10,319,,01,07,244,,15,05,034,*70

$GPGSV,4,4,13,50,,,*7E

$GPRMC,144543.000,A,4709.3734,N,00138.2708,W,0.37,163.03,180717,,,A*7A

$GPVTG,163.03,T,,M,0.37,N,0.68,K,A*30

$GPGGA,144544.000,4709.3733,N,00138.2707,W,1,08,0.97,61.4,M,48.7,M,,*42

$GPGLL,4709.3733,N,00138.2707,W,144544.000,A,A*49

$GPGSA,A,3,26,10,07,18,21,27,08,16,,,,,1.25,0.97,0.80*00

$GPGSV,4,1,13,27,80,073,16,08,58,303,19,10,55,106,27,16,41,177,20*7F

$GPGSV,4,2,13,18,40,064,16,33,34,198,,11,19,265,,21,18,064,15*77

$GPGSV,4,3,13,07,15,286,16,26,15,167,16,30,10,319,,01,07,244,*7E

$GPGSV,4,4,13,15,05,034,*4D

$GPRMC,144544.000,A,4709.3733,N,00138.2707,W,0.43,156.84,180717,,,A*7F

$GPVTG,156.84,T,,M,0.43,N,0.80,K,A*3C

$GPGGA,144545.000,4709.3732,N,00138.2706,W,1,08,0.97,61.4,M,48.7,M,,*43

$GPGLL,4709.3732,N,00138.2706,W,144545.000,A,A*48

$GPGSA,A,3,26,10,07,18,21,27,08,16,,,,,1.25,0.97,0.80*00

$GPGSV,4,1,13,27,80,073,16,08,58,303,19,10,55,106,27,16,41,177,20*7F

$GPGSV,4,2,13,18,40,064,16,33,34,198,,11,19,265,,21,18,064,15*77

$GPGSV,4,3,13,07,15,286,16,26,15,167,16,30,10,319,,01,07,244,*7E

$GPGSV,4,4,13,15,05,034,*4D

$GPRMC,144545.000,A,4709.3732,N,00138.2706,W,0.52,149.05,180717,,,A*79

$GPVTG,149.05,T,,M,0.52,N,0.97,K,A*3D

$GPGGA,144546.000,4709.3730,N,00138.2705,W,1,08,0.97,61.4,M,48.7,M,,*41

$GPGLL,4709.3730,N,00138.2705,W,144546.000,A,A*4A

$GPGSA,A,3,26,10,07,18,21,27,08,16,,,,,1.25,0.97,0.80*00

$GPGSV,4,1,13,27,80,073,16,08,58,303,20,10,55,106,27,16,41,177,21*74

$GPGSV,4,2,13,18,40,064,16,33,34,198,,11,19,265,,21,18,064,15*77

$GPGSV,4,3,13,07,15,286,16,26,15,167,16,30,10,319,,01,08,244,*71

$GPGSV,4,4,13,15,05,034,*4D

$GPRMC,144546.000,A,4709.3730,N,00138.2705,W,0.55,149.42,180717,,,A*7F

$GPVTG,149.42,T,,M,0.55,N,1.02,K,A*34

$GPGGA,144547.000,4709.3729,N,00138.2704,W,1,08,0.97,61.4,M,48.7,M,,*49

$GPGLL,4709.3729,N,00138.2704,W,144547.000,A,A*42

$GPGSA,A,3,26,10,07,18,21,27,08,16,,,,,1.25,0.97,0.80*00

$GPGSV,4,1,13,27,80,073,16,08,58,303,20,10,55,106,27,16,41,177,21*74

$GPGSV,4,2,13,18,40,064,17,33,34,198,,11,19,265,,21,18,064,15*76

$GPGSV,4,3,13,07,15,286,16,26,15,167,16,30,10,319,,01,08,244,*71

$GPGSV,4,4,13,15,05,034,*4D

$GPRMC,144547.000,A,4709.3729,N,00138.2704,W,0.65,149.03,180717,,,A*71

$GPVTG,149.03,T,,M,0.65,N,1.20,K,A*32

$GPGGA,144548.000,4709.3725,N,00138.2697,W,1,08,0.97,61.6,M,48.7,M,,*43

$GPGLL,4709.3725,N,00138.2697,W,144548.000,A,A*4A

$GPGSA,A,3,26,10,07,18,21,27,08,16,,,,,1.25,0.97,0.80*00

$GPGSV,4,1,13,27,80,073,16,08,58,303,20,10,55,106,27,16,41,177,21*74

$GPGSV,4,2,13,18,40,064,17,33,34,198,,11,19,265,,21,18,064,15*76

$GPGSV,4,3,13,07,15,286,16,26,15,167,16,30,10,319,,01,08,244,*71

$GPGSV,4,4,13,15,05,034,*4D

$GPRMC,144548.000,A,4709.3725,N,00138.2697,W,0.67,142.46,180717,,,A*71

$GPVTG,142.46,T,,M,0.67,N,1.24,K,A*3E

$GPGGA,144549.000,4709.3726,N,00138.2687,W,1,08,0.97,61.8,M,48.7,M,,*4E

$GPGLL,4709.3726,N,00138.2687,W,144549.000,A,A*49

$GPGSA,A,3,26,10,07,18,21,27,08,16,,,,,1.25,0.97,0.80*00

$GPGSV,4,1,13,27,80,073,17,08,58,303,20,10,55,106,27,16,41,177,21*75

$GPGSV,4,2,13,18,40,064,17,33,34,198,,11,19,265,,21,18,064,15*76

$GPGSV,4,3,13,07,15,286,16,26,15,167,16,30,10,319,,01,08,244,*71

$GPGSV,4,4,13,15,05,034,*4D

$GPRMC,144549.000,A,4709.3726,N,00138.2687,W,0.61,134.14,180717,,,A*72

$GPVTG,134.14,T,,M,0.61,N,1.13,K,A*3A

$GPGGA,144550.000,4709.3727,N,00138.2683,W,1,08,0.97,61.9,M,48.7,M,,*42

$GPGLL,4709.3727,N,00138.2683,W,144550.000,A,A*44

$GPGSA,A,3,26,10,07,18,21,27,08,16,,,,,1.25,0.97,0.80*00

$GPGSV,4,1,13,27,80,073,17,08,58,303,20,10,55,106,27,16,41,177,21*75

$GPGSV,4,2,13,18,40,064,17,33,34,198,,11,19,265,,21,18,064,15*76

$GPGSV,4,3,13,07,15,286,16,26,15,167,16,30,10,319,,01,08,244,*71

$GPGSV,4,4,13,15,05,034,*4D

$GPRMC,144550.000,A,4709.3727,N,00138.2683,W,0.48,141.73,180717,,,A*77

$GPVTG,141.73,T,,M,0.48,N,0.90,K,A*38

$GPGGA,144551.000,4709.3726,N,00138.2682,W,1,08,0.97,61.8,M,48.7,M,,*42

$GPGLL,4709.3726,N,00138.2682,W,144551.000,A,A*45

$GPGSA,A,3,26,10,07,18,21,27,08,16,,,,,1.25,0.97,0.80*00

$GPGSV,4,1,13,27,80,073,18,08,58,303,20,10,55,106,27,16,41,177,21*7A

$GPGSV,4,2,13,18,40,064,17,33,34,198,,11,19,265,,21,18,064,16*75

$GPGSV,4,3,13,07,15,286,16,26,15,167,16,30,10,319,,01,08,244,*71

$GPGSV,4,4,13,15,05,034,*4D

$GPRMC,144551.000,A,4709.3726,N,00138.2682,W,0.43,152.51,180717,,,A*7F

$GPVTG,152.51,T,,M,0.43,N,0.80,K,A*30

$GPGGA,144552.000,4709.3728,N,00138.2675,W,1,08,0.97,61.9,M,48.7,M,,*46

$GPGLL,4709.3728,N,00138.2675,W,144552.000,A,A*40

$GPGSA,A,3,26,10,07,18,21,27,08,16,,,,,1.25,0.97,0.80*00

$GPGSV,4,1,13,27,80,073,18,08,58,303,20,10,55,106,27,16,41,177,21*7A

$GPGSV,4,2,13,18,40,064,17,33,34,198,,11,19,265,,21,18,064,16*75

$GPGSV,4,3,13,07,15,286,16,26,15,167,16,30,10,319,,01,08,244,*71

$GPGSV,4,4,13,15,05,034,*4D

$GPRMC,144552.000,A,4709.3728,N,00138.2675,W,0.38,141.87,180717,,,A*7F

$GPVTG,141.87,T,,M,0.38,N,0.70,K,A*3A

$GPGGA,144553.000,4709.3730,N,00138.2671,W,1,08,0.97,61.9,M,48.7,M,,*4A

$GPGLL,4709.3730,N,00138.2671,W,144553.000,A,A*4C

$GPGSA,A,3,26,10,07,18,21,27,08,16,,,,,1.25,0.97,0.80*00

$GPGSV,4,1,13,27,80,073,19,08,58,303,20,10,55,106,27,16,41,177,21*7B

$GPGSV,4,2,13,18,40,064,17,37,31,149,,11,19,265,,21,18,064,16*78

$GPGSV,4,3,13,07,15,286,16,26,15,167,16,30,10,319,,01,08,244,*71

$GPGSV,4,4,13,15,05,034,*4D

$GPRMC,144553.000,A,4709.3730,N,00138.2671,W,0.36,126.34,180717,,,A*74

$GPVTG,126.34,T,,M,0.36,N,0.66,K,A*3A

$GPGGA,144554.000,4709.3729,N,00138.2670,W,1,08,0.97,61.9,M,48.7,M,,*44

$GPGLL,4709.3729,N,00138.2670,W,144554.000,A,A*42

$GPGSA,A,3,26,10,07,18,21,27,08,16,,,,,1.25,0.97,0.80*00

$GPGSV,4,1,13,27,80,073,19,08,58,303,20,10,55,106,27,16,41,177,21*7B

$GPGSV,4,2,13,18,40,064,17,37,31,149,,11,19,265,,21,18,064,16*78

$GPGSV,4,3,13,07,15,286,16,26,15,167,16,30,10,319,,01,08,244,*71

$GPGSV,4,4,13,15,05,034,*4D

$GPRMC,144554.000,A,4709.3729,N,00138.2670,W,0.33,110.09,180717,,,A*74

$GPVTG,110.09,T,,M,0.33,N,0.62,K,A*30

$GPGGA,144555.000,4709.3729,N,00138.2668,W,1,08,0.97,61.9,M,48.7,M,,*4C

$GPGLL,4709.3729,N,00138.2668,W,144555.000,A,A*4A

$GPGSA,A,3,26,10,07,18,21,27,08,16,,,,,1.25,0.97,0.80*00

$GPGSV,4,1,13,27,80,073,19,08,58,303,20,10,55,105,27,16,41,177,21*78

$GPGSV,4,2,13,18,40,064,17,37,31,149,,11,19,265,,21,18,064,16*78

$GPGSV,4,3,13,07,15,286,16,26,15,167,16,30,10,319,,01,08,244,*71

$GPGSV,4,4,13,15,05,034,*4D

$GPRMC,144555.000,A,4709.3729,N,00138.2668,W,0.33,90.02,180717,,,A*4E

$GPVTG,90.02,T,,M,0.33,N,0.61,K,A*01

$GPGGA,144556.000,4709.3729,N,00138.2667,W,1,08,0.97,62.0,M,48.7,M,,*4A

$GPGLL,4709.3729,N,00138.2667,W,144556.000,A,A*46

$GPGSA,A,3,26,10,07,18,21,27,08,16,,,,,1.25,0.97,0.80*00

$GPGSV,4,1,13,27,80,073,19,08,58,303,20,10,55,105,27,16,41,177,22*7B

$GPGSV,4,2,13,18,40,064,17,37,31,149,,11,19,265,,21,18,064,16*78

$GPGSV,4,3,13,07,15,286,15,26,15,167,16,30,10,319,,01,08,244,*72

$GPGSV,4,4,13,15,05,034,*4D

$GPRMC,144556.000,A,4709.3729,N,00138.2667,W,0.40,81.26,180717,,,A*40

$GPVTG,81.26,T,,M,0.40,N,0.74,K,A*07

$GPGGA,144557.000,4709.3729,N,00138.2665,W,1,08,0.97,62.0,M,48.7,M,,*49

$GPGLL,4709.3729,N,00138.2665,W,144557.000,A,A*45

$GPGSA,A,3,26,10,07,18,21,27,08,16,,,,,1.25,0.97,0.80*00

$GPGSV,4,1,13,27,80,073,19,08,58,303,21,10,55,105,27,16,41,177,22*7A

$GPGSV,4,2,13,18,40,064,17,37,31,149,,11,19,265,,21,18,064,16*78

$GPGSV,4,3,13,07,15,286,15,26,15,167,16,30,10,319,,01,08,244,*72

$GPGSV,4,4,13,15,05,034,*4D

$GPRMC,144557.000,A,4709.3729,N,00138.2665,W,0.33,85.72,180717,,,A*42

$GPVTG,85.72,T,,M,0.33,N,0.61,K,A*02

$GPGGA,144558.000,4709.3729,N,00138.2663,W,1,08,0.97,62.0,M,48.7,M,,*40

$GPGLL,4709.3729,N,00138.2663,W,144558.000,A,A*4C

$GPGSA,A,3,26,10,07,18,21,27,08,16,,,,,1.25,0.97,0.80*00

$GPGSV,4,1,13,27,80,073,19,08,58,303,21,10,55,105,27,16,41,177,22*7A

$GPGSV,4,2,13,18,40,064,17,37,31,149,,11,19,265,,21,18,064,17*79

$GPGSV,4,3,13,07,15,286,16,26,15,167,16,30,10,319,,01,08,244,*71

$GPGSV,4,4,13,15,05,034,*4D

$GPRMC,144558.000,A,4709.3729,N,00138.2663,W,0.39,83.42,180717,,,A*44

$GPVTG,83.42,T,,M,0.39,N,0.72,K,A*0F

$GPGGA,144559.000,4709.3729,N,00138.2662,W,1,08,0.97,62.0,M,48.7,M,,*40

$GPGLL,4709.3729,N,00138.2662,W,144559.000,A,A*4C

$GPGSA,A,3,26,10,07,18,21,27,08,16,,,,,1.25,0.97,0.80*00

$GPGSV,4,1,13,27,80,073,19,08,58,303,20,10,55,105,27,16,41,177,22*7B

$GPGSV,4,2,13,18,40,064,16,37,31,149,,11,19,265,,21,18,064,17*78

$GPGSV,4,3,13,07,15,286,16,26,15,167,16,30,10,319,,01,08,244,*71

$GPGSV,4,4,13,15,05,034,*4D

$GPRMC,144559.000,A,4709.3729,N,00138.2662,W,0.43,83.40,180717,,,A*4B

$GPVTG,83.40,T,,M,0.43,N,0.80,K,A*0D

$GPGGA,144600.000,4709.3730,N,00138.2660,W,1,08,0.97,62.0,M,48.7,M,,*45

$GPGLL,4709.3730,N,00138.2660,W,144600.000,A,A*49

$GPGSA,A,3,26,10,07,18,21,27,08,16,,,,,1.25,0.97,0.80*00

$GPGSV,4,1,13,27,80,073,19,08,58,303,20,10,55,105,27,16,41,177,22*7B

$GPGSV,4,2,13,18,40,064,16,37,31,149,,11,19,265,,21,18,064,17*78

$GPGSV,4,3,13,07,15,286,16,26,15,167,16,30,10,319,,01,08,244,*71

$GPGSV,4,4,13,15,05,034,*4D

$GPRMC,144600.000,A,4709.3730,N,00138.2660,W,0.37,82.11,180717,,,A*48

$GPVTG,82.11,T,,M,0.37,N,0.69,K,A*0C

$GPGGA,144601.000,4709.3730,N,00138.2658,W,1,08,0.97,62.0,M,48.7,M,,*4F

$GPGLL,4709.3730,N,00138.2658,W,144601.000,A,A*43

$GPGSA,A,3,26,10,07,18,21,27,08,16,,,,,1.25,0.97,0.80*00

$GPGSV,4,1,13,27,80,073,21,08,58,303,20,10,55,105,27,16,41,177,22*70

$GPGSV,4,2,13,18,40,064,16,37,31,149,,11,19,265,,21,18,064,17*78

$GPGSV,4,3,13,07,15,286,17,26,15,167,16,30,10,319,,01,08,244,*70

$GPGSV,4,4,13,15,05,034,*4D

$GPRMC,144601.000,A,4709.3730,N,00138.2658,W,0.39,74.61,180717,,,A*42

$GPVTG,74.61,T,,M,0.39,N,0.72,K,A*06

$GPGGA,144602.000,4709.3730,N,00138.2657,W,1,08,0.97,62.0,M,48.7,M,,*43

$GPGLL,4709.3730,N,00138.2657,W,144602.000,A,A*4F

$GPGSA,A,3,26,10,07,18,21,27,08,16,,,,,1.25,0.97,0.80*00

$GPGSV,4,1,13,27,80,073,22,08,58,303,20,10,55,105,27,16,41,177,22*73

$GPGSV,4,2,13,18,40,064,16,37,31,149,,11,19,265,,21,18,064,17*78

$GPGSV,4,3,13,07,15,286,17,26,15,167,16,30,10,319,,01,08,244,*70

$GPGSV,4,4,13,15,05,034,*4D

$GPRMC,144602.000,A,4709.3730,N,00138.2657,W,0.36,81.91,180717,,,A*44

$GPVTG,81.91,T,,M,0.36,N,0.67,K,A*08

$GPGGA,144603.000,4709.3730,N,00138.2655,W,1,08,0.97,62.0,M,48.7,M,,*40

$GPGLL,4709.3730,N,00138.2655,W,144603.000,A,A*4C

$GPGSA,A,3,26,10,07,18,21,27,08,16,,,,,1.25,0.97,0.80*00

$GPGSV,4,1,13,27,80,073,22,08,58,303,20,10,55,105,27,16,41,177,22*73

$GPGSV,4,2,13,18,40,064,16,39,29,145,,11,19,265,,21,18,064,17*73

$GPGSV,4,3,13,07,15,286,17,26,15,167,16,30,10,319,,01,08,244,*70

$GPGSV,4,4,13,15,05,034,*4D

$GPRMC,144603.000,A,4709.3730,N,00138.2655,W,0.38,95.83,180717,,,A*4F

$GPVTG,95.83,T,,M,0.38,N,0.70,K,A*06

$GPGGA,144604.000,4709.3730,N,00138.2654,W,1,08,0.97,62.0,M,48.7,M,,*46

$GPGLL,4709.3730,N,00138.2654,W,144604.000,A,A*4A

$GPGSA,A,3,26,10,07,18,21,27,08,16,,,,,1.25,0.97,0.80*00

$GPGSV,4,1,13,27,80,073,21,08,58,303,20,10,55,105,27,16,41,177,22*70

$GPGSV,4,2,13,18,40,064,16,39,29,145,,11,19,265,,21,18,064,17*73

$GPGSV,4,3,13,07,15,286,17,26,15,167,16,30,10,319,,01,08,244,*70

$GPGSV,4,4,13,15,05,034,*4D

$GPRMC,144604.000,A,4709.3730,N,00138.2654,W,0.35,115.57,180717,,,A*74

$GPVTG,115.57,T,,M,0.35,N,0.66,K,A*3C

$GPGGA,144605.000,4709.3729,N,00138.2652,W,1,08,0.97,62.0,M,48.7,M,,*49

$GPGLL,4709.3729,N,00138.2652,W,144605.000,A,A*45

$GPGSA,A,3,26,10,07,18,21,27,08,16,,,,,1.25,0.97,0.80*00

$GPGSV,4,1,13,27,80,073,21,08,58,303,20,10,55,105,27,16,41,177,22*70

$GPGSV,4,2,13,18,40,064,16,39,29,145,,11,19,265,,21,18,064,17*73

$GPGSV,4,3,13,07,15,286,17,26,15,167,16,30,10,319,,01,08,244,*70

$GPGSV,4,4,13,15,05,034,*4D

$GPRMC,144605.000,A,4709.3729,N,00138.2652,W,0.39,117.04,180717,,,A*73

$GPVTG,117.04,T,,M,0.39,N,0.72,K,A*31

$GPGGA,144606.000,4709.3729,N,00138.2651,W,1,08,0.97,62.0,M,48.7,M,,*49

$GPGLL,4709.3729,N,00138.2651,W,144606.000,A,A*45

$GPGSA,A,3,26,10,07,18,21,27,08,16,,,,,1.25,0.97,0.80*00

$GPGSV,4,1,13,27,80,073,20,08,58,303,20,10,55,105,27,16,41,177,22*71

$GPGSV,4,2,13,18,40,064,16,39,29,145,,11,19,265,,21,18,064,16*72

$GPGSV,4,3,13,07,15,286,17,26,15,167,16,30,10,319,,01,08,244,*70

$GPGSV,4,4,13,15,05,034,*4D

$GPRMC,144606.000,A,4709.3729,N,00138.2651,W,0.37,125.22,180717,,,A*78

$GPVTG,125.22,T,,M,0.37,N,0.68,K,A*31

$GPGGA,144607.000,4709.3728,N,00138.2650,W,1,08,0.97,62.0,M,48.7,M,,*48

$GPGLL,4709.3728,N,00138.2650,W,144607.000,A,A*44

$GPGSA,A,3,26,10,07,18,21,27,08,16,,,,,1.25,0.97,0.80*00

$GPGSV,4,1,13,27,80,073,20,08,58,303,20,10,55,105,27,16,41,177,22*71

$GPGSV,4,2,13,18,40,064,16,39,29,145,,11,19,265,,21,18,064,16*72

$GPGSV,4,3,13,07,15,286,17,26,15,167,16,30,10,319,,01,08,244,*70

$GPGSV,4,4,13,15,05,034,*4D

$GPRMC,144607.000,A,4709.3728,N,00138.2650,W,0.41,140.00,180717,,,A*7B

$GPVTG,140.00,T,,M,0.41,N,0.76,K,A*3C

$GPGGA,144608.000,4709.3727,N,00138.2649,W,1,08,0.97,62.0,M,48.7,M,,*40

$GPGLL,4709.3727,N,00138.2649,W,144608.000,A,A*4C

$GPGSA,A,3,26,10,07,18,21,27,08,16,,,,,1.25,0.97,0.80*00

$GPGSV,4,1,13,27,80,073,20,08,58,303,20,10,55,105,27,16,41,177,22*71

$GPGSV,4,2,13,18,40,064,16,39,29,145,,11,19,265,,21,18,064,16*72

$GPGSV,4,3,13,07,15,286,17,26,15,167,16,30,10,319,,01,08,244,*70

$GPGSV,4,4,13,15,05,034,*4D

$GPRMC,144608.000,A,4709.3727,N,00138.2649,W,0.35,157.12,180717,,,A*75

$GPVTG,157.12,T,,M,0.35,N,0.65,K,A*38

$GPGGA,144609.000,4709.3726,N,00138.2648,W,1,08,0.97,62.0,M,48.7,M,,*41

$GPGLL,4709.3726,N,00138.2648,W,144609.000,A,A*4D

$GPGSA,A,3,26,10,07,18,21,27,08,16,,,,,1.25,0.97,0.80*00

$GPGSV,4,1,13,27,80,073,20,08,58,303,20,10,55,105,27,16,41,177,24*77

$GPGSV,4,2,13,18,40,064,15,39,29,145,,11,19,265,,21,18,064,16*71

$GPGSV,4,3,13,07,15,286,18,26,15,167,16,30,10,319,,01,08,244,*7F

$GPGSV,4,4,13,15,05,034,*4D

$GPRMC,144609.000,A,4709.3726,N,00138.2648,W,0.38,158.94,180717,,,A*78

$GPVTG,158.94,T,,M,0.38,N,0.70,K,A*30

$GPGGA,144610.000,4709.3725,N,00138.2648,W,1,08,0.97,62.0,M,48.7,M,,*4A

$GPGLL,4709.3725,N,00138.2648,W,144610.000,A,A*46

$GPGSA,A,3,26,10,07,18,21,27,08,16,,,,,1.25,0.97,0.80*00

$GPGSV,4,1,13,27,80,073,20,08,58,303,20,10,55,105,27,16,41,177,22*71

$GPGSV,4,2,13,18,40,064,14,39,29,145,,11,19,265,,21,18,064,16*70

$GPGSV,4,3,13,07,15,286,18,26,15,167,16,30,10,319,,01,08,244,*7F

$GPGSV,4,4,13,15,05,034,*4D

$GPRMC,144610.000,A,4709.3725,N,00138.2648,W,0.36,155.50,180717,,,A*78

$GPVTG,155.50,T,,M,0.36,N,0.66,K,A*3C

$GPGGA,144611.000,4709.3724,N,00138.2647,W,1,08,0.97,62.0,M,48.7,M,,*45

$GPGLL,4709.3724,N,00138.2647,W,144611.000,A,A*49

$GPGSA,A,3,26,10,07,18,21,27,08,16,,,,,1.25,0.97,0.80*00

$GPGSV,4,1,13,27,80,073,20,08,58,303,20,10,55,105,27,16,41,177,22*71

$GPGSV,4,2,13,18,40,064,13,39,29,145,,11,19,265,,21,18,064,16*77

$GPGSV,4,3,13,07,15,286,18,26,14,167,15,30,10,319,,01,08,244,*7D

$GPGSV,4,4,13,15,05,034,*4D

$GPRMC,144611.000,A,4709.3724,N,00138.2647,W,0.32,148.48,180717,,,A*76

$GPVTG,148.48,T,,M,0.32,N,0.60,K,A*3B

$GPGGA,144612.000,4709.3723,N,00138.2646,W,1,08,0.97,62.0,M,48.7,M,,*40

$GPGLL,4709.3723,N,00138.2646,W,144612.000,A,A*4C

$GPGSA,A,3,26,10,07,18,21,27,08,16,,,,,1.25,0.97,0.80*00

$GPGSV,4,1,13,27,79,074,20,08,58,303,20,10,55,105,27,16,41,177,21*73

$GPGSV,4,2,13,18,40,064,15,11,19,265,,21,18,064,16,07,15,286,18*76

$GPGSV,4,3,13,26,14,167,15,30,10,319,,01,08,244,,40,07,108,*71

$GPGSV,4,4,13,15,05,034,*4D

$GPRMC,144612.000,A,4709.3723,N,00138.2646,W,0.32,136.04,180717,,,A*72

$GPVTG,136.04,T,,M,0.32,N,0.60,K,A*3A

$GPGGA,144613.000,4709.3723,N,00138.2645,W,1,08,0.97,62.0,M,48.7,M,,*42

$GPGLL,4709.3723,N,00138.2645,W,144613.000,A,A*4E

$GPGSA,A,3,26,10,07,18,21,27,08,16,,,,,1.25,0.97,0.80*00

$GPGSV,4,1,13,27,79,074,21,08,58,303,20,10,55,105,27,16,41,177,21*72

$GPGSV,4,2,13,18,40,064,15,11,19,265,,21,18,064,16,07,15,286,18*76

$GPGSV,4,3,13,26,14,167,16,30,10,319,,01,08,244,,40,07,108,*72

$GPGSV,4,4,13,15,05,034,*4D

$GPRMC,144613.000,A,4709.3723,N,00138.2645,W,0.27,142.38,180717,,,A*78

$GPVTG,142.38,T,,M,0.27,N,0.50,K,A*31

$GPGGA,144614.000,4709.3722,N,00138.2644,W,1,08,0.97,62.0,M,48.7,M,,*45

$GPGLL,4709.3722,N,00138.2644,W,144614.000,A,A*49

$GPGSA,A,3,26,10,07,18,21,27,08,16,,,,,1.25,0.97,0.80*00

$GPGSV,4,1,13,27,79,074,21,08,58,303,20,10,55,105,27,16,41,177,21*72

$GPGSV,4,2,13,18,40,064,15,11,19,265,,21,18,064,16,07,15,286,18*76

$GPGSV,4,3,13,26,14,167,15,30,10,319,,01,08,244,,40,07,108,*71

$GPGSV,4,4,13,15,05,034,*4D

$GPRMC,144614.000,A,4709.3722,N,00138.2644,W,0.22,124.30,180717,,,A*72

$GPVTG,124.30,T,,M,0.22,N,0.42,K,A*3F

$GPGGA,144615.000,4709.3722,N,00138.2644,W,1,08,0.97,62.0,M,48.7,M,,*44

$GPGLL,4709.3722,N,00138.2644,W,144615.000,A,A*48

$GPGSA,A,3,26,10,07,18,21,27,08,16,,,,,1.25,0.97,0.80*00

$GPGSV,4,1,13,27,79,074,21,08,58,303,20,10,55,105,27,16,41,177,22*71

$GPGSV,4,2,13,18,40,064,16,11,19,265,,21,18,064,16,07,15,286,18*75

$GPGSV,4,3,13,26,14,167,15,30,10,319,,01,08,244,,40,07,108,*71

$GPGSV,4,4,13,15,05,034,*4D

$GPRMC,144615.000,A,4709.3722,N,00138.2644,W,0.18,106.12,180717,,,A*7A

$GPVTG,106.12,T,,M,0.18,N,0.34,K,A*37

$GPGGA,144616.000,4709.3722,N,00138.2643,W,1,08,0.97,62.0,M,48.7,M,,*40

$GPGLL,4709.3722,N,00138.2643,W,144616.000,A,A*4C

$GPGSA,A,3,26,10,07,18,21,27,08,16,,,,,1.25,0.97,0.80*00

$GPGSV,4,1,13,27,79,074,21,08,58,303,20,10,55,105,27,16,41,177,22*71

$GPGSV,4,2,13,18,40,064,17,11,19,265,,21,18,064,16,07,15,286,18*74

$GPGSV,4,3,13,26,14,167,14,30,10,319,,01,08,244,,40,07,108,*70

$GPGSV,4,4,13,15,05,034,*4D

$GPRMC,144616.000,A,4709.3722,N,00138.2643,W,0.22,93.68,180717,,,A*47

$GPVTG,93.68,T,,M,0.22,N,0.40,K,A*0D

$GPGGA,144617.000,4709.3722,N,00138.2642,W,1,08,0.97,62.0,M,48.7,M,,*40

$GPGLL,4709.3722,N,00138.2642,W,144617.000,A,A*4C

$GPGSA,A,3,26,10,07,18,21,27,08,16,,,,,1.25,0.97,0.80*00

$GPGSV,4,1,13,27,79,074,21,08,58,303,20,10,55,105,27,16,41,177,22*71

$GPGSV,4,2,13,18,40,064,16,11,19,265,,21,18,064,16,07,15,286,18*75

$GPGSV,4,3,13,26,14,167,15,30,10,319,,01,08,244,,40,07,108,*71

$GPGSV,4,4,13,15,05,034,*4D

$GPRMC,144617.000,A,4709.3722,N,00138.2642,W,0.20,90.60,180717,,,A*4E

$GPVTG,90.60,T,,M,0.20,N,0.37,K,A*04

$GPGGA,144618.000,4709.3722,N,00138.2641,W,1,08,0.97,62.0,M,48.7,M,,*4C

$GPGLL,4709.3722,N,00138.2641,W,144618.000,A,A*40

$GPGSA,A,3,26,10,07,18,21,27,08,16,,,,,1.25,0.97,0.80*00

$GPGSV,4,1,13,27,79,074,21,08,58,303,20,10,55,105,27,16,41,177,22*71

$GPGSV,4,2,13,18,40,064,17,11,19,265,,21,18,064,16,07,15,286,18*74

$GPGSV,4,3,13,26,14,167,17,30,10,319,,01,08,244,,40,07,108,*73

$GPGSV,4,4,13,15,05,034,*4D

$GPRMC,144618.000,A,4709.3722,N,00138.2641,W,0.18,83.23,180717,,,A*4C

$GPVTG,83.23,T,,M,0.18,N,0.33,K,A*0E

$GPGGA,144619.000,4709.3722,N,00138.2640,W,1,08,0.97,62.0,M,48.7,M,,*4C

$GPGLL,4709.3722,N,00138.2640,W,144619.000,A,A*40

$GPGSA,A,3,26,10,07,18,21,27,08,16,,,,,1.25,0.97,0.80*00

$GPGSV,4,1,13,27,79,074,22,08,58,303,21,10,55,105,27,16,41,177,23*72

$GPGSV,4,2,13,18,40,064,17,11,19,265,,21,18,064,16,07,15,286,18*74

$GPGSV,4,3,13,26,14,167,15,30,10,319,,01,08,244,,40,07,108,*71

$GPGSV,4,4,13,15,05,034,*4D

$GPRMC,144619.000,A,4709.3722,N,00138.2640,W,0.16,98.76,180717,,,A*48

$GPVTG,98.76,T,,M,0.16,N,0.29,K,A*01

$GPGGA,144620.000,4709.3722,N,00138.2640,W,1,08,0.97,62.0,M,48.7,M,,*46

$GPGLL,4709.3722,N,00138.2640,W,144620.000,A,A*4A

$GPGSA,A,3,26,10,07,18,21,27,08,16,,,,,1.25,0.97,0.80*00

$GPGSV,4,1,13,27,79,074,22,08,58,303,21,10,55,105,26,16,41,177,23*73

$GPGSV,4,2,13,18,40,064,17,11,19,265,,21,18,064,16,07,15,286,18*74

$GPGSV,4,3,13,26,14,167,17,30,10,319,,01,08,244,,40,07,108,*73

$GPGSV,4,4,13,15,05,034,*4D

$GPRMC,144620.000,A,4709.3722,N,00138.2640,W,0.13,86.42,180717,,,A*4F

$GPVTG,86.42,T,,M,0.13,N,0.24,K,A*01

$GPGGA,144621.000,4709.3722,N,00138.2639,W,1,08,0.97,62.0,M,48.7,M,,*49

$GPGLL,4709.3722,N,00138.2639,W,144621.000,A,A*45

$GPGSA,A,3,26,10,07,18,21,27,08,16,,,,,1.25,0.97,0.80*00

$GPGSV,3,1,12,27,79,074,22,08,58,303,21,10,55,105,26,16,41,177,23*75

$GPGSV,3,2,12,18,40,064,17,11,19,265,,21,18,064,16,07,15,286,18*72

$GPGSV,3,3,12,26,14,167,16,30,10,319,,01,08,245,,15,05,034,*79

$GPRMC,144621.000,A,4709.3722,N,00138.2639,W,0.08,55.25,180717,,,A*45

$GPVTG,55.25,T,,M,0.08,N,0.14,K,A*07

$GPGGA,144622.000,4709.3722,N,00138.2639,W,1,08,0.97,62.0,M,48.7,M,,*4A

$GPGLL,4709.3722,N,00138.2639,W,144622.000,A,A*46

$GPGSA,A,3,26,10,07,18,21,27,08,16,,,,,1.25,0.97,0.80*00

$GPGSV,3,1,12,27,79,074,22,08,58,303,21,10,55,105,26,16,41,177,23*75

$GPGSV,3,2,12,18,40,064,17,11,19,265,,21,18,064,16,07,15,286,18*72

$GPGSV,3,3,12,26,14,167,16,30,10,319,,01,08,245,,15,05,034,*79

$GPRMC,144622.000,A,4709.3722,N,00138.2639,W,0.05,354.64,180717,,,A*7C

$GPVTG,354.64,T,,M,0.05,N,0.10,K,A*39

$GPGGA,144623.000,4709.3722,N,00138.2639,W,1,08,0.97,62.0,M,48.7,M,,*4B

$GPGLL,4709.3722,N,00138.2639,W,144623.000,A,A*47

$GPGSA,A,3,26,10,07,18,21,27,08,16,,,,,1.63,0.97,1.31*09

$GPGSV,4,1,13,27,79,074,22,08,58,303,21,10,55,105,26,16,41,177,23*73

$GPGSV,4,2,13,18,40,064,17,11,19,265,,21,18,064,16,07,15,286,18*74

$GPGSV,4,3,13,26,14,167,16,30,10,319,,01,08,245,,44,06,107,*79

$GPGSV,4,4,13,15,05,034,*4D

$GPRMC,144623.000,A,4709.3722,N,00138.2639,W,0.09,316.60,180717,,,A*73

$GPVTG,316.60,T,,M,0.09,N,0.16,K,A*31

$GPGGA,144624.000,4709.3722,N,00138.2639,W,1,08,0.97,62.0,M,48.7,M,,*4C

$GPGLL,4709.3722,N,00138.2639,W,144624.000,A,A*40

$GPGSA,A,3,26,10,07,18,21,27,08,16,,,,,1.25,0.97,0.80*00

$GPGSV,4,1,13,27,79,074,22,08,58,303,21,10,55,105,26,16,41,177,23*73

$GPGSV,4,2,13,18,40,064,17,11,19,265,,21,18,064,16,07,15,286,18*74

$GPGSV,4,3,13,26,14,167,16,30,10,319,,01,08,245,,44,06,107,*79

$GPGSV,4,4,13,15,05,034,*4D

$GPRMC,144624.000,A,4709.3722,N,00138.2639,W,0.06,337.91,180717,,,A*76

$GPVTG,337.91,T,,M,0.06,N,0.12,K,A*37

$GPGGA,144625.000,4709.3722,N,00138.2639,W,1,08,0.97,62.0,M,48.7,M,,*4D

$GPGLL,4709.3722,N,00138.2639,W,144625.000,A,A*41

$GPGSA,A,3,26,10,07,18,21,27,08,16,,,,,1.25,0.97,0.80*00

$GPGSV,4,1,13,27,79,074,22,08,58,303,21,10,55,105,25,16,41,177,23*70

$GPGSV,4,2,13,18,40,064,17,11,19,265,,21,18,064,16,07,15,286,18*74

$GPGSV,4,3,13,26,14,167,16,30,10,319,,01,08,245,,44,06,107,*79

$GPGSV,4,4,13,15,05,034,*4D

$GPRMC,144625.000,A,4709.3722,N,00138.2639,W,0.11,238.46,180717,,,A*75

$GPVTG,238.46,T,,M,0.11,N,0.21,K,A*35

$GPGGA,144626.000,4709.3722,N,00138.2640,W,1,08,0.97,62.0,M,48.7,M,,*40

$GPGLL,4709.3722,N,00138.2640,W,144626.000,A,A*4C

$GPGSA,A,3,26,10,07,18,21,27,08,16,,,,,1.25,0.97,0.80*00

$GPGSV,4,1,13,27,79,074,22,08,58,303,22,10,55,105,25,16,41,177,23*73

$GPGSV,4,2,13,18,40,064,17,11,19,265,,21,18,064,16,07,15,286,18*74

$GPGSV,4,3,13,26,14,167,15,30,10,319,,01,08,245,,44,06,107,*7A

$GPGSV,4,4,13,15,05,034,*4D

$GPRMC,144626.000,A,4709.3722,N,00138.2640,W,0.16,222.34,180717,,,A*71

$GPVTG,222.34,T,,M,0.16,N,0.29,K,A*34

$GPGGA,144627.000,4709.3722,N,00138.2641,W,1,08,0.97,62.0,M,48.7,M,,*40

$GPGLL,4709.3722,N,00138.2641,W,144627.000,A,A*4C

$GPGSA,A,3,26,10,07,18,21,27,08,16,,,,,1.25,0.97,0.80*00

$GPGSV,4,1,13,27,79,074,22,08,58,303,22,10,55,105,25,16,41,177,23*73

$GPGSV,4,2,13,18,40,064,17,11,19,265,,21,18,064,16,07,15,286,19*75

$GPGSV,4,3,13,26,14,167,15,30,10,319,,01,08,245,,44,06,107,*7A

$GPGSV,4,4,13,15,05,034,*4D

$GPRMC,144627.000,A,4709.3722,N,00138.2641,W,0.26,240.91,180717,,,A*79

$GPVTG,240.91,T,,M,0.26,N,0.47,K,A*34

$GPGGA,144628.000,4709.3721,N,00138.2642,W,1,08,0.97,62.0,M,48.7,M,,*4F

$GPGLL,4709.3721,N,00138.2642,W,144628.000,A,A*43

$GPGSA,A,3,26,10,07,18,21,27,08,16,,,,,1.25,0.97,0.80*00

$GPGSV,4,1,13,27,79,074,22,08,58,303,22,10,55,105,25,16,41,177,23*73

$GPGSV,4,2,13,18,40,064,17,11,19,265,,21,18,064,16,07,15,286,18*74

$GPGSV,4,3,13,26,14,167,15,30,10,319,,01,08,245,,44,06,107,*7A

$GPGSV,4,4,13,15,05,034,*4D

$GPRMC,144628.000,A,4709.3721,N,00138.2642,W,0.40,243.45,180717,,,A*7C

$GPVTG,243.45,T,,M,0.40,N,0.75,K,A*3F

$GPGGA,144629.000,4709.3720,N,00138.2643,W,1,08,0.97,62.0,M,48.7,M,,*4E

$GPGLL,4709.3720,N,00138.2643,W,144629.000,A,A*42

$GPGSA,A,3,26,10,07,18,21,27,08,16,,,,,1.25,0.97,0.80*00

$GPGSV,4,1,13,27,79,074,22,08,58,303,22,10,55,105,25,16,41,177,23*73

$GPGSV,4,2,13,18,40,064,17,11,19,265,,21,18,064,16,07,15,286,18*74

$GPGSV,4,3,13,26,14,167,15,30,10,319,,01,08,245,,44,06,107,*7A

$GPGSV,4,4,13,15,05,034,*4D

$GPRMC,144629.000,A,4709.3720,N,00138.2643,W,0.54,245.03,180717,,,A*7C

$GPVTG,245.03,T,,M,0.54,N,0.99,K,A*3C

$GPGGA,144630.000,4709.3720,N,00138.2645,W,1,08,0.97,62.0,M,48.7,M,,*40

$GPGLL,4709.3720,N,00138.2645,W,144630.000,A,A*4C

$GPGSA,A,3,26,10,07,18,21,27,08,16,,,,,1.25,0.97,0.80*00

$GPGSV,4,1,13,27,79,074,22,08,58,303,22,10,56,105,25,16,41,177,23*70

$GPGSV,4,2,13,18,40,064,17,11,19,265,,21,18,064,16,07,15,286,18*74

$GPGSV,4,3,13,26,14,167,14,30,10,319,,01,08,245,,44,06,107,*7B

$GPGSV,4,4,13,15,05,034,*4D

$GPRMC,144630.000,A,4709.3720,N,00138.2645,W,0.61,246.73,180717,,,A*70

$GPVTG,246.73,T,,M,0.61,N,1.14,K,A*3A

$GPGGA,144631.000,4709.3716,N,00138.2654,W,1,08,0.97,62.0,M,48.7,M,,*44

$GPGLL,4709.3716,N,00138.2654,W,144631.000,A,A*48

$GPGSA,A,3,26,10,07,18,21,27,08,16,,,,,1.25,0.97,0.80*00

$GPGSV,4,1,13,27,79,074,21,08,58,303,22,10,56,105,25,16,41,177,22*72

$GPGSV,4,2,13,18,40,064,17,11,19,265,,21,18,064,16,07,15,286,18*74

$GPGSV,4,3,13,26,14,167,15,30,10,319,,01,08,245,,44,06,107,*7A

$GPGSV,4,4,13,15,05,034,*4D

$GPRMC,144631.000,A,4709.3716,N,00138.2654,W,0.66,247.39,180717,,,A*7C

$GPVTG,247.39,T,,M,0.66,N,1.22,K,A*37

$GPGGA,144632.000,4709.3712,N,00138.2664,W,1,08,0.97,62.0,M,48.7,M,,*40

$GPGLL,4709.3712,N,00138.2664,W,144632.000,A,A*4C

$GPGSA,A,3,26,10,07,18,21,27,08,16,,,,,1.25,0.97,0.80*00

$GPGSV,4,1,13,27,79,074,21,08,58,303,22,10,56,105,25,16,41,177,22*72

$GPGSV,4,2,13,18,40,064,17,33,34,198,,11,19,265,,21,18,064,16*75

$GPGSV,4,3,13,07,15,286,18,26,14,167,14,30,10,319,,01,08,245,*7D

$GPGSV,4,4,13,15,05,034,*4D

$GPRMC,144632.000,A,4709.3712,N,00138.2664,W,0.76,247.91,180717,,,A*7B

$GPVTG,247.91,T,,M,0.76,N,1.40,K,A*30

$GPGGA,144633.000,4709.3708,N,00138.2673,W,1,08,0.97,62.0,M,48.7,M,,*4C

$GPGLL,4709.3708,N,00138.2673,W,144633.000,A,A*40

$GPGSA,A,3,26,10,07,18,21,27,08,16,,,,,1.25,0.97,0.80*00

$GPGSV,4,1,13,27,79,074,21,08,58,303,22,10,56,105,25,16,41,177,22*72

$GPGSV,4,2,13,18,40,064,17,33,34,198,,11,19,265,,21,18,064,16*75

$GPGSV,4,3,13,07,15,286,18,26,14,167,14,30,10,319,,01,08,245,*7D

$GPGSV,4,4,13,15,05,034,*4D

$GPRMC,144633.000,A,4709.3708,N,00138.2673,W,0.84,247.12,180717,,,A*71

$GPVTG,247.12,T,,M,0.84,N,1.56,K,A*31

$GPGGA,144634.000,4709.3705,N,00138.2679,W,1,08,0.97,62.0,M,48.7,M,,*4C

$GPGLL,4709.3705,N,00138.2679,W,144634.000,A,A*40

$GPGSA,A,3,26,10,07,18,21,27,08,16,,,,,1.25,0.97,0.80*00

$GPGSV,4,1,13,27,79,074,21,08,58,303,22,10,56,105,25,16,41,177,22*72

$GPGSV,4,2,13,18,40,064,17,33,34,198,,11,19,265,,21,18,064,16*75

$GPGSV,4,3,13,07,15,286,17,26,14,167,12,30,10,319,,01,08,245,*74

$GPGSV,4,4,13,15,05,034,*4D

$GPRMC,144634.000,A,4709.3705,N,00138.2679,W,0.83,247.13,180717,,,A*77

$GPVTG,247.13,T,,M,0.83,N,1.53,K,A*32

$GPGGA,144635.000,4709.3707,N,00138.2681,W,1,08,0.97,61.9,M,48.7,M,,*42

$GPGLL,4709.3707,N,00138.2681,W,144635.000,A,A*44

$GPGSA,A,3,26,10,07,18,21,27,08,16,,,,,1.25,0.97,0.80*00

$GPGSV,4,1,13,27,79,074,21,08,58,303,22,10,56,105,25,16,41,177,22*72

$GPGSV,4,2,13,18,40,064,17,33,34,198,,11,19,265,,21,18,064,16*75

$GPGSV,4,3,13,07,15,286,17,26,14,167,15,30,10,319,,01,08,245,*73

$GPGSV,4,4,13,15,05,033,*4A

$GPRMC,144635.000,A,4709.3707,N,00138.2681,W,0.82,252.72,180717,,,A*71

$GPVTG,252.72,T,,M,0.82,N,1.51,K,A*32

$GPGGA,144636.000,4709.3707,N,00138.2686,W,1,08,0.97,61.8,M,48.7,M,,*47

$GPGLL,4709.3707,N,00138.2686,W,144636.000,A,A*40

$GPGSA,A,3,26,10,07,18,21,27,08,16,,,,,1.25,0.97,0.80*00

$GPGSV,4,1,13,27,79,074,21,08,58,303,22,10,56,105,25,16,40,177,22*73

$GPGSV,4,2,13,18,40,064,17,33,34,198,,11,19,265,,21,18,064,16*75

$GPGSV,4,3,13,07,15,286,17,26,14,167,15,30,10,319,,01,08,245,*73

$GPGSV,4,4,13,15,05,033,*4A

$GPRMC,144636.000,A,4709.3707,N,00138.2686,W,0.84,254.02,180717,,,A*72

$GPVTG,254.02,T,,M,0.84,N,1.56,K,A*32

$GPGGA,144637.000,4709.3705,N,00138.2684,W,1,08,0.97,61.8,M,48.7,M,,*46

$GPGLL,4709.3705,N,00138.2684,W,144637.000,A,A*41

$GPGSA,A,3,26,10,07,18,21,27,08,16,,,,,1.25,0.97,0.80*00

$GPGSV,4,1,13,27,79,074,22,08,58,303,22,10,56,105,25,16,40,177,22*70

$GPGSV,4,2,13,18,40,064,17,33,34,198,,11,19,265,,21,18,064,16*75

$GPGSV,4,3,13,07,15,286,17,26,14,167,14,30,10,319,,01,08,245,*72

$GPGSV,4,4,13,15,05,033,*4A

$GPRMC,144637.000,A,4709.3705,N,00138.2684,W,0.79,249.97,180717,,,A*71

$GPVTG,249.97,T,,M,0.79,N,1.47,K,A*30

$GPGGA,144638.000,4709.3704,N,00138.2683,W,1,08,0.97,61.7,M,48.7,M,,*40

$GPGLL,4709.3704,N,00138.2683,W,144638.000,A,A*48

$GPGSA,A,3,26,10,07,18,21,27,08,16,,,,,1.25,0.97,0.80*00

$GPGSV,4,1,13,27,79,074,22,08,58,303,22,10,56,105,25,16,40,177,22*70

$GPGSV,4,2,13,18,40,063,17,33,34,198,,11,19,265,,21,18,064,16*72

$GPGSV,4,3,13,07,15,286,17,26,14,167,15,30,10,319,,01,08,245,*73

$GPGSV,4,4,13,15,05,033,*4A

$GPRMC,144638.000,A,4709.3704,N,00138.2683,W,0.73,250.23,180717,,,A*75

$GPVTG,250.23,T,,M,0.73,N,1.35,K,A*38

$GPGGA,144639.000,4709.3706,N,00138.2682,W,1,08,0.97,61.7,M,48.7,M,,*42

$GPGLL,4709.3706,N,00138.2682,W,144639.000,A,A*4A

$GPGSA,A,3,26,10,07,18,21,27,08,16,,,,,1.25,0.97,0.79*06

$GPGSV,4,1,13,27,79,074,22,08,58,303,22,10,56,105,25,16,40,177,22*70

$GPGSV,4,2,13,18,40,063,17,33,34,198,,11,19,265,,21,18,064,16*72

$GPGSV,4,3,13,07,15,286,17,26,14,167,14,30,10,319,,01,08,245,*72

$GPGSV,4,4,13,15,05,033,*4A

$GPRMC,144639.000,A,4709.3706,N,00138.2682,W,0.63,256.06,180717,,,A*77

$GPVTG,256.06,T,,M,0.63,N,1.16,K,A*39

$GPGGA,144640.000,4709.3708,N,00138.2681,W,1,08,0.97,61.6,M,48.7,M,,*40

$GPGLL,4709.3708,N,00138.2681,W,144640.000,A,A*49

$GPGSA,A,3,26,10,07,18,21,27,08,16,,,,,1.25,0.97,0.79*06

$GPGSV,4,1,13,27,79,074,22,08,58,303,22,10,56,105,24,16,40,177,22*71

$GPGSV,4,2,13,18,40,063,17,33,34,198,,11,19,265,,21,18,064,16*72

$GPGSV,4,3,13,07,15,286,17,26,14,167,12,30,10,319,,01,08,245,*74

$GPGSV,4,4,13,15,05,033,*4A

$GPRMC,144640.000,A,4709.3708,N,00138.2681,W,0.52,263.38,180717,,,A*7D

$GPVTG,263.38,T,,M,0.52,N,0.95,K,A*3A

$GPGGA,144641.000,4709.3709,N,00138.2682,W,1,08,0.97,61.5,M,48.7,M,,*40

$GPGLL,4709.3709,N,00138.2682,W,144641.000,A,A*4A

$GPGSA,A,3,26,10,07,18,21,27,08,16,,,,,1.25,0.97,0.79*06

$GPGSV,4,1,13,27,79,074,21,08,58,303,22,10,56,105,24,16,40,177,22*72

$GPGSV,4,2,13,18,40,063,17,33,34,198,,11,19,265,,21,18,064,16*72

$GPGSV,4,3,13,07,15,286,17,26,14,167,12,30,10,319,,01,08,245,*74

$GPGSV,4,4,13,15,05,033,*4A

$GPRMC,144641.000,A,4709.3709,N,00138.2682,W,0.48,268.79,180717,,,A*7B

$GPVTG,268.79,T,,M,0.48,N,0.88,K,A*33

$GPGGA,144642.000,4709.3710,N,00138.2680,W,1,08,0.97,61.4,M,48.7,M,,*48

$GPGLL,4709.3710,N,00138.2680,W,144642.000,A,A*43

$GPGSA,A,3,26,10,07,18,21,27,08,16,,,,,1.25,0.97,0.79*06

$GPGSV,3,1,12,27,79,074,21,08,58,303,21,10,56,105,24,16,40,177,22*77

$GPGSV,3,2,12,18,40,063,17,11,19,265,,21,18,064,16,07,15,286,17*7A

$GPGSV,3,3,12,26,14,167,11,30,10,319,,01,08,245,,15,05,033,*79

$GPRMC,144642.000,A,4709.3710,N,00138.2680,W,0.39,268.96,180717,,,A*75

$GPVTG,268.96,T,,M,0.39,N,0.73,K,A*30

$GPGGA,144643.000,4709.3708,N,00138.2675,W,1,08,0.97,61.4,M,48.7,M,,*4A

$GPGLL,4709.3708,N,00138.2675,W,144643.000,A,A*41

$GPGSA,A,3,26,10,07,18,21,27,08,16,,,,,1.25,0.97,0.79*06

$GPGSV,3,1,12,27,79,074,21,08,58,303,21,10,56,105,24,16,40,177,22*77

$GPGSV,3,2,12,18,40,063,17,11,19,265,,21,18,064,16,07,15,286,17*7A

$GPGSV,3,3,12,26,14,167,13,30,10,319,,01,08,245,,15,05,033,*7B

$GPRMC,144643.000,A,4709.3708,N,00138.2675,W,0.26,264.95,180717,,,A*76

$GPVTG,264.95,T,,M,0.26,N,0.48,K,A*39

$GPGGA,144644.000,4709.3708,N,00138.2676,W,1,08,0.97,61.4,M,48.7,M,,*4E

$GPGLL,4709.3708,N,00138.2676,W,144644.000,A,A*45

$GPGSA,A,3,26,10,07,18,21,27,08,16,,,,,1.25,0.97,0.79*06

$GPGSV,3,1,12,27,79,074,21,08,58,303,21,10,56,105,24,16,40,177,22*77

$GPGSV,3,2,12,18,40,063,17,11,19,265,,21,18,064,16,07,15,286,16*7B

$GPGSV,3,3,12,26,14,167,13,30,10,319,,01,08,245,,15,05,033,*7B

$GPRMC,144644.000,A,4709.3708,N,00138.2676,W,0.21,259.25,180717,,,A*70

$GPVTG,259.25,T,,M,0.21,N,0.38,K,A*3C

$GPGGA,144645.000,4709.3708,N,00138.2677,W,1,08,0.97,61.4,M,48.7,M,,*4E

$GPGLL,4709.3708,N,00138.2677,W,144645.000,A,A*45

$GPGSA,A,3,26,10,07,18,21,27,08,16,,,,,1.25,0.97,0.79*06

$GPGSV,3,1,12,27,79,074,21,08,58,303,21,10,56,105,24,16,40,177,22*77

$GPGSV,3,2,12,18,40,063,17,11,19,265,,21,18,064,16,07,15,286,16*7B

$GPGSV,3,3,12,26,14,167,14,30,10,319,,01,08,245,,15,05,033,*7C

$GPRMC,144645.000,A,4709.3708,N,00138.2677,W,0.11,224.44,180717,,,A*7E

$GPVTG,224.44,T,,M,0.11,N,0.21,K,A*3A

$GPGGA,144646.000,4709.3707,N,00138.2677,W,1,08,0.97,61.4,M,48.7,M,,*42

$GPGLL,4709.3707,N,00138.2677,W,144646.000,A,A*49

$GPGSA,A,3,26,10,07,18,21,27,08,16,,,,,1.25,0.97,0.79*06

$GPGSV,3,1,12,27,79,074,21,08,58,303,21,10,56,105,24,16,40,177,22*77

$GPGSV,3,2,12,18,40,063,17,11,19,265,,21,18,064,16,07,15,286,16*7B

$GPGSV,3,3,12,26,14,167,13,30,10,319,,01,08,245,,15,05,033,*7B

$GPRMC,144646.000,A,4709.3707,N,00138.2677,W,0.08,189.36,180717,,,A*7B

$GPVTG,189.36,T,,M,0.08,N,0.15,K,A*34

$GPGGA,144647.000,4709.3707,N,00138.2677,W,1,08,0.97,61.4,M,48.7,M,,*43

$GPGLL,4709.3707,N,00138.2677,W,144647.000,A,A*48

$GPGSA,A,3,26,10,07,18,21,27,08,16,,,,,1.25,0.97,0.79*06

$GPGSV,3,1,12,27,79,075,21,08,58,303,21,10,56,105,24,16,40,177,22*76

$GPGSV,3,2,12,18,40,063,17,11,19,265,,21,18,064,16,07,15,286,16*7B

$GPGSV,3,3,12,26,14,167,15,30,10,319,,01,08,245,,15,05,033,*7D

$GPRMC,144647.000,A,4709.3707,N,00138.2677,W,0.13,149.11,180717,,,A*79

$GPVTG,149.11,T,,M,0.13,N,0.25,K,A*34

$GPGGA,144648.000,4709.3707,N,00138.2677,W,1,08,0.97,61.4,M,48.7,M,,*4C

$GPGLL,4709.3707,N,00138.2677,W,144648.000,A,A*47

$GPGSA,A,3,26,10,07,18,21,27,08,16,,,,,1.25,0.97,0.79*06

$GPGSV,3,1,12,27,79,075,21,08,58,303,21,10,56,105,24,16,40,177,22*76

$GPGSV,3,2,12,18,40,063,17,11,19,265,,21,18,064,16,07,15,286,16*7B

$GPGSV,3,3,12,26,14,167,14,30,10,319,,01,08,245,,15,05,033,*7C

$GPRMC,144648.000,A,4709.3707,N,00138.2677,W,0.17,169.52,180717,,,A*77

$GPVTG,169.52,T,,M,0.17,N,0.32,K,A*33

$GPGGA,144649.000,4709.3706,N,00138.2677,W,1,08,0.97,61.4,M,48.7,M,,*4C

$GPGLL,4709.3706,N,00138.2677,W,144649.000,A,A*47

$GPGSA,A,3,26,10,07,18,21,27,08,16,,,,,1.25,0.97,0.79*06

$GPGSV,3,1,12,27,79,075,21,08,58,303,21,10,56,105,25,16,40,177,22*77

$GPGSV,3,2,12,18,40,063,17,11,19,265,,21,18,064,16,07,15,286,16*7B

$GPGSV,3,3,12,26,14,167,13,30,10,319,,01,08,245,,15,05,033,*7B

$GPRMC,144649.000,A,4709.3706,N,00138.2677,W,0.25,182.13,180717,,,A*76

$GPVTG,182.13,T,,M,0.25,N,0.47,K,A*30

$GPGGA,144650.000,4709.3705,N,00138.2677,W,1,08,0.97,61.4,M,48.7,M,,*47

$GPGLL,4709.3705,N,00138.2677,W,144650.000,A,A*4C

$GPGSA,A,3,26,10,07,18,21,27,08,16,,,,,1.25,0.97,0.79*06

$GPGSV,3,1,12,27,79,075,20,08,58,303,21,10,56,105,24,16,40,177,22*77

$GPGSV,3,2,12,18,40,063,17,11,19,265,,21,18,064,16,07,15,286,16*7B

$GPGSV,3,3,12,26,14,167,13,30,10,319,,01,08,245,,15,05,033,*7B

$GPRMC,144650.000,A,4709.3705,N,00138.2677,W,0.25,186.00,180717,,,A*7B

$GPVTG,186.00,T,,M,0.25,N,0.47,K,A*36

$GPGGA,144651.000,4709.3705,N,00138.2677,W,1,08,0.97,61.4,M,48.7,M,,*46

$GPGLL,4709.3705,N,00138.2677,W,144651.000,A,A*4D

$GPGSA,A,3,26,10,07,18,21,27,08,16,,,,,1.25,0.97,0.79*06

$GPGSV,3,1,12,27,79,075,20,08,58,303,21,10,56,105,24,16,40,177,22*77

$GPGSV,3,2,12,18,40,063,17,11,19,265,,21,18,064,17,07,15,286,17*7B

$GPGSV,3,3,12,26,14,167,15,30,10,319,,01,08,245,,15,05,033,*7D

$GPRMC,144651.000,A,4709.3705,N,00138.2677,W,0.27,188.10,180717,,,A*77

$GPVTG,188.10,T,,M,0.27,N,0.50,K,A*3D

$GPGGA,144652.000,4709.3704,N,00138.2677,W,1,08,0.97,61.4,M,48.7,M,,*44

$GPGLL,4709.3704,N,00138.2677,W,144652.000,A,A*4F

$GPGSA,A,3,26,10,07,18,21,27,08,16,,,,,1.25,0.97,0.79*06

$GPGSV,3,1,12,27,79,075,20,08,58,303,22,10,56,105,22,16,40,177,22*72

$GPGSV,3,2,12,18,40,063,17,11,19,265,,21,18,064,17,07,15,286,17*7B

$GPGSV,3,3,12,26,14,167,14,30,10,319,,01,08,245,,15,05,033,*7C

$GPRMC,144652.000,A,4709.3704,N,00138.2677,W,0.26,202.53,180717,,,A*72

$GPVTG,202.53,T,,M,0.26,N,0.48,K,A*33

$GPGGA,144653.000,4709.3703,N,00138.2678,W,1,08,0.97,61.4,M,48.7,M,,*4D

$GPGLL,4709.3703,N,00138.2678,W,144653.000,A,A*46

$GPGSA,A,3,26,10,07,18,21,27,08,16,,,,,1.25,0.97,0.79*06

$GPGSV,3,1,12,27,79,075,19,08,58,303,22,10,56,105,23,16,40,177,22*79

$GPGSV,3,2,12,18,40,063,17,11,19,265,,21,18,064,17,07,15,286,17*7B

$GPGSV,3,3,12,26,14,167,13,30,10,319,,01,08,245,,15,05,033,*7B

$GPRMC,144653.000,A,4709.3703,N,00138.2678,W,0.29,205.08,180717,,,A*7D

$GPVTG,205.08,T,,M,0.29,N,0.54,K,A*38

$GPGGA,144654.000,4709.3702,N,00138.2678,W,1,08,0.97,61.4,M,48.7,M,,*4B

$GPGLL,4709.3702,N,00138.2678,W,144654.000,A,A*40

$GPGSA,A,3,26,10,07,18,21,27,08,16,,,,,1.25,0.97,0.79*06

$GPGSV,3,1,12,27,79,075,19,08,58,303,21,10,56,105,23,16,40,177,22*7A

$GPGSV,3,2,12,18,40,063,17,11,19,265,,21,18,064,17,07,15,286,17*7B

$GPGSV,3,3,12,26,14,167,13,30,10,319,,01,08,245,,15,05,033,*7B

$GPRMC,144654.000,A,4709.3702,N,00138.2678,W,0.34,202.38,180717,,,A*73

$GPVTG,202.38,T,,M,0.34,N,0.63,K,A*34

$GPGGA,144655.000,4709.3701,N,00138.2679,W,1,08,0.97,61.4,M,48.7,M,,*48

$GPGLL,4709.3701,N,00138.2679,W,144655.000,A,A*43

$GPGSA,A,3,26,10,07,18,21,27,08,16,,,,,1.25,0.97,0.79*06

$GPGSV,3,1,12,27,79,075,20,08,58,303,21,10,56,105,23,16,40,177,23*71

$GPGSV,3,2,12,18,40,063,17,11,19,265,,21,18,064,17,07,15,286,17*7B

$GPGSV,3,3,12,26,14,167,13,30,10,319,,01,08,245,,15,05,033,*7B

$GPRMC,144655.000,A,4709.3701,N,00138.2679,W,0.42,205.51,180717,,,A*79

$GPVTG,205.51,T,,M,0.42,N,0.78,K,A*37

$GPGGA,144656.000,4709.3700,N,00138.2679,W,1,08,0.97,61.4,M,48.7,M,,*4A

$GPGLL,4709.3700,N,00138.2679,W,144656.000,A,A*41

$GPGSA,A,3,26,10,07,18,21,27,08,16,,,,,1.25,0.97,0.79*06

$GPGSV,3,1,12,27,79,075,20,08,58,303,21,10,56,105,23,16,40,177,23*71

$GPGSV,3,2,12,18,40,063,17,11,19,265,,21,18,064,17,07,15,286,17*7B

$GPGSV,3,3,12,26,14,167,14,30,10,319,,01,08,245,,15,05,033,*7C

$GPRMC,144656.000,A,4709.3700,N,00138.2679,W,0.45,204.47,180717,,,A*7A

$GPVTG,204.47,T,,M,0.45,N,0.83,K,A*32

$GPGGA,144657.000,4709.3699,N,00138.2680,W,1,08,0.97,61.4,M,48.7,M,,*4C

$GPGLL,4709.3699,N,00138.2680,W,144657.000,A,A*47

$GPGSA,A,3,26,10,07,18,21,27,08,16,,,,,1.25,0.97,0.79*06

$GPGSV,3,1,12,27,79,075,20,08,58,303,21,10,56,105,23,16,40,177,23*71

$GPGSV,3,2,12,18,40,063,17,11,19,265,,21,18,064,17,07,15,286,17*7B

$GPGSV,3,3,12,26,14,167,14,30,10,319,,01,08,245,,15,05,033,*7C

$GPRMC,144657.000,A,4709.3699,N,00138.2680,W,0.51,205.01,180717,,,A*7A

$GPVTG,205.01,T,,M,0.51,N,0.94,K,A*32

$GPGGA,144658.000,4709.3698,N,00138.2681,W,1,08,0.97,61.4,M,48.7,M,,*43

$GPGLL,4709.3698,N,00138.2681,W,144658.000,A,A*48

$GPGSA,A,3,26,10,07,18,21,27,08,16,,,,,1.25,0.97,0.79*06

$GPGSV,3,1,12,27,79,075,20,08,58,303,21,10,56,105,23,16,40,177,24*76

$GPGSV,3,2,12,18,40,063,17,11,19,265,,21,18,064,17,07,15,286,17*7B

$GPGSV,3,3,12,26,14,167,13,30,10,319,,01,08,245,,15,05,033,*7B

$GPRMC,144658.000,A,4709.3698,N,00138.2681,W,0.56,210.00,180717,,,A*77

$GPVTG,210.00,T,,M,0.56,N,1.04,K,A*38

$GPGGA,144659.000,4709.3696,N,00138.2682,W,1,08,0.97,61.4,M,48.7,M,,*4F

$GPGLL,4709.3696,N,00138.2682,W,144659.000,A,A*44

$GPGSA,A,3,26,10,07,18,21,27,08,16,,,,,1.25,0.97,0.79*06

$GPGSV,3,1,12,27,79,075,20,08,58,303,21,10,56,105,23,16,40,177,24*76

$GPGSV,3,2,12,18,40,063,17,11,19,265,,21,18,064,17,07,15,286,18*74

$GPGSV,3,3,12,26,14,167,15,30,10,319,,01,08,245,,15,05,033,*7D

$GPRMC,144659.000,A,4709.3696,N,00138.2682,W,0.61,211.00,180717,,,A*7E

$GPVTG,211.00,T,,M,0.61,N,1.14,K,A*3C

$GPGGA,144700.000,4709.3690,N,00138.2687,W,1,08,0.97,61.4,M,48.7,M,,*41

$GPGLL,4709.3690,N,00138.2687,W,144700.000,A,A*4A

$GPGSA,A,3,26,10,07,18,21,27,08,16,,,,,1.25,0.97,0.79*06

$GPGSV,3,1,12,27,79,075,20,08,58,303,21,10,56,105,23,16,40,177,24*76

$GPGSV,3,2,12,18,40,063,17,11,19,265,,21,18,064,17,07,15,286,18*74

$GPGSV,3,3,12,26,14,167,13,30,10,319,,01,08,245,,15,05,033,*7B

$GPRMC,144700.000,A,4709.3690,N,00138.2687,W,0.68,208.69,180717,,,A*7E

$GPVTG,208.69,T,,M,0.68,N,1.27,K,A*32

$GPGGA,144701.000,4709.3685,N,00138.2694,W,1,08,0.97,61.4,M,48.7,M,,*46

$GPGLL,4709.3685,N,00138.2694,W,144701.000,A,A*4D

$GPGSA,A,3,26,10,07,18,21,27,08,16,,,,,1.25,0.97,0.79*06

$GPGSV,3,1,12,27,79,075,19,08,58,303,21,10,56,105,23,16,40,177,23*7B

$GPGSV,3,2,12,18,40,063,17,11,19,265,,21,18,064,17,07,15,286,18*74

$GPGSV,3,3,12,26,14,167,15,30,10,319,,01,08,245,,15,05,033,*7D

$GPRMC,144701.000,A,4709.3685,N,00138.2694,W,0.73,211.84,180717,,,A*78

$GPVTG,211.84,T,,M,0.73,N,1.36,K,A*33

$GPGGA,144702.000,4709.3682,N,00138.2699,W,1,08,0.97,61.3,M,48.7,M,,*48

$GPGLL,4709.3682,N,00138.2699,W,144702.000,A,A*44

$GPGSA,A,3,26,10,07,18,21,27,08,16,,,,,1.25,0.97,0.79*06

$GPGSV,3,1,12,27,79,075,19,08,58,303,21,10,56,105,21,16,40,177,23*79

$GPGSV,3,2,12,18,40,063,17,11,19,265,,21,18,064,17,07,14,285,18*76

$GPGSV,3,3,12,26,14,167,13,30,10,319,,01,08,245,,15,05,033,*7B

$GPRMC,144702.000,A,4709.3682,N,00138.2699,W,0.72,217.27,180717,,,A*7F

$GPVTG,217.27,T,,M,0.72,N,1.33,K,A*38

$GPGGA,144703.000,4709.3677,N,00138.2706,W,1,08,0.97,61.3,M,48.7,M,,*44

$GPGLL,4709.3677,N,00138.2706,W,144703.000,A,A*48

$GPGSA,A,3,26,10,07,18,21,27,08,16,,,,,1.25,0.97,0.79*06

$GPGSV,3,1