$GPGGA,145032.000,4709.3610,N,00138.2572,W,1,08,0.96,56.4,M,48.7,M,,*42

$GPGLL,4709.3610,N,00138.2572,W,145032.000,A,A*4C

$GPGSA,A,3,26,10,07,18,21,27,08,16,,,,,1.24,0.96,0.79*06

$GPGSV,3,1,12,27,78,082,18,08,60,303,21,10,56,102,21,16,39,177,21*71

$GPGSV,3,2,12,18,39,062,18,11,21,266,,21,16,065,16,07,14,284,18*71

$GPGSV,3,3,12,26,13,167,16,30,10,317,,01,09,246,,15,05,032,19*7C

$GPRMC,145032.000,A,4709.3610,N,00138.2572,W,0.09,51.38,180717,,,A*45

$GPVTG,51.38,T,,M,0.09,N,0.17,K,A*0D

$GPGGA,145033.000,4709.3610,N,00138.2572,W,1,08,0.96,56.5,M,48.7,M,,*42

$GPGLL,4709.3610,N,00138.2572,W,145033.000,A,A*4D

$GPGSA,A,3,26,10,07,18,21,27,08,16,,,,,1.24,0.96,0.79*06

$GPGSV,3,1,12,27,78,082,18,08,60,304,21,10,56,102,21,16,39,177,21*76

$GPGSV,3,2,12,18,39,062,18,11,21,266,,21,16,065,16,07,14,284,18*71

$GPGSV,3,3,12,26,13,167,16,30,10,317,,01,09,246,,15,05,032,19*7C

$GPRMC,145033.000,A,4709.3610,N,00138.2572,W,0.09,347.82,180717,,,A*71

$GPVTG,347.82,T,,M,0.09,N,0.16,K,A*39

$GPGGA,145034.000,4709.3611,N,00138.2572,W,1,08,0.97,56.5,M,48.7,M,,*45

$GPGLL,4709.3611,N,00138.2572,W,145034.000,A,A*4B

$GPGSA,A,3,26,10,07,18,21,27,08,16,,,,,1.60,0.97,1.27*0D

$GPGSV,3,1,12,27,78,082,18,08,60,304,21,10,56,102,21,16,39,177,21*76

$GPGSV,3,2,12,18,39,062,18,11,21,266,,21,16,065,16,07,14,284,18*71

$GPGSV,3,3,12,26,13,167,16,30,10,317,,01,09,246,,15,05,032,19*7C

$GPRMC,145034.000,A,4709.3611,N,00138.2572,W,0.13,341.66,180717,,,A*70

$GPVTG,341.66,T,,M,0.13,N,0.23,K,A*38

$GPGGA,145035.000,4709.3611,N,00138.2572,W,1,08,0.96,56.5,M,48.7,M,,*45

$GPGLL,4709.3611,N,00138.2572,W,145035.000,A,A*4A

$GPGSA,A,3,26,10,07,18,21,27,08,16,,,,,1.24,0.96,0.79*06

$GPGSV,3,1,12,27,78,082,17,08,60,304,20,10,56,101,21,16,39,177,20*7A

$GPGSV,3,2,12,18,39,062,18,11,21,266,,21,16,065,16,07,14,284,18*71

$GPGSV,3,3,12,26,13,167,16,30,10,317,,01,09,246,,15,05,032,19*7C

$GPRMC,145035.000,A,4709.3611,N,00138.2572,W,0.13,305.95,180717,,,A*7D

$GPVTG,305.95,T,,M,0.13,N,0.24,K,A*33

$GPGGA,145036.000,4709.3611,N,00138.2573,W,1,08,0.96,56.5,M,48.7,M,,*47

$GPGLL,4709.3611,N,00138.2573,W,145036.000,A,A*48

$GPGSA,A,3,26,10,07,18,21,27,08,16,,,,,1.24,0.96,0.79*06

$GPGSV,3,1,12,27,78,082,17,08,60,304,20,10,56,101,21,16,39,177,21*7B

$GPGSV,3,2,12,18,39,062,18,11,21,266,,21,16,065,16,07,14,284,18*71

$GPGSV,3,3,12,26,13,167,16,30,10,317,,01,09,246,,15,05,032,19*7C

$GPRMC,145036.000,A,4709.3611,N,00138.2573,W,0.09,270.85,180717,,,A*76

$GPVTG,270.85,T,,M,0.09,N,0.16,K,A*3B

$GPGGA,145037.000,4709.3611,N,00138.2573,W,1,08,0.96,56.5,M,48.7,M,,*46

$GPGLL,4709.3611,N,00138.2573,W,145037.000,A,A*49

$GPGSA,A,3,26,10,07,18,21,27,08,16,,,,,1.24,0.96,0.79*06

$GPGSV,3,1,12,27,78,082,17,08,60,304,20,10,56,101,21,16,39,177,21*7B

$GPGSV,3,2,12,18,39,062,18,11,21,266,,21,16,065,16,07,14,284,18*71

$GPGSV,3,3,12,26,13,167,16,30,10,317,,01,09,246,,15,05,032,19*7C

$GPRMC,145037.000,A,4709.3611,N,00138.2573,W,0.04,341.03,180717,,,A*77

$GPVTG,341.03,T,,M,0.04,N,0.07,K,A*3B

$GPGGA,145038.000,4709.3611,N,00138.2573,W,1,08,0.96,56.5,M,48.7,M,,*49

$GPGLL,4709.3611,N,00138.2573,W,145038.000,A,A*46

$GPGSA,A,3,26,10,07,18,21,27,08,16,,,,,1.24,0.96,0.79*06

$GPGSV,3,1,12,27,78,082,17,08,60,304,20,10,56,101,22,16,39,177,21*78

$GPGSV,3,2,12,18,39,062,18,11,21,266,,21,16,065,16,07,14,284,18*71

$GPGSV,3,3,12,26,13,167,16,30,10,317,,01,09,246,,15,05,032,19*7C

$GPRMC,145038.000,A,4709.3611,N,00138.2573,W,0.10,23.76,180717,,,A*48

$GPVTG,23.76,T,,M,0.10,N,0.19,K,A*04

$GPGGA,145039.000,4709.3612,N,00138.2573,W,1,08,0.96,56.5,M,48.7,M,,*4B

$GPGLL,4709.3612,N,00138.2573,W,145039.000,A,A*44

$GPGSA,A,3,26,10,07,18,21,27,08,16,,,,,1.24,0.96,0.79*06

$GPGSV,3,1,12,27,78,082,17,08,60,304,20,10,56,101,22,16,39,177,21*78

$GPGSV,3,2,12,18,39,062,18,11,21,266,,21,16,065,16,07,14,284,19*70

$GPGSV,3,3,12,26,13,167,16,30,10,317,,01,09,246,,15,05,032,19*7C

$GPRMC,145039.000,A,4709.3612,N,00138.2573,W,0.17,5.64,180717,,,A*7A

$GPVTG,5.64,T,,M,0.17,N,0.32,K,A*3D

$GPGGA,145040.000,4709.3612,N,00138.2573,W,1,08,0.97,56.5,M,48.7,M,,*44

$GPGLL,4709.3612,N,00138.2573,W,145040.000,A,A*4A

$GPGSA,A,3,26,10,07,18,21,27,08,16,,,,,1.60,0.97,1.27*0D

$GPGSV,3,1,12,27,78,082,17,08,60,304,21,10,56,101,22,16,39,177,21*79

$GPGSV,3,2,12,18,39,062,18,11,21,266,,21,16,065,16,07,14,284,19*70

$GPGSV,3,3,12,26,13,167,16,30,10,317,,01,09,246,,15,05,032,19*7C

$GPRMC,145040.000,A,4709.3612,N,00138.2573,W,0.20,337.03,180717,,,A*73

$GPVTG,337.03,T,,M,0.20,N,0.36,K,A*3E

$GPGGA,145041.000,4709.3613,N,00138.2573,W,1,08,0.96,56.5,M,48.7,M,,*45

$GPGLL,4709.3613,N,00138.2573,W,145041.000,A,A*4A

$GPGSA,A,3,26,10,07,18,21,27,08,16,,,,,1.24,0.96,0.78*07

$GPGSV,3,1,12,27,78,082,17,08,60,304,21,10,56,101,21,18,39,062,18*7B

$GPGSV,3,2,12,16,38,177,21,11,21,266,,21,16,065,16,07,14,284,19*70

$GPGSV,3,3,12,26,13,167,16,30,10,317,,01,09,246,,15,05,032,19*7C

$GPRMC,145041.000,A,4709.3613,N,00138.2573,W,0.27,336.30,180717,,,A*75

$GPVTG,336.30,T,,M,0.27,N,0.51,K,A*39

$GPGGA,145042.000,4709.3613,N,00138.2574,W,1,08,0.96,56.5,M,48.7,M,,*41

$GPGLL,4709.3613,N,00138.2574,W,145042.000,A,A*4E

$GPGSA,A,3,26,10,07,18,21,27,08,16,,,,,1.24,0.96,0.79*06

$GPGSV,3,1,12,27,78,082,17,08,60,304,21,10,56,101,21,18,39,062,18*7B

$GPGSV,3,2,12,16,38,177,21,11,21,266,,21,16,065,16,07,14,284,19*70

$GPGSV,3,3,12,26,13,167,16,30,10,317,,01,09,246,,15,05,032,19*7C

$GPRMC,145042.000,A,4709.3613,N,00138.2574,W,0.32,342.81,180717,,,A*7C

$GPVTG,342.81,T,,M,0.32,N,0.59,K,A*3C

$GPGGA,145043.000,4709.3614,N,00138.2574,W,1,08,0.96,56.5,M,48.7,M,,*47

$GPGLL,4709.3614,N,00138.2574,W,145043.000,A,A*48

$GPGSA,A,3,26,10,07,18,21,27,08,16,,,,,1.24,0.96,0.78*07

$GPGSV,3,1,12,27,78,082,17,08,60,304,21,10,56,101,20,18,39,062,19*7B

$GPGSV,3,2,12,16,38,177,21,11,21,266,,21,16,065,16,07,14,284,19*70

$GPGSV,3,3,12,26,13,167,16,30,10,317,,01,09,246,,15,05,032,19*7C

$GPRMC,145043.000,A,4709.3614,N,00138.2574,W,0.28,341.58,180717,,,A*76

$GPVTG,341.58,T,,M,0.28,N,0.51,K,A*38

$GPGGA,145044.000,4709.3615,N,00138.2574,W,1,08,0.96,56.5,M,48.7,M,,*41

$GPGLL,4709.3615,N,00138.2574,W,145044.000,A,A*4E

$GPGSA,A,3,26,10,07,18,21,27,08,16,,,,,1.24,0.96,0.78*07

$GPGSV,3,1,12,27,78,082,17,08,60,304,21,10,56,101,20,18,39,062,19*7B

$GPGSV,3,2,12,16,38,177,22,11,21,266,,21,16,065,16,07,14,284,19*73

$GPGSV,3,3,12,26,13,167,16,30,10,317,,01,09,246,,15,05,032,19*7C

$GPRMC,145044.000,A,4709.3615,N,00138.2574,W,0.28,341.32,180717,,,A*7C

$GPVTG,341.32,T,,M,0.28,N,0.52,K,A*37

$GPGGA,145045.000,4709.3616,N,00138.2575,W,1,08,0.96,56.5,M,48.7,M,,*42

$GPGLL,4709.3616,N,00138.2575,W,145045.000,A,A*4D

$GPGSA,A,3,26,10,07,18,21,27,08,16,,,,,1.24,0.96,0.78*07

$GPGSV,3,1,12,27,78,082,17,08,60,304,21,10,56,101,20,18,39,062,19*7B

$GPGSV,3,2,12,16,38,177,22,11,21,266,,21,16,065,16,07,14,284,19*73

$GPGSV,3,3,12,26,13,167,16,30,10,317,,01,09,246,,15,05,032,19*7C

$GPRMC,145045.000,A,4709.3616,N,00138.2575,W,0.25,325.88,180717,,,A*71

$GPVTG,325.88,T,,M,0.25,N,0.47,K,A*3D

$GPGGA,145046.000,4709.3616,N,00138.2575,W,1,08,0.96,56.5,M,48.7,M,,*41

$GPGLL,4709.3616,N,00138.2575,W,145046.000,A,A*4E

$GPGSA,A,3,26,10,07,18,21,27,08,16,,,,,1.24,0.96,0.78*07

$GPGSV,3,1,12,27,78,082,17,08,60,304,21,10,56,101,20,18,39,062,19*7B

$GPGSV,3,2,12,16,38,177,22,11,21,266,,21,16,065,16,07,14,284,19*73

$GPGSV,3,3,12,26,13,167,15,30,10,317,,01,09,246,,15,05,032,19*7F

$GPRMC,145046.000,A,4709.3616,N,00138.2575,W,0.28,311.90,180717,,,A*71

$GPVTG,311.90,T,,M,0.28,N,0.52,K,A*3A

$GPGGA,145047.000,4709.3617,N,00138.2576,W,1,08,0.96,56.6,M,48.7,M,,*41

$GPGLL,4709.3617,N,00138.2576,W,145047.000,A,A*4D

$GPGSA,A,3,26,10,07,18,21,27,08,16,,,,,1.24,0.96,0.78*07

$GPGSV,3,1,12,27,78,082,17,08,60,304,20,10,56,101,20,18,39,062,19*7A

$GPGSV,3,2,12,16,38,177,22,11,21,266,,21,16,065,16,07,14,284,20*79

$GPGSV,3,3,12,26,13,167,16,30,10,317,,01,09,246,,15,05,032,19*7C

$GPRMC,145047.000,A,4709.3617,N,00138.2576,W,0.26,306.26,180717,,,A*77

$GPVTG,306.26,T,,M,0.26,N,0.49,K,A*35

$GPGGA,145048.000,4709.3617,N,00138.2577,W,1,08,0.96,56.6,M,48.7,M,,*4F

$GPGLL,4709.3617,N,00138.2577,W,145048.000,A,A*43

$GPGSA,A,3,26,10,07,18,21,27,08,16,,,,,1.24,0.96,0.78*07

$GPGSV,3,1,12,27,78,082,17,08,60,304,20,10,56,101,20,18,39,062,19*7A

$GPGSV,3,2,12,16,38,177,22,11,21,266,,21,16,065,16,07,14,284,20*79

$GPGSV,3,3,12,26,13,167,16,30,10,317,,01,09,246,,15,05,032,19*7C

$GPRMC,145048.000,A,4709.3617,N,00138.2577,W,0.29,296.82,180717,,,A*70

$GPVTG,296.82,T,,M,0.29,N,0.54,K,A*30

$GPGGA,145049.000,4709.3618,N,00138.2578,W,1,08,0.96,56.6,M,48.7,M,,*4E

$GPGLL,4709.3618,N,00138.2578,W,145049.000,A,A*42

$GPGSA,A,3,26,10,07,18,21,27,08,16,,,,,1.24,0.96,0.78*07

$GPGSV,3,1,12,27,78,082,17,08,60,304,20,10,56,101,20,18,39,062,19*7A

$GPGSV,3,2,12,16,38,177,22,11,21,266,,21,16,065,16,07,14,284,21*78

$GPGSV,3,3,12,26,13,167,16,30,10,317,,01,09,246,,15,05,032,19*7C

$GPRMC,145049.000,A,4709.3618,N,00138.2578,W,0.38,284.73,180717,,,A*7C

$GPVTG,284.73,T,,M,0.38,N,0.71,K,A*3A

$GPGGA,145050.000,4709.3618,N,00138.2580,W,1,08,0.96,56.6,M,48.7,M,,*41

$GPGLL,4709.3618,N,00138.2580,W,145050.000,A,A*4D

$GPGSA,A,3,26,10,07,18,21,27,08,16,,,,,1.24,0.96,0.78*07

$GPGSV,3,1,12,27,78,082,17,08,60,304,20,10,56,101,20,18,39,062,19*7A

$GPGSV,3,2,12,16,38,177,22,11,21,266,,21,16,065,16,07,14,284,21*78

$GPGSV,3,3,12,26,13,167,16,30,10,317,,01,09,246,,15,05,032,19*7C

$GPRMC,145050.000,A,4709.3618,N,00138.2580,W,0.41,285.66,180717,,,A*78

$GPVTG,285.66,T,,M,0.41,N,0.77,K,A*37

$GPGGA,145051.000,4709.3618,N,00138.2582,W,1,08,0.96,56.6,M,48.7,M,,*42

$GPGLL,4709.3618,N,00138.2582,W,145051.000,A,A*4E

$GPGSA,A,3,26,10,07,18,21,27,08,16,,,,,1.24,0.96,0.78*07

$GPGSV,3,1,12,27,78,082,17,08,60,304,20,10,56,101,19,18,39,062,19*70

$GPGSV,3,2,12,16,38,177,21,11,21,266,,21,16,065,16,07,14,284,21*7B

$GPGSV,3,3,12,26,12,167,16,30,10,317,,01,09,246,,15,05,032,19*7D

$GPRMC,145051.000,A,4709.3618,N,00138.2582,W,0.44,278.70,180717,,,A*7B

$GPVTG,278.70,T,,M,0.44,N,0.81,K,A*3E

$GPGGA,145052.000,4709.3618,N,00138.2583,W,1,08,0.96,56.6,M,48.7,M,,*40

$GPGLL,4709.3618,N,00138.2583,W,145052.000,A,A*4C

$GPGSA,A,3,26,10,07,18,21,27,08,16,,,,,1.24,0.96,0.78*07

$GPGSV,3,1,12,27,78,083,17,08,60,304,20,10,56,101,19,18,39,062,18*70

$GPGSV,3,2,12,16,38,177,21,11,21,266,,21,16,065,16,07,14,284,20*7A

$GPGSV,3,3,12,26,12,167,16,30,10,317,,01,09,246,,15,05,032,18*7C

$GPRMC,145052.000,A,4709.3618,N,00138.2583,W,0.45,283.15,180717,,,A*7F

$GPVTG,283.15,T,,M,0.45,N,0.84,K,A*3D

$GPGGA,145053.000,4709.3619,N,00138.2585,W,1,08,0.96,56.6,M,48.7,M,,*46

$GPGLL,4709.3619,N,00138.2585,W,145053.000,A,A*4A

$GPGSA,A,3,26,10,07,18,21,27,08,16,,,,,1.24,0.96,0.78*07

$GPGSV,3,1,12,27,78,083,17,08,60,304,20,10,56,101,18,18,39,062,18*71

$GPGSV,3,2,12,16,38,177,21,11,21,266,,21,16,065,16,07,14,284,20*7A

$GPGSV,3,3,12,26,12,167,16,30,10,317,,01,09,246,,15,05,032,18*7C

$GPRMC,145053.000,A,4709.3619,N,00138.2585,W,0.43,281.26,180717,,,A*7D

$GPVTG,281.26,T,,M,0.43,N,0.79,K,A*3B

$GPGGA,145054.000,4709.3619,N,00138.2587,W,1,08,0.96,56.6,M,48.7,M,,*43

$GPGLL,4709.3619,N,00138.2587,W,145054.000,A,A*4F

$GPGSA,A,3,26,10,07,18,21,27,08,16,,,,,1.24,0.96,0.78*07

$GPGSV,3,1,12,27,78,083,17,08,60,304,19,10,56,101,18,18,39,062,18*7B

$GPGSV,3,2,12,16,38,177,21,11,21,266,,21,16,065,15,07,14,284,20*79

$GPGSV,3,3,12,26,12,167,16,30,10,317,,01,09,246,,15,05,032,18*7C

$GPRMC,145054.000,A,4709.3619,N,00138.2587,W,0.40,277.82,180717,,,A*7C

$GPVTG,277.82,T,,M,0.40,N,0.73,K,A*35

$GPGGA,145055.000,4709.3619,N,00138.2589,W,1,08,0.96,56.6,M,48.7,M,,*4C

$GPGLL,4709.3619,N,00138.2589,W,145055.000,A,A*40

$GPGSA,A,3,26,10,07,18,21,27,08,16,,,,,1.24,0.96,0.78*07

$GPGSV,3,1,12,27,78,083,17,08,60,304,19,10,56,101,17,18,39,062,18*74

$GPGSV,3,2,12,16,38,177,21,11,21,266,,21,16,065,15,07,14,284,20*79

$GPGSV,3,3,12,26,12,167,16,30,10,317,,01,09,246,,15,05,032,18*7C

$GPRMC,145055.000,A,4709.3619,N,00138.2589,W,0.39,278.76,180717,,,A*79

$GPVTG,278.76,T,,M,0.39,N,0.73,K,A*3F

$GPGGA,145056.000,4709.3619,N,00138.2590,W,1,08,0.96,56.6,M,48.7,M,,*47

$GPGLL,4709.3619,N,00138.2590,W,145056.000,A,A*4B

$GPGSA,A,3,26,10,07,18,21,27,08,16,,,,,1.24,0.96,0.78*07

$GPGSV,3,1,12,27,78,083,17,08,60,304,20,10,56,101,17,18,39,062,18*7E

$GPGSV,3,2,12,16,38,177,21,11,21,266,,21,16,065,15,07,14,284,20*79

$GPGSV,3,3,12,26,12,167,16,30,10,317,,01,09,246,,15,05,032,18*7C

$GPRMC,145056.000,A,4709.3619,N,00138.2590,W,0.45,278.12,180717,,,A*7B

$GPVTG,278.12,T,,M,0.45,N,0.83,K,A*39

$GPGGA,145057.000,4709.3619,N,00138.2592,W,1,08,0.96,56.6,M,48.7,M,,*44

$GPGLL,4709.3619,N,00138.2592,W,145057.000,A,A*48

$GPGSA,A,3,26,10,07,18,21,27,08,16,,,,,1.24,0.96,0.78*07

$GPGSV,3,1,12,27,78,083,17,08,60,304,20,10,56,101,17,18,39,062,18*7E

$GPGSV,3,2,12,16,38,177,21,11,21,266,,21,16,065,15,07,14,284,20*79

$GPGSV,3,3,12,26,12,167,16,30,10,317,,01,09,246,,15,05,032,18*7C

$GPRMC,145057.000,A,4709.3619,N,00138.2592,W,0.52,276.94,180717,,,A*7E

$GPVTG,276.94,T,,M,0.52,N,0.96,K,A*3B

$GPGGA,145058.000,4709.3620,N,00138.2594,W,1,08,0.96,56.6,M,48.7,M,,*47

$GPGLL,4709.3620,N,00138.2594,W,145058.000,A,A*4B

$GPGSA,A,3,26,10,07,18,21,27,08,16,,,,,1.24,0.96,0.78*07

$GPGSV,3,1,12,27,78,083,17,08,60,304,19,10,56,101,16,18,39,062,18*75

$GPGSV,3,2,12,16,38,177,21,11,21,266,,21,16,065,15,07,14,284,20*79

$GPGSV,3,3,12,26,12,167,16,30,10,317,,01,09,246,,15,05,032,18*7C

$GPRMC,145058.000,A,4709.3620,N,00138.2594,W,0.59,273.69,180717,,,A*71

$GPVTG,273.69,T,,M,0.59,N,1.10,K,A*38

$GPGGA,145059.000,4709.3619,N,00138.2604,W,1,08,0.96,56.4,M,48.7,M,,*44

$GPGLL,4709.3619,N,00138.2604,W,145059.000,A,A*4A

$GPGSA,A,3,26,10,07,18,21,27,08,16,,,,,1.24,0.96,0.78*07

$GPGSV,3,1,12,27,78,083,17,08,60,304,19,10,56,101,15,18,39,062,18*76

$GPGSV,3,2,12,16,38,177,21,11,21,266,,21,16,065,16,07,14,284,20*7A

$GPGSV,3,3,12,26,12,167,16,30,10,317,,01,09,246,,15,05,032,18*7C

$GPRMC,145059.000,A,4709.3619,N,00138.2604,W,0.68,270.04,180717,,,A*7A

$GPVTG,270.04,T,,M,0.68,N,1.27,K,A*36

$GPGGA,145100.000,4709.3618,N,00138.2616,W,1,08,0.96,56.3,M,48.7,M,,*4C

$GPGLL,4709.3618,N,00138.2616,W,145100.000,A,A*45

$GPGSA,A,3,26,10,07,18,21,27,08,16,,,,,1.24,0.96,0.78*07

$GPGSV,3,1,12,27,78,083,17,08,60,304,18,10,56,101,15,18,39,062,18*77

$GPGSV,3,2,12,16,38,177,21,11,21,266,,21,16,065,16,07,14,284,20*7A

$GPGSV,3,3,12,26,12,167,16,30,10,317,,01,09,246,,15,05,032,18*7C

$GPRMC,145100.000,A,4709.3618,N,00138.2616,W,0.80,267.08,180717,,,A*79

$GPVTG,267.08,T,,M,0.80,N,1.48,K,A*33

$GPGGA,145101.000,4709.3617,N,00138.2627,W,1,08,0.96,56.3,M,48.7,M,,*40

$GPGLL,4709.3617,N,00138.2627,W,145101.000,A,A*49

$GPGSA,A,3,26,10,07,18,21,27,08,16,,,,,1.24,0.96,0.78*07

$GPGSV,3,1,12,27,78,083,17,08,60,304,18,10,56,101,15,18,39,062,18*77

$GPGSV,3,2,12,16,38,177,21,11,21,266,,21,16,065,16,07,14,284,20*7A

$GPGSV,3,3,12,26,12,167,16,30,10,317,,01,10,246,,15,05,032,18*74

$GPRMC,145101.000,A,4709.3617,N,00138.2627,W,0.88,263.29,180717,,,A*7A

$GPVTG,263.29,T,,M,0.88,N,1.63,K,A*35

$GPGGA,145102.000,4709.3617,N,00138.2634,W,1,08,0.96,56.3,M,48.7,M,,*41

$GPGLL,4709.3617,N,00138.2634,W,145102.000,A,A*48

$GPGSA,A,3,26,10,07,18,21,27,08,16,,,,,1.24,0.96,0.78*07

$GPGSV,3,1,12,27,78,083,17,08,60,304,18,10,56,101,16,18,39,062,18*74

$GPGSV,3,2,12,16,38,177,21,11,21,266,,21,16,065,16,07,14,284,20*7A

$GPGSV,3,3,12,26,12,167,16,30,10,317,,01,10,246,,15,05,032,18*74

$GPRMC,145102.000,A,4709.3617,N,00138.2634,W,0.87,262.79,180717,,,A*70

$GPVTG,262.79,T,,M,0.87,N,1.61,K,A*3C

$GPGGA,145103.000,4709.3617,N,00138.2641,W,1,08,0.96,56.3,M,48.7,M,,*42

$GPGLL,4709.3617,N,00138.2641,W,145103.000,A,A*4B

$GPGSA,A,3,26,10,07,18,21,27,08,16,,,,,1.24,0.96,0.78*07

$GPGSV,3,1,12,27,78,083,17,08,60,304,18,10,56,101,15,18,39,062,18*77

$GPGSV,3,2,12,16,38,177,21,11,21,266,,21,16,065,16,07,14,284,20*7A

$GPGSV,3,3,12,26,12,167,16,30,10,317,,01,10,246,,15,05,032,18*74

$GPRMC,145103.000,A,4709.3617,N,00138.2641,W,0.88,263.87,180717,,,A*7C

$GPVTG,263.87,T,,M,0.88,N,1.62,K,A*30

$GPGGA,145104.000,4709.3618,N,00138.2646,W,1,08,0.96,56.3,M,48.7,M,,*4D

$GPGLL,4709.3618,N,00138.2646,W,145104.000,A,A*44

$GPGSA,A,3,26,10,07,18,21,27,08,16,,,,,1.24,0.96,0.78*07

$GPGSV,3,1,12,27,78,083,17,08,60,304,18,10,56,101,13,18,39,062,19*70

$GPGSV,3,2,12,16,38,177,22,11,21,266,,21,16,065,16,07,14,284,20*79

$GPGSV,3,3,12,26,12,167,16,30,10,317,,01,10,246,,15,05,032,17*7B

$GPRMC,145104.000,A,4709.3618,N,00138.2646,W,0.83,267.28,180717,,,A*79

$GPVTG,267.28,T,,M,0.83,N,1.55,K,A*3E

$GPGGA,145105.000,4709.3617,N,00138.2649,W,1,08,0.96,56.3,M,48.7,M,,*4C

$GPGLL,4709.3617,N,00138.2649,W,145105.000,A,A*45

$GPGSA,A,3,26,10,07,18,21,27,08,16,,,,,1.24,0.96,0.78*07

$GPGSV,3,1,12,27,78,083,17,08,60,304,18,10,56,101,14,18,39,062,19*77

$GPGSV,3,2,12,16,38,177,22,11,21,266,,21,16,065,16,07,14,284,20*79

$GPGSV,3,3,12,26,12,167,16,30,10,317,,01,10,246,,15,05,032,17*7B

$GPRMC,145105.000,A,4709.3617,N,00138.2649,W,0.78,266.42,180717,,,A*71

$GPVTG,266.42,T,,M,0.78,N,1.44,K,A*37

$GPGGA,145106.000,4709.3616,N,00138.2654,W,1,08,0.96,56.3,M,48.7,M,,*42

$GPGLL,4709.3616,N,00138.2654,W,145106.000,A,A*4B

$GPGSA,A,3,26,10,07,18,21,27,08,16,,,,,1.24,0.96,0.78*07

$GPGSV,3,1,12,27,78,083,17,08,60,304,18,10,56,101,15,18,39,062,19*76

$GPGSV,3,2,12,16,38,177,22,11,21,266,,21,16,065,16,07,14,284,20*79

$GPGSV,3,3,12,26,12,167,16,30,10,317,,01,10,246,,15,05,032,17*7B

$GPRMC,145106.000,A,4709.3616,N,00138.2654,W,0.75,263.35,180717,,,A*77

$GPVTG,263.35,T,,M,0.75,N,1.38,K,A*34

$GPGGA,145107.000,4709.3616,N,00138.2655,W,1,08,0.96,56.3,M,48.7,M,,*42

$GPGLL,4709.3616,N,00138.2655,W,145107.000,A,A*4B

$GPGSA,A,3,26,10,07,18,21,27,08,16,,,,,1.24,0.96,0.78*07

$GPGSV,3,1,12,27,78,083,17,08,60,304,18,10,56,101,15,18,39,062,19*76

$GPGSV,3,2,12,16,38,177,22,11,21,266,,21,16,065,16,07,14,284,20*79

$GPGSV,3,3,12,26,12,167,16,30,10,317,,01,10,246,,15,05,032,17*7B

$GPRMC,145107.000,A,4709.3616,N,00138.2655,W,0.65,263.13,180717,,,A*72

$GPVTG,263.13,T,,M,0.65,N,1.20,K,A*38

$GPGGA,145108.000,4709.3614,N,00138.2665,W,1,08,0.96,56.4,M,48.7,M,,*4B

$GPGLL,4709.3614,N,00138.2665,W,145108.000,A,A*45

$GPGSA,A,3,26,10,07,18,21,27,08,16,,,,,1.24,0.96,0.78*07

$GPGSV,3,1,12,27,78,083,17,08,60,304,18,10,56,101,15,18,39,062,19*76

$GPGSV,3,2,12,16,38,177,22,11,21,266,,21,16,065,16,07,14,284,20*79

$GPGSV,3,3,12,26,12,167,15,30,10,317,,01,10,246,,15,05,032,16*79

$GPRMC,145108.000,A,4709.3614,N,00138.2665,W,0.70,261.34,180717,,,A*7F

$GPVTG,261.34,T,,M,0.70,N,1.29,K,A*32

$GPGGA,145109.000,4709.3612,N,00138.2673,W,1,08,0.96,56.4,M,48.7,M,,*4B

$GPGLL,4709.3612,N,00138.2673,W,145109.000,A,A*45

$GPGSA,A,3,26,10,07,18,21,27,08,16,,,,,1.24,0.96,0.78*07

$GPGSV,3,1,12,27,78,083,17,08,60,304,18,10,56,101,14,18,39,062,19*77

$GPGSV,3,2,12,16,38,177,22,11,21,266,,21,16,065,16,07,14,284,19*73

$GPGSV,3,3,12,26,12,167,15,30,10,317,,01,10,246,,15,05,032,16*79

$GPRMC,145109.000,A,4709.3612,N,00138.2673,W,0.71,260.82,180717,,,A*72

$GPVTG,260.82,T,,M,0.71,N,1.32,K,A*35

$GPGGA,145110.000,4709.3609,N,00138.2679,W,1,08,0.96,56.4,M,48.7,M,,*43

$GPGLL,4709.3609,N,00138.2679,W,145110.000,A,A*4D

$GPGSA,A,3,26,10,07,18,21,27,08,16,,,,,1.24,0.96,0.78*07

$GPGSV,3,1,12,27,78,083,17,08,60,304,18,10,56,101,14,18,39,062,19*77

$GPGSV,3,2,12,16,38,177,21,11,21,266,,21,16,065,16,07,14,284,19*70

$GPGSV,3,3,12,26,12,167,16,30,10,317,,01,10,246,,15,05,032,15*79

$GPRMC,145110.000,A,4709.3609,N,00138.2679,W,0.70,254.95,180717,,,A*7A

$GPVTG,254.95,T,,M,0.70,N,1.29,K,A*3F

$GPGGA,145111.000,4709.3609,N,00138.2680,W,1,08,0.96,56.5,M,48.7,M,,*45

$GPGLL,4709.3609,N,00138.2680,W,145111.000,A,A*4A

$GPGSA,A,3,26,10,07,18,21,27,08,16,,,,,1.24,0.96,0.78*07

$GPGSV,3,1,12,27,78,083,17,08,60,304,18,10,56,101,14,18,39,062,19*77

$GPGSV,3,2,12,16,38,177,21,11,21,266,,21,16,065,16,07,14,284,19*70

$GPGSV,3,3,12,26,12,167,16,30,10,317,,01,10,246,,15,05,032,14*78

$GPRMC,145111.000,A,4709.3609,N,00138.2680,W,0.62,255.56,180717,,,A*70

$GPVTG,255.56,T,,M,0.62,N,1.14,K,A*3C

$GPGGA,145112.000,4709.3610,N,00138.2682,W,1,08,0.96,56.5,M,48.7,M,,*4C

$GPGLL,4709.3610,N,00138.2682,W,145112.000,A,A*43

$GPGSA,A,3,26,10,07,18,21,27,08,16,,,,,1.24,0.96,0.78*07

$GPGSV,3,1,12,27,78,083,17,08,60,304,18,10,56,101,13,18,39,062,19*70

$GPGSV,3,2,12,16,38,177,21,11,21,266,,21,16,065,16,07,14,284,19*70

$GPGSV,3,3,12,26,12,167,16,30,10,317,,01,10,246,,15,05,032,14*78

$GPRMC,145112.000,A,4709.3610,N,00138.2682,W,0.55,261.23,180717,,,A*78

$GPVTG,261.23,T,,M,0.55,N,1.02,K,A*3A

$GPGGA,145113.000,4709.3610,N,00138.2686,W,1,08,0.96,56.5,M,48.7,M,,*49

$GPGLL,4709.3610,N,00138.2686,W,145113.000,A,A*46

$GPGSA,A,3,26,10,07,18,21,27,08,16,,,,,1.24,0.96,0.78*07

$GPGSV,3,1,12,27,78,083,17,08,60,304,18,10,56,101,15,18,39,062,18*77

$GPGSV,3,2,12,16,38,177,21,11,21,266,,21,16,065,16,07,14,284,18*71

$GPGSV,3,3,12,26,12,167,16,30,10,317,,01,10,246,,15,05,032,15*79

$GPRMC,145113.000,A,4709.3610,N,00138.2686,W,0.53,265.85,180717,,,A*73

$GPVTG,265.85,T,,M,0.53,N,0.98,K,A*36

$GPGGA,145114.000,4709.3609,N,00138.2686,W,1,08,0.96,56.4,M,48.7,M,,*47

$GPGLL,4709.3609,N,00138.2686,W,145114.000,A,A*49

$GPGSA,A,3,26,10,07,18,21,27,08,16,,,,,1.24,0.96,0.78*07

$GPGSV,3,1,12,27,78,083,17,08,60,304,18,10,56,101,13,18,39,062,18*71

$GPGSV,3,2,12,16,38,177,22,11,21,266,,21,16,065,16,07,14,284,18*72

$GPGSV,3,3,12,26,12,167,16,30,10,317,,01,10,246,,15,05,032,15*79

$GPRMC,145114.000,A,4709.3609,N,00138.2686,W,0.47,263.99,180717,,,A*72

$GPVTG,263.99,T,,M,0.47,N,0.87,K,A*36

$GPGGA,145115.000,4709.3606,N,00138.2688,W,1,08,0.96,56.4,M,48.7,M,,*47

$GPGLL,4709.3606,N,00138.2688,W,145115.000,A,A*49

$GPGSA,A,3,26,10,07,18,21,27,08,16,,,,,1.24,0.96,0.78*07

$GPGSV,3,1,12,27,78,083,17,08,60,304,18,10,56,101,13,18,39,062,18*71

$GPGSV,3,2,12,16,38,177,23,11,21,266,,21,16,065,16,07,14,284,18*73

$GPGSV,3,3,12,26,12,167,16,30,10,317,,01,10,246,,15,05,032,16*7A

$GPRMC,145115.000,A,4709.3606,N,00138.2688,W,0.44,251.02,180717,,,A*72

$GPVTG,251.02,T,,M,0.44,N,0.82,K,A*33

$GPGGA,145116.000,4709.3605,N,00138.2689,W,1,08,0.96,56.4,M,48.7,M,,*46

$GPGLL,4709.3605,N,00138.2689,W,145116.000,A,A*48

$GPGSA,A,3,26,10,07,18,21,27,08,16,,,,,1.24,0.96,0.78*07

$GPGSV,3,1,12,27,78,083,17,08,60,304,19,10,56,101,13,18,39,062,18*70

$GPGSV,3,2,12,16,38,177,23,11,21,266,,21,16,065,16,07,14,284,18*73

$GPGSV,3,3,12,26,12,167,16,30,10,317,,01,10,246,,15,05,032,16*7A

$GPRMC,145116.000,A,4709.3605,N,00138.2689,W,0.43,247.24,180717,,,A*77

$GPVTG,247.24,T,,M,0.43,N,0.79,K,A*33

$GPGGA,145117.000,4709.3605,N,00138.2691,W,1,08,0.96,56.4,M,48.7,M,,*4E

$GPGLL,4709.3605,N,00138.2691,W,145117.000,A,A*40

$GPGSA,A,3,26,10,07,18,21,27,08,16,,,,,1.24,0.96,0.78*07

$GPGSV,3,1,12,27,78,083,18,08,60,304,19,10,56,101,11,18,39,062,19*7C

$GPGSV,3,2,12,16,38,177,23,11,21,266,,21,16,065,16,07,14,284,18*73

$GPGSV,3,3,12,26,12,167,16,30,10,317,,01,10,246,,15,05,032,16*7A

$GPRMC,145117.000,A,4709.3605,N,00138.2691,W,0.43,236.77,180717,,,A*7F

$GPVTG,236.77,T,,M,0.43,N,0.80,K,A*35

$GPGGA,145118.000,4709.3604,N,00138.2693,W,1,08,0.96,56.4,M,48.7,M,,*42

$GPGLL,4709.3604,N,00138.2693,W,145118.000,A,A*4C

$GPGSA,A,3,26,10,07,18,21,27,08,16,,,,,1.24,0.96,0.78*07

$GPGSV,3,1,12,27,78,083,18,08,60,304,19,10,56,101,14,18,39,061,19*7A

$GPGSV,3,2,12,16,38,177,23,11,21,266,,21,16,065,16,07,14,284,18*73

$GPGSV,3,3,12,26,12,167,16,30,10,317,,01,10,246,,15,05,032,16*7A

$GPRMC,145118.000,A,4709.3604,N,00138.2693,W,0.44,238.22,180717,,,A*7A

$GPVTG,238.22,T,,M,0.44,N,0.82,K,A*3E

$GPGGA,145119.000,4709.3603,N,00138.2694,W,1,08,0.96,56.4,M,48.7,M,,*43

$GPGLL,4709.3603,N,00138.2694,W,145119.000,A,A*4D

$GPGSA,A,3,26,10,07,18,21,27,08,16,,,,,1.24,0.96,0.78*07

$GPGSV,3,1,12,27,78,083,18,08,60,304,19,10,56,101,14,18,39,061,19*7A

$GPGSV,3,2,12,16,38,177,23,11,21,266,,21,16,065,15,07,14,284,18*70

$GPGSV,3,3,12,26,12,167,16,30,10,317,,01,10,246,,15,05,032,16*7A

$GPRMC,145119.000,A,4709.3603,N,00138.2694,W,0.42,249.80,180717,,,A*73

$GPVTG,249.80,T,,M,0.42,N,0.78,K,A*33

$GPGGA,145120.000,4709.3603,N,00138.2696,W,1,08,0.96,56.4,M,48.7,M,,*4B

$GPGLL,4709.3603,N,00138.2696,W,145120.000,A,A*45

$GPGSA,A,3,26,10,07,18,21,27,08,16,,,,,1.24,0.96,0.78*07

$GPGSV,3,1,12,27,78,083,18,08,60,304,19,10,56,101,15,18,39,061,19*7B

$GPGSV,3,2,12,16,38,177,23,11,21,266,,21,16,065,15,07,14,284,18*70

$GPGSV,3,3,12,26,12,167,16,30,10,317,,01,10,246,,15,05,032,16*7A

$GPRMC,145120.000,A,4709.3603,N,00138.2696,W,0.38,258.77,180717,,,A*7E

$GPVTG,258.77,T,,M,0.38,N,0.71,K,A*3F

$GPGGA,145121.000,4709.3603,N,00138.2697,W,1,08,0.96,56.4,M,48.7,M,,*4B

$GPGLL,4709.3603,N,00138.2697,W,145121.000,A,A*45

$GPGSA,A,3,26,10,07,18,21,27,08,16,,,,,1.24,0.96,0.78*07

$GPGSV,3,1,12,27,78,083,18,08,60,304,19,10,56,101,13,18,39,061,19*7D

$GPGSV,3,2,12,16,38,177,23,11,21,266,,21,16,065,15,07,14,284,18*70

$GPGSV,3,3,12,26,12,167,16,30,10,317,,01,10,246,,15,05,032,16*7A

$GPRMC,145121.000,A,4709.3603,N,00138.2697,W,0.37,262.51,180717,,,A*7C

$GPVTG,262.51,T,,M,0.37,N,0.68,K,A*35

$GPGGA,145122.000,4709.3603,N,00138.2699,W,1,08,0.96,56.4,M,48.7,M,,*46

$GPGLL,4709.3603,N,00138.2699,W,145122.000,A,A*48

$GPGSA,A,3,26,10,07,18,21,27,08,16,,,,,1.24,0.96,0.78*07

$GPGSV,3,1,12,27,78,083,18,08,60,304,19,10,56,101,10,18,39,061,19*7E

$GPGSV,3,2,12,16,38,177,23,11,21,266,,21,16,065,15,07,14,284,18*70

$GPGSV,3,3,12,26,12,167,16,30,10,317,,01,10,246,,15,05,032,16*7A

$GPRMC,145122.000,A,4709.3603,N,00138.2699,W,0.40,268.72,180717,,,A*7A

$GPVTG,268.72,T,,M,0.40,N,0.74,K,A*33

$GPGGA,145123.000,4709.3603,N,00138.2700,W,1,08,0.96,56.4,M,48.7,M,,*46

$GPGLL,4709.3603,N,00138.2700,W,145123.000,A,A*48

$GPGSA,A,3,26,10,07,18,21,27,08,16,,,,,1.24,0.96,0.78*07

$GPGSV,3,1,12,27,78,083,18,08,60,304,18,10,56,101,13,18,39,061,19*7C

$GPGSV,3,2,12,16,38,177,23,11,21,266,,21,16,065,15,07,14,284,18*70

$GPGSV,3,3,12,26,12,167,16,30,10,317,,01,10,246,,15,05,032,16*7A

$GPRMC,145123.000,A,4709.3603,N,00138.2700,W,0.41,268.62,180717,,,A*7A

$GPVTG,268.62,T,,M,0.41,N,0.77,K,A*30

$GPGGA,145124.000,4709.3603,N,00138.2702,W,1,08,0.96,56.4,M,48.7,M,,*43

$GPGLL,4709.3603,N,00138.2702,W,145124.000,A,A*4D

$GPGSA,A,3,26,10,07,18,21,27,08,16,,,,,1.24,0.96,0.78*07

$GPGSV,3,1,12,27,78,083,18,08,60,304,18,10,56,101,12,18,39,061,19*7D

$GPGSV,3,2,12,16,38,177,23,11,21,266,,21,16,065,16,07,14,284,18*73

$GPGSV,3,3,12,26,12,167,16,30,10,317,,01,10,246,,15,05,032,16*7A

$GPRMC,145124.000,A,4709.3603,N,00138.2702,W,0.43,262.09,180717,,,A*7A

$GPVTG,262.09,T,,M,0.43,N,0.79,K,A*3B

$GPGGA,145125.000,4709.3602,N,00138.2704,W,1,08,0.96,56.4,M,48.7,M,,*45

$GPGLL,4709.3602,N,00138.2704,W,145125.000,A,A*4B

$GPGSA,A,3,26,10,07,18,21,27,08,16,,,,,1.24,0.96,0.78*07

$GPGSV,3,1,12,27,78,083,18,08,60,304,18,10,56,101,12,18,39,061,19*7D

$GPGSV,3,2,12,16,38,177,23,11,21,266,,21,16,065,16,07,14,284,18*73

$GPGSV,3,3,12,26,12,167,16,30,10,317,,01,10,246,,15,05,032,16*7A

$GPRMC,145125.000,A,4709.3602,N,00138.2704,W,0.43,256.14,180717,,,A*77

$GPVTG,256.14,T,,M,0.43,N,0.79,K,A*30

$GPGGA,145126.000,4709.3602,N,00138.2706,W,1,08,0.96,56.4,M,48.7,M,,*44

$GPGLL,4709.3602,N,00138.2706,W,145126.000,A,A*4A

$GPGSA,A,3,26,10,07,18,21,27,08,16,,,,,1.24,0.96,0.78*07

$GPGSV,3,1,12,27,78,083,18,08,60,304,18,10,56,101,12,18,39,061,19*7D

$GPGSV,3,2,12,16,38,177,23,11,21,266,,21,16,065,15,07,14,284,18*70

$GPGSV,3,3,12,26,12,167,16,30,10,317,,01,10,246,,15,05,032,16*7A

$GPRMC,145126.000,A,4709.3602,N,00138.2706,W,0.48,257.01,180717,,,A*78

$GPVTG,257.01,T,,M,0.48,N,0.90,K,A*39

$GPGGA,145127.000,4709.3602,N,00138.2708,W,1,08,0.96,56.4,M,48.7,M,,*4B

$GPGLL,4709.3602,N,00138.2708,W,145127.000,A,A*45

$GPGSA,A,3,26,10,07,18,21,27,08,16,,,,,1.24,0.96,0.78*07

$GPGSV,3,1,12,27,78,084,18,08,60,304,18,10,56,101,14,18,39,061,19*7C

$GPGSV,3,2,12,16,38,177,23,11,21,266,,21,16,065,15,07,14,284,18*70

$GPGSV,3,3,12,26,12,167,16,30,10,317,,01,10,246,,15,05,032,16*7A

$GPRMC,145127.000,A,4709.3602,N,00138.2708,W,0.56,260.48,180717,,,A*71

$GPVTG,260.48,T,,M,0.56,N,1.04,K,A*33

$GPGGA,145128.000,4709.3601,N,00138.2710,W,1,08,0.96,56.4,M,48.7,M,,*4E

$GPGLL,4709.3601,N,00138.2710,W,145128.000,A,A*40

$GPGSA,A,3,26,10,07,18,21,27,08,16,,,,,1.24,0.96,0.78*07

$GPGSV,3,1,12,27,78,084,18,08,60,304,18,10,56,101,15,18,39,061,19*7D

$GPGSV,3,2,12,16,38,177,23,11,21,266,,21,16,065,15,07,14,284,18*70

$GPGSV,3,3,12,26,12,167,16,30,10,317,,01,10,246,,15,05,032,16*7A

$GPRMC,145128.000,A,4709.3601,N,00138.2710,W,0.60,258.76,180717,,,A*77

$GPVTG,258.76,T,,M,0.60,N,1.12,K,A*37

$GPGGA,145129.000,4709.3599,N,00138.2713,W,1,08,0.96,56.4,M,48.7,M,,*4E

$GPGLL,4709.3599,N,00138.2713,W,145129.000,A,A*40

$GPGSA,A,3,26,10,07,18,21,27,08,16,,,,,1.24,0.96,0.78*07

$GPGSV,3,1,12,27,78,084,18,08,60,304,18,10,56,101,14,18,39,061,19*7C

$GPGSV,3,2,12,16,38,177,23,11,21,266,,21,16,065,15,07,14,284,18*70

$GPGSV,3,3,12,26,12,167,16,30,10,317,,01,10,246,,15,05,032,16*7A

$GPRMC,145129.000,A,4709.3599,N,00138.2713,W,0.61,254.76,180717,,,A*7A

$GPVTG,254.76,T,,M,0.61,N,1.14,K,A*3C

$GPGGA,145130.000,4709.3597,N,00138.2716,W,1,08,0.96,56.4,M,48.7,M,,*4D

$GPGLL,4709.3597,N,00138.2716,W,145130.000,A,A*43

$GPGSA,A,3,26,10,07,18,21,27,08,16,,,,,1.24,0.96,0.78*07

$GPGSV,3,1,12,27,78,084,18,08,60,304,18,10,56,101,14,18,39,061,19*7C

$GPGSV,3,2,12,16,38,177,23,11,21,266,,21,16,065,16,07,14,284,18*73

$GPGSV,3,3,12,26,12,167,16,30,10,317,,01,10,246,,15,05,032,17*7B

$GPRMC,145130.000,A,4709.3597,N,00138.2716,W,0.64,252.80,180717,,,A*73

$GPVTG,252.80,T,,M,0.64,N,1.18,K,A*3A

$GPGGA,145131.000,4709.3596,N,00138.2720,W,1,08,0.96,56.4,M,48.7,M,,*48

$GPGLL,4709.3596,N,00138.2720,W,145131.000,A,A*46

$GPGSA,A,3,26,10,07,18,21,27,08,16,,,,,1.24,0.96,0.78*07

$GPGSV,3,1,12,27,78,084,18,08,60,304,18,10,56,101,13,18,39,061,19*7B

$GPGSV,3,2,12,16,38,177,23,11,21,266,,21,16,065,15,07,14,284,18*70

$GPGSV,3,3,12,26,12,167,16,30,10,317,,01,10,246,,15,05,032,17*7B

$GPRMC,145131.000,A,4709.3596,N,00138.2720,W,0.62,257.61,180717,,,A*7A

$GPVTG,257.61,T,,M,0.62,N,1.15,K,A*3B

$GPGGA,145132.000,4709.3596,N,00138.2723,W,1,08,0.96,56.4,M,48.7,M,,*48

$GPGLL,4709.3596,N,00138.2723,W,145132.000,A,A*46

$GPGSA,A,3,26,10,07,18,21,27,08,16,,,,,1.24,0.96,0.78*07

$GPGSV,3,1,12,27,78,084,18,08,60,304,18,10,56,101,12,18,39,061,19*7A

$GPGSV,3,2,12,16,38,177,23,11,21,266,,21,16,065,15,07,14,284,18*70

$GPGSV,3,3,12,26,12,167,16,30,10,317,,01,10,246,,15,05,032,17*7B

$GPRMC,145132.000,A,4709.3596,N,00138.2723,W,0.62,263.39,180717,,,A*70

$GPVTG,263.39,T,,M,0.62,N,1.14,K,A*30

$GPGGA,145133.000,4709.3594,N,00138.2723,W,1,08,0.96,56.4,M,48.7,M,,*4B

$GPGLL,4709.3594,N,00138.2723,W,145133.000,A,A*45

$GPGSA,A,3,26,10,07,18,21,27,08,16,,,,,1.24,0.96,0.78*07

$GPGSV,3,1,12,27,78,084,18,08,60,304,18,10,56,101,11,18,39,061,20*73

$GPGSV,3,2,12,16,38,177,23,11,21,266,,21,16,065,16,07,14,284,18*73

$GPGSV,3,3,12,26,12,167,16,30,10,317,,01,10,246,,15,05,032,17*7B

$GPRMC,145133.000,A,4709.3594,N,00138.2723,W,0.55,263.29,180717,,,A*76

$GPVTG,263.29,T,,M,0.55,N,1.02,K,A*32

$GPGGA,145134.000,4709.3591,N,00138.2729,W,1,08,0.96,56.4,M,48.7,M,,*43

$GPGLL,4709.3591,N,00138.2729,W,145134.000,A,A*4D

$GPGSA,A,3,26,10,07,18,21,27,08,16,,,,,1.24,0.96,0.78*07

$GPGSV,3,1,12,27,78,084,18,08,60,304,18,10,56,101,11,18,39,061,20*73

$GPGSV,3,2,12,16,38,177,23,11,21,266,,21,16,065,16,07,14,284,18*73

$GPGSV,3,3,12,26,12,167,16,30,10,317,,01,10,246,,15,05,032,17*7B

$GPRMC,145134.000,A,4709.3591,N,00138.2729,W,0.59,257.86,180717,,,A*70

$GPVTG,257.86,T,,M,0.59,N,1.09,K,A*37

$GPGGA,145135.000,4709.3585,N,00138.2733,W,1,08,0.96,56.3,M,48.7,M,,*4B

$GPGLL,4709.3585,N,00138.2733,W,145135.000,A,A*42

$GPGSA,A,3,26,10,07,18,21,27,08,16,,,,,1.24,0.96,0.78*07

$GPGSV,3,1,12,27,78,084,18,08,60,304,19,10,56,101,14,18,39,061,20*77

$GPGSV,3,2,12,16,38,177,23,11,21,266,,21,16,065,16,07,14,284,17*7C

$GPGSV,3,3,12,26,12,167,17,30,10,317,,01,10,246,,15,05,032,17*7A

$GPRMC,145135.000,A,4709.3585,N,00138.2733,W,0.62,248.30,180717,,,A*74

$GPVTG,248.30,T,,M,0.62,N,1.15,K,A*31

$GPGGA,145136.000,4709.3584,N,00138.2736,W,1,08,0.96,56.3,M,48.7,M,,*4C

$GPGLL,4709.3584,N,00138.2736,W,145136.000,A,A*45

$GPGSA,A,3,26,10,07,18,21,27,08,16,,,,,1.24,0.96,0.78*07

$GPGSV,3,1,12,27,78,084,18,08,60,304,19,10,56,101,16,18,39,061,20*75

$GPGSV,3,2,12,16,38,177,23,11,21,266,,21,16,065,16,07,14,284,17*7C

$GPGSV,3,3,12,26,12,167,17,30,10,317,,01,10,246,,15,05,032,17*7A

$GPRMC,145136.000,A,4709.3584,N,00138.2736,W,0.65,250.22,180717,,,A*7E

$GPVTG,250.22,T,,M,0.65,N,1.20,K,A*3A

$GPGGA,145137.000,4709.3581,N,00138.2739,W,1,08,0.96,56.3,M,48.7,M,,*47

$GPGLL,4709.3581,N,00138.2739,W,145137.000,A,A*4E

$GPGSA,A,3,26,10,07,18,21,27,08,16,,,,,1.24,0.96,0.78*07

$GPGSV,3,1,12,27,78,084,18,08,60,304,19,10,56,101,14,18,39,061,20*77

$GPGSV,3,2,12,16,38,177,23,11,21,266,,21,16,065,16,07,14,284,17*7C

$GPGSV,3,3,12,26,12,167,17,30,10,317,,01,10,246,,15,05,032,17*7A

$GPRMC,145137.000,A,4709.3581,N,00138.2739,W,0.70,246.81,180717,,,A*7F

$GPVTG,246.81,T,,M,0.70,N,1.30,K,A*31

$GPGGA,145138.000,4709.3579,N,00138.2741,W,1,08,0.96,56.3,M,48.7,M,,*40

$GPGLL,4709.3579,N,00138.2741,W,145138.000,A,A*49

$GPGSA,A,3,26,10,07,18,21,27,08,16,,,,,1.24,0.96,0.78*07

$GPGSV,3,1,12,27,78,084,18,08,60,304,18,10,56,101,15,18,39,061,20*77

$GPGSV,3,2,12,16,38,177,23,11,21,266,,21,16,065,16,07,14,284,17*7C

$GPGSV,3,3,12,26,12,167,17,30,10,317,,01,10,246,,15,05,032,17*7A

$GPRMC,145138.000,A,4709.3579,N,00138.2741,W,0.75,241.94,180717,,,A*7E

$GPVTG,241.94,T,,M,0.75,N,1.39,K,A*3E

$GPGGA,145139.000,4709.3578,N,00138.2741,W,1,07,0.98,56.2,M,48.7,M,,*40

$GPGLL,4709.3578,N,00138.2741,W,145139.000,A,A*49

$GPGSA,A,3,26,07,18,21,27,08,16,,,,,,1.26,0.98,0.80*0D

$GPGSV,3,1,12,27,78,084,18,08,60,304,18,10,56,101,,18,39,061,20*73

$GPGSV,3,2,12,16,38,177,23,11,21,266,,21,16,065,13,07,14,284,17*79

$GPGSV,3,3,12,26,12,167,17,30,10,317,,01,10,246,,15,05,032,17*7A

$GPRMC,145139.000,A,4709.3578,N,00138.2741,W,0.68,240.99,180717,,,A*7E

$GPVTG,240.99,T,,M,0.68,N,1.26,K,A*30

$GPGGA,145140.000,4709.3577,N,00138.2740,W,1,07,0.98,56.2,M,48.7,M,,*40

$GPGLL,4709.3577,N,00138.2740,W,145140.000,A,A*49

$GPGSA,A,3,26,07,18,21,27,08,16,,,,,,1.26,0.98,0.80*0D

$GPGSV,3,1,12,27,78,084,18,08,60,304,19,10,56,101,,18,39,061,20*72

$GPGSV,3,2,12,16,38,177,23,11,21,266,,21,16,065,15,07,14,284,17*7F

$GPGSV,3,3,12,26,12,167,17,30,10,317,,01,10,246,,15,05,032,17*7A

$GPRMC,145140.000,A,4709.3577,N,00138.2740,W,0.63,237.91,180717,,,A*7D

$GPVTG,237.91,T,,M,0.63,N,1.17,K,A*31

$GPGGA,145141.000,4709.3575,N,00138.2739,W,1,07,0.98,56.1,M,48.7,M,,*4E

$GPGLL,4709.3575,N,00138.2739,W,145141.000,A,A*44

$GPGSA,A,3,26,07,18,21,27,08,16,,,,,,1.26,0.98,0.80*0D

$GPGSV,3,1,12,27,78,084,19,08,60,304,19,10,56,101,,18,39,061,20*73

$GPGSV,3,2,12,16,38,177,23,11,21,266,,21,16,065,15,07,14,284,17*7F

$GPGSV,3,3,12,26,12,167,17,30,10,317,,01,10,246,,15,05,032,17*7A

$GPRMC,145141.000,A,4709.3575,N,00138.2739,W,0.59,233.33,180717,,,A*75

$GPVTG,233.33,T,,M,0.59,N,1.09,K,A*3B

$GPGGA,145142.000,4709.3574,N,00138.2739,W,1,07,0.98,56.0,M,48.7,M,,*4D

$GPGLL,4709.3574,N,00138.2739,W,145142.000,A,A*46

$GPGSA,A,3,26,07,18,21,27,08,16,,,,,,1.26,0.98,0.80*0D

$GPGSV,3,1,12,27,78,084,19,08,60,304,19,10,56,101,,18,39,061,20*73

$GPGSV,3,2,12,16,38,177,23,11,21,266,,21,16,065,16,07,14,283,17*7B

$GPGSV,3,3,12,26,12,167,17,30,10,317,,01,10,246,,15,05,032,16*7B

$GPRMC,145142.000,A,4709.3574,N,00138.2739,W,0.53,231.74,180717,,,A*7C

$GPVTG,231.74,T,,M,0.53,N,0.99,K,A*38

$GPGGA,145143.000,4709.3573,N,00138.2738,W,1,07,0.98,56.0,M,48.7,M,,*4A

$GPGLL,4709.3573,N,00138.2738,W,145143.000,A,A*41

$GPGSA,A,3,26,07,18,21,27,08,16,,,,,,1.26,0.98,0.80*0D

$GPGSV,3,1,12,27,78,084,19,08,61,304,19,10,56,101,,18,39,061,20*72

$GPGSV,3,2,12,16,38,177,23,11,21,266,,21,16,065,16,07,14,283,17*7B

$GPGSV,3,3,12,26,12,167,17,30,10,317,,01,10,246,,15,05,032,16*7B

$GPRMC,145143.000,A,4709.3573,N,00138.2738,W,0.48,235.83,180717,,,A*7D

$GPVTG,235.83,T,,M,0.48,N,0.89,K,A*3F

$GPGGA,145144.000,4709.3573,N,00138.2736,W,1,07,0.98,56.0,M,48.7,M,,*43

$GPGLL,4709.3573,N,00138.2736,W,145144.000,A,A*48

$GPGSA,A,3,26,07,18,21,27,08,16,,,,,,1.26,0.98,0.80*0D

$GPGSV,3,1,12,27,78,084,19,08,61,304,19,10,56,101,,18,39,061,20*72

$GPGSV,3,2,12,16,38,177,24,11,21,266,,21,16,065,16,07,14,283,17*7C

$GPGSV,3,3,12,26,12,167,17,30,10,317,,01,10,246,,15,05,032,16*7B

$GPRMC,145144.000,A,4709.3573,N,00138.2736,W,0.42,234.09,180717,,,A*7D

$GPVTG,234.09,T,,M,0.42,N,0.78,K,A*38

$GPGGA,145145.000,4709.3573,N,00138.2732,W,1,07,0.98,56.0,M,48.7,M,,*46

$GPGLL,4709.3573,N,00138.2732,W,145145.000,A,A*4D

$GPGSA,A,3,26,07,18,21,27,08,16,,,,,,1.26,0.98,0.80*0D

$GPGSV,3,1,12,27,78,084,20,08,61,304,19,10,56,100,,18,39,061,20*79

$GPGSV,3,2,12,16,38,177,24,11,21,266,,21,16,065,15,07,14,283,17*7F

$GPGSV,3,3,12,26,12,167,17,30,10,317,,01,10,246,,15,05,032,16*7B

$GPRMC,145145.000,A,4709.3573,N,00138.2732,W,0.30,232.41,180717,,,A*77

$GPVTG,232.41,T,,M,0.30,N,0.56,K,A*3B

$GPGGA,145146.000,4709.3573,N,00138.2733,W,1,08,0.96,56.0,M,48.7,M,,*45

$GPGLL,4709.3573,N,00138.2733,W,145146.000,A,A*4F

$GPGSA,A,3,26,10,07,18,21,27,08,16,,,,,1.24,0.96,0.78*07

$GPGSV,3,1,12,27,78,084,20,08,61,304,19,10,56,100,17,18,39,061,20*7F

$GPGSV,3,2,12,16,38,177,24,11,21,266,,21,16,065,16,07,14,283,17*7C

$GPGSV,3,3,12,26,12,167,17,30,10,317,,01,10,246,,15,05,032,16*7B

$GPRMC,145146.000,A,4709.3573,N,00138.2733,W,0.19,239.97,180717,,,A*7E

$GPVTG,239.97,T,,M,0.19,N,0.34,K,A*34

$GPGGA,145147.000,4709.3573,N,00138.2733,W,1,08,0.96,56.0,M,48.7,M,,*44

$GPGLL,4709.3573,N,00138.2733,W,145147.000,A,A*4E

$GPGSA,A,3,26,10,07,18,21,27,08,16,,,,,1.24,0.96,0.78*07

$GPGSV,3,1,12,27,78,084,19,08,61,304,19,10,56,100,17,18,39,061,21*74

$GPGSV,3,2,12,16,38,177,24,11,21,266,,21,16,065,16,07,14,283,17*7C

$GPGSV,3,3,12,26,12,167,17,30,10,317,,01,10,246,,15,05,032,16*7B

$GPRMC,145147.000,A,4709.3573,N,00138.2733,W,0.04,252.40,180717,,,A*74

$GPVTG,252.40,T,,M,0.04,N,0.08,K,A*30

$GPGGA,145148.000,4709.3573,N,00138.2733,W,1,08,0.96,56.0,M,48.7,M,,*4B

$GPGLL,4709.3573,N,00138.2733,W,145148.000,A,A*41

$GPGSA,A,3,26,10,07,18,21,27,08,16,,,,,1.24,0.96,0.78*07

$GPGSV,3,1,12,27,78,084,19,08,61,304,19,10,56,100,18,18,39,061,21*7B

$GPGSV,3,2,12,16,38,177,24,11,21,266,,21,16,065,15,07,14,283,17*7F

$GPGSV,3,3,12,26,12,167,17,30,10,317,,01,10,246,,15,05,032,16*7B

$GPRMC,145148.000,A,4709.3573,N,00138.2733,W,0.06,336.90,180717,,,A*77

$GPVTG,336.90,T,,M,0.06,N,0.11,K,A*34

$GPGGA,145149.000,4709.3573,N,00138.2733,W,1,08,0.96,56.0,M,48.7,M,,*4A

$GPGLL,4709.3573,N,00138.2733,W,145149.000,A,A*40

$GPGSA,A,3,26,10,07,18,21,27,08,16,,,,,1.24,0.96,0.78*07

$GPGSV,3,1,12,27,78,084,19,08,61,304,19,10,56,100,18,18,39,061,21*7B

$GPGSV,3,2,12,16,38,177,24,11,21,266,,21,16,065,15,07,14,283,17*7F

$GPGSV,3,3,12,26,12,167,17,30,10,317,,01,10,246,,15,05,032,17*7A

$GPRMC,145149.000,A,4709.3573,N,00138.2733,W,0.12,356.22,180717,,,A*7C

$GPVTG,356.22,T,,M,0.12,N,0.23,K,A*3F

$GPGGA,145150.000,4709.3573,N,00138.2733,W,1,08,0.97,56.0,M,48.7,M,,*43

$GPGLL,4709.3573,N,00138.2733,W,145150.000,A,A*48

$GPGSA,A,3,26,10,07,18,21,27,08,16,,,,,1.59,0.97,1.26*06

$GPGSV,3,1,12,27,78,084,19,08,61,304,19,10,56,100,18,18,39,061,21*7B

$GPGSV,3,2,12,16,38,177,24,11,21,266,,21,16,065,13,07,14,283,17*79

$GPGSV,3,3,12,26,12,167,17,30,10,317,,01,10,246,,15,05,031,17*79

$GPRMC,145150.000,A,4709.3573,N,00138.2733,W,0.20,12.43,180717,,,A*41

$GPVTG,12.43,T,,M,0.20,N,0.37,K,A*0F

$GPGGA,145151.000,4709.3574,N,00138.2733,W,1,08,0.97,56.0,M,48.7,M,,*45

$GPGLL,4709.3574,N,00138.2733,W,145151.000,A,A*4E

$GPGSA,A,3,26,10,07,18,21,27,08,16,,,,,1.59,0.97,1.26*06

$GPGSV,3,1,12,27,78,084,19,08,61,304,19,10,56,100,18,18,39,061,22*78

$GPGSV,3,2,12,16,38,177,24,11,21,266,,21,16,065,13,07,14,283,17*79

$GPGSV,3,3,12,26,12,167,17,30,10,317,,01,10,246,,15,05,031,17*79

$GPRMC,145151.000,A,4709.3574,N,00138.2733,W,0.18,20.04,180717,,,A*4E

$GPVTG,20.04,T,,M,0.18,N,0.33,K,A*02

$GPGGA,145152.000,4709.3574,N,00138.2733,W,1,08,0.96,56.0,M,48.7,M,,*47

$GPGLL,4709.3574,N,00138.2733,W,145152.000,A,A*4D

$GPGSA,A,3,26,10,07,18,21,27,08,16,,,,,1.24,0.96,0.78*07

$GPGSV,3,1,12,27,78,084,19,08,61,304,19,10,56,100,18,18,39,061,22*78

$GPGSV,3,2,12,16,38,177,24,11,21,266,,21,16,065,14,07,14,283,17*7E

$GPGSV,3,3,12,26,12,167,17,30,10,317,,01,10,246,,15,05,031,17*79

$GPRMC,145152.000,A,4709.3574,N,00138.2733,W,0.22,19.81,180717,,,A*43

$GPVTG,19.81,T,,M,0.22,N,0.40,K,A*08

$GPGGA,145153.000,4709.3575,N,00138.2733,W,1,08,0.96,56.0,M,48.7,M,,*47

$GPGLL,4709.3575,N,00138.2733,W,145153.000,A,A*4D

$GPGSA,A,3,26,10,07,18,21,27,08,16,,,,,1.24,0.96,0.78*07

$GPGSV,3,1,12,27,78,084,19,08,61,304,19,10,56,100,18,18,39,061,22*78

$GPGSV,3,2,12,16,38,177,24,11,21,266,,21,16,065,12,07,14,283,17*78

$GPGSV,3,3,12,26,12,167,17,30,10,317,,01,10,246,,15,05,031,17*79

$GPRMC,145153.000,A,4709.3575,N,00138.2733,W,0.24,27.30,180717,,,A*42

$GPVTG,27.30,T,,M,0.24,N,0.44,K,A*0D

$GPGGA,145154.000,4709.3575,N,00138.2732,W,1,08,0.96,56.0,M,48.7,M,,*41

$GPGLL,4709.3575,N,00138.2732,W,145154.000,A,A*4B

$GPGSA,A,3,26,10,07,18,21,27,08,16,,,,,1.24,0.96,0.78*07

$GPGSV,3,1,12,27,78,084,19,08,61,304,19,10,56,100,18,18,39,061,21*7B

$GPGSV,3,2,12,16,38,177,24,11,21,266,,21,16,065,14,07,14,283,17*7E

$GPGSV,3,3,12,26,12,167,17,30,10,317,,01,10,246,,15,05,031,17*79

$GPRMC,145154.000,A,4709.3575,N,00138.2732,W,0.21,42.62,180717,,,A*45

$GPVTG,42.62,T,,M,0.21,N,0.38,K,A*07

$GPGGA,145155.000,4709.3576,N,00138.2731,W,1,08,0.96,56.0,M,48.7,M,,*40

$GPGLL,4709.3576,N,00138.2731,W,145155.000,A,A*4A

$GPGSA,A,3,26,10,07,18,21,27,08,16,,,,,1.24,0.96,0.78*07

$GPGSV,3,1,12,27,78,084,19,08,61,304,20,10,56,100,18,18,39,061,21*71

$GPGSV,3,2,12,16,38,177,24,11,21,266,,21,16,065,14,07,14,283,13*7A

$GPGSV,3,3,12,26,12,167,17,30,10,317,,01,10,246,,15,05,031,17*79

$GPRMC,145155.000,A,4709.3576,N,00138.2731,W,0.17,60.99,180717,,,A*45

$GPVTG,60.99,T,,M,0.17,N,0.32,K,A*0C

$GPGGA,145156.000,4709.3576,N,00138.2731,W,1,08,0.96,56.0,M,48.7,M,,*43

$GPGLL,4709.3576,N,00138.2731,W,145156.000,A,A*49

$GPGSA,A,3,26,10,07,18,21,27,08,16,,,,,1.24,0.96,0.78*07

$GPGSV,3,1,12,27,78,084,19,08,61,304,20,10,56,100,18,18,39,061,21*71

$GPGSV,3,2,12,16,38,177,24,11,21,266,,21,16,065,16,07,14,283,15*7E

$GPGSV,3,3,12,26,12,167,17,30,10,317,,01,10,246,,15,05,031,18*76

$GPRMC,145156.000,A,4709.3576,N,00138.2731,W,0.21,36.74,180717,,,A*43

$GPVTG,36.74,T,,M,0.21,N,0.39,K,A*02

$GPGGA,145157.000,4709.3576,N,00138.2730,W,1,08,0.96,56.0,M,48.7,M,,*43

$GPGLL,4709.3576,N,00138.2730,W,145157.000,A,A*49

$GPGSA,A,3,26,10,07,18,21,27,08,16,,,,,1.24,0.96,0.78*07

$GPGSV,3,1,12,27,78,084,19,08,61,304,20,10,56,100,18,18,39,061,21*71

$GPGSV,3,2,12,16,38,177,24,11,21,266,,21,16,065,15,07,14,283,16*7E

$GPGSV,3,3,12,26,12,167,17,30,10,317,,01,10,246,,15,05,031,18*76

$GPRMC,145157.000,A,4709.3576,N,00138.2730,W,0.26,33.26,180717,,,A*46

$GPVTG,33.26,T,,M,0.26,N,0.48,K,A*01

$GPGGA,145158.000,4709.3577,N,00138.2730,W,1,08,0.96,56.0,M,48.7,M,,*4D

$GPGLL,4709.3577,N,00138.2730,W,145158.000,A,A*47

$GPGSA,A,3,26,10,07,18,21,27,08,16,,,,,1.24,0.96,0.78*07

$GPGSV,3,1,12,27,78,084,19,08,61,304,20,10,56,100,18,18,39,061,21*71

$GPGSV,3,2,12,16,38,177,24,11,21,266,,21,16,065,15,07,14,283,15*7D

$GPGSV,3,3,12,26,12,167,17,30,10,317,,01,10,246,,15,05,031,18*76

$GPRMC,145158.000,A,4709.3577,N,00138.2730,W,0.29,30.31,180717,,,A*42

$GPVTG,30.31,T,,M,0.29,N,0.54,K,A*06

$GPGGA,145159.000,4709.3578,N,00138.2729,W,1,08,0.96,56.0,M,48.7,M,,*4B

$GPGLL,4709.3578,N,00138.2729,W,145159.000,A,A*41

$GPGSA,A,3,26,10,07,18,21,27,08,16,,,,,1.24,0.96,0.78*07

$GPGSV,3,1,12,27,78,084,19,08,61,304,20,10,56,100,18,18,39,061,21*71

$GPGSV,3,2,12,16,38,177,24,11,21,266,,21,16,065,14,07,14,283,15*7C

$GPGSV,3,3,12,26,12,167,17,30,10,317,,01,10,246,,15,05,031,18*76

$GPRMC,145159.000,A,4709.3578,N,00138.2729,W,0.21,40.43,180717,,,A*4E

$GPVTG,40.43,T,,M,0.21,N,0.38,K,A*06

$GPGGA,145200.000,4709.3578,N,00138.2728,W,1,08,0.96,56.0,M,48.7,M,,*45

$GPGLL,4709.3578,N,00138.2728,W,145200.000,A,A*4F

$GPGSA,A,3,26,10,07,18,21,27,08,16,,,,,1.24,0.96,0.78*07

$GPGSV,3,1,12,27,78,084,19,08,61,304,20,10,56,100,18,18,39,061,21*71

$GPGSV,3,2,12,16,38,177,24,11,21,266,,21,16,065,14,07,14,283,15*7C

$GPGSV,3,3,12,26,12,167,17,30,10,317,,01,10,246,,15,05,031,18*76

$GPRMC,145200.000,A,4709.3578,N,00138.2728,W,0.16,63.62,180717,,,A*46

$GPVTG,63.62,T,,M,0.16,N,0.30,K,A*08

$GPGGA,145201.000,4709.3578,N,00138.2728,W,1,08,0.96,56.0,M,48.7,M,,*44

$GPGLL,4709.3578,N,00138.2728,W,145201.000,A,A*4E

$GPGSA,A,3,26,10,07,18,21,27,08,16,,,,,1.24,0.96,0.78*07

$GPGSV,3,1,12,27,78,084,20,08,61,304,20,10,56,100,18,18,39,061,21*7B

$GPGSV,3,2,12,16,38,177,24,11,21,266,,21,16,065,15,07,14,283,15*7D

$GPGSV,3,3,12,26,12,167,17,30,10,317,,01,10,246,,15,05,031,17*79

$GPRMC,145201.000,A,4709.3578,N,00138.2728,W,0.19,75.67,180717,,,A*4A

$GPVTG,75.67,T,,M,0.19,N,0.36,K,A*03

$GPGGA,145202.000,4709.3579,N,00138.2727,W,1,08,0.96,56.0,M,48.7,M,,*49

$GPGLL,4709.3579,N,00138.2727,W,145202.000,A,A*43

$GPGSA,A,3,26,10,07,18,21,27,08,16,,,,,1.24,0.96,0.78*07

$GPGSV,3,1,12,27,78,085,20,08,61,304,21,10,56,100,18,18,39,061,21*7B

$GPGSV,3,2,12,16,38,177,24,11,21,266,,21,16,065,14,07,14,283,15*7C

$GPGSV,3,3,12,26,12,167,17,30,10,317,,01,10,246,,15,05,031,17*79

$GPRMC,145202.000,A,4709.3579,N,00138.2727,W,0.17,76.71,180717,,,A*4D

$GPVTG,76.71,T,,M,0.17,N,0.31,K,A*0E

$GPGGA,145203.000,4709.3579,N,00138.2727,W,1,08,0.96,55.9,M,48.7,M,,*42

$GPGLL,4709.3579,N,00138.2727,W,145203.000,A,A*42

$GPGSA,A,3,26,10,07,18,21,27,08,16,,,,,1.24,0.96,0.78*07

$GPGSV,3,1,12,27,78,085,20,08,61,304,21,10,56,100,18,18,39,061,21*7B

$GPGSV,3,2,12,16,38,177,24,11,21,266,,21,16,065,14,07,14,283,13*7A

$GPGSV,3,3,12,26,12,167,17,30,10,317,,01,10,246,,15,05,031,17*79

$GPRMC,145203.000,A,4709.3579,N,00138.2727,W,0.07,68.35,180717,,,A*42

$GPVTG,68.35,T,,M,0.07,N,0.13,K,A*00

$GPGGA,145204.000,4709.3579,N,00138.2726,W,1,08,0.96,55.9,M,48.7,M,,*44

$GPGLL,4709.3579,N,00138.2726,W,145204.000,A,A*44

$GPGSA,A,3,26,10,07,18,21,27,08,16,,,,,1.24,0.96,0.78*07

$GPGSV,3,1,12,27,78,085,21,08,61,304,21,10,56,100,18,18,39,061,21*7A

$GPGSV,3,2,12,16,38,177,24,11,21,266,,21,16,065,16,07,14,283,13*78

$GPGSV,3,3,12,26,12,167,17,30,10,317,,01,10,246,,15,05,031,17*79

$GPRMC,145204.000,A,4709.3579,N,00138.2726,W,0.03,340.79,180717,,,A*71

$GPVTG,340.79,T,,M,0.03,N,0.06,K,A*31

$GPGGA,145205.000,4709.3579,N,00138.2727,W,1,08,0.96,55.9,M,48.7,M,,*44

$GPGLL,4709.3579,N,00138.2727,W,145205.000,A,A*44

$GPGSA,A,3,26,10,07,18,21,27,08,16,,,,,1.24,0.96,0.78*07

$GPGSV,3,1,12,27,78,085,21,08,61,304,21,10,56,100,18,18,39,061,22*79

$GPGSV,3,2,12,16,38,177,24,11,21,266,,21,16,065,15,07,14,283,16*7E

$GPGSV,3,3,12,26,12,167,17,30,10,317,,01,10,246,,15,05,031,17*79

$GPRMC,145205.000,A,4709.3579,N,00138.2727,W,0.10,291.45,180717,,,A*71

$GPVTG,291.45,T,,M,0.10,N,0.18,K,A*3E

$GPGGA,145206.000,4709.3579,N,00138.2727,W,1,08,0.96,55.9,M,48.7,M,,*47

$GPGLL,4709.3579,N,00138.2727,W,145206.000,A,A*47

$GPGSA,A,3,26,10,07,18,21,27,08,16,,,,,1.24,0.96,0.78*07

$GPGSV,3,1,12,27,78,085,21,08,61,304,21,10,56,100,19,18,39,061,23*79

$GPGSV,3,2,12,16,38,177,24,11,21,266,,21,16,065,17,07,14,283,16*7C

$GPGSV,3,3,12,26,12,167,17,30,10,317,,01,10,246,,15,05,031,17*79

$GPRMC,145206.000,A,4709.3579,N,00138.2727,W,0.17,290.91,180717,,,A*7D

$GPVTG,290.91,T,,M,0.17,N,0.31,K,A*3A

$GPGGA,145207.000,4709.3579,N,00138.2728,W,1,08,0.96,55.9,M,48.7,M,,*49

$GPGLL,4709.3579,N,00138.2728,W,145207.000,A,A*49

$GPGSA,A,3,26,10,07,18,21,27,08,16,,,,,1.24,0.96,0.78*07

$GPGSV,3,1,12,27,78,085,21,08,61,304,21,10,56,100,19,18,39,061,22*78

$GPGSV,3,2,12,16,38,177,24,11,21,266,,21,16,065,16,07,14,283,15*7E

$GPGSV,3,3,12,26,12,167,17,30,10,317,,01,10,246,,15,05,031,17*79

$GPRMC,145207.000,A,4709.3579,N,00138.2728,W,0.21,277.08,180717,,,A*7F

$GPVTG,277.08,T,,M,0.21,N,0.39,K,A*3E

$GPGGA,145208.000,4709.3579,N,00138.2729,W,1,08,0.96,55.9,M,48.7,M,,*47

$GPGLL,4709.3579,N,00138.2729,W,145208.000,A,A*47

$GPGSA,A,3,26,10,07,18,21,27,08,16,,,,,1.24,0.96,0.78*07

$GPGSV,3,1,12,27,78,085,21,08,61,304,21,10,56,100,19,18,39,061,22*78

$GPGSV,3,2,12,16,38,177,24,11,21,266,,21,16,065,14,07,14,283,15*7C

$GPGSV,3,3,12,26,12,167,17,30,10,317,,01,10,246,,15,05,031,17*79

$GPRMC,145208.000,A,4709.3579,N,00138.2729,W,0.21,268.36,180717,,,A*72

$GPVTG,268.36,T,,M,0.21,N,0.39,K,A*3D

$GPGGA,145209.000,4709.3579,N,00138.2730,W,1,08,0.96,55.9,M,48.7,M,,*4E

$GPGLL,4709.3579,N,00138.2730,W,145209.000,A,A*4E

$GPGSA,A,3,26,10,07,18,21,27,08,16,,,,,1.24,0.96,0.78*07

$GPGSV,3,1,12,27,78,085,22,08,61,304,21,10,56,100,19,18,39,061,23*7A

$GPGSV,3,2,12,16,38,177,24,11,21,266,,21,16,065,14,07,14,283,14*7D

$GPGSV,3,3,12,26,12,167,17,30,10,317,,01,10,246,,15,05,031,17*79

$GPRMC,145209.000,A,4709.3579,N,00138.2730,W,0.21,272.49,180717,,,A*78

$GPVTG,272.49,T,,M,0.21,N,0.38,K,A*3F

$GPGGA,145210.000,4709.3579,N,00138.2730,W,1,08,0.96,55.9,M,48.7,M,,*46

$GPGLL,4709.3579,N,00138.2730,W,145210.000,A,A*46

$GPGSA,A,3,26,10,07,18,21,27,08,16,,,,,1.24,0.96,0.78*07

$GPGSV,3,1,12,27,78,085,22,08,61,304,21,10,56,100,20,18,39,061,22*71

$GPGSV,3,2,12,16,38,177,24,11,21,266,,21,16,065,17,07,14,283,15*7F

$GPGSV,3,3,12,26,12,167,17,30,10,317,,01,10,246,,15,05,031,17*79

$GPRMC,145210.000,A,4709.3579,N,00138.2730,W,0.19,286.34,180717,,,A*7A

$GPVTG,286.34,T,,M,0.19,N,0.36,K,A*3B

$GPGGA,145211.000,4709.3579,N,00138.2731,W,1,08,0.96,55.9,M,48.7,M,,*46

$GPGLL,4709.3579,N,00138.2731,W,145211.000,A,A*46

$GPGSA,A,3,26,10,07,18,21,27,08,16,,,,,1.24,0.96,0.78*07

$GPGSV,3,1,12,27,78,085,22,08,61,304,21,10,56,100,20,18,39,061,22*71

$GPGSV,3,2,12,16,38,177,24,11,21,266,,21,16,065,15,07,14,283,14*7C

$GPGSV,3,3,12,26,12,167,17,30,10,317,,01,10,246,,15,05,031,17*79

$GPRMC,145211.000,A,4709.3579,N,00138.2731,W,0.20,293.72,180717,,,A*76

$GPVTG,293.72,T,,M,0.20,N,0.37,K,A*36

$GPGGA,145212.000,4709.3580,N,00138.2732,W,1,08,0.96,55.9,M,48.7,M,,*40

$GPGLL,4709.3580,N,00138.2732,W,145212.000,A,A*40

$GPGSA,A,3,26,10,07,18,21,27,08,16,,,,,1.24,0.96,0.78*07

$GPGSV,3,1,12,27,78,085,22,08,61,304,22,10,56,100,20,18,39,061,22*72

$GPGSV,3,2,12,16,38,177,24,11,21,266,,21,16,065,15,07,14,283,14*7C

$GPGSV,3,3,12,26,12,167,17,30,10,317,,01,10,246,,15,05,031,17*79

$GPRMC,145212.000,A,4709.3580,N,00138.2732,W,0.26,291.01,180717,,,A*70

$GPVTG,291.01,T,,M,0.26,N,0.48,K,A*3E

$GPGGA,145213.000,4709.3580,N,00138.2733,W,1,08,0.96,55.9,M,48.7,M,,*40

$GPGLL,4709.3580,N,00138.2733,W,145213.000,A,A*40

$GPGSA,A,3,26,10,07,18,21,27,08,16,,,,,1.24,0.96,0.78*07

$GPGSV,3,1,12,27,78,085,23,08,61,304,22,10,56,100,20,18,39,061,22*73

$GPGSV,3,2,12,16,38,177,24,11,21,266,,21,16,065,15,07,14,283,15*7D

$GPGSV,3,3,12,26,12,167,17,30,10,317,,01,10,246,,15,05,031,17*79

$GPRMC,145213.000,A,4709.3580,N,00138.2733,W,0.31,302.01,180717,,,A*7D

$GPVTG,302.01,T,,M,0.31,N,0.57,K,A*3D

$GPGGA,145214.000,4709.3580,N,00138.2734,W,1,08,0.96,55.9,M,48.7,M,,*40

$GPGLL,4709.3580,N,00138.2734,W,145214.000,A,A*40

$GPGSA,A,3,26,10,07,18,21,27,08,16,,,,,1.24,0.96,0.78*07

$GPGSV,3,1,12,27,78,085,23,08,61,304,22,10,56,100,20,18,39,061,22*73

$GPGSV,3,2,12,16,38,177,24,11,21,266,,21,16,065,16,07,14,283,13*78

$GPGSV,3,3,12,26,12,167,17,30,10,317,,01,10,246,,15,05,031,17*79

$GPRMC,145214.000,A,4709.3580,N,00138.2734,W,0.36,307.31,180717,,,A*7C

$GPVTG,307.31,T,,M,0.36,N,0.67,K,A*3F

$GPGGA,145215.000,4709.3581,N,00138.2736,W,1,08,0.96,55.9,M,48.7,M,,*42

$GPGLL,4709.3581,N,00138.2736,W,145215.000,A,A*42

$GPGSA,A,3,26,10,07,18,21,27,08,16,,,,,1.24,0.96,0.78*07

$GPGSV,3,1,12,27,78,085,23,08,61,304,22,10,56,100,21,18,39