A,4709.3542,N,00138.2555,W,0.15,38.87,180717,,,A*45

$GPVTG,38.87,T,,M,0.15,N,0.28,K,A*07

$GPGGA,145531.000,4709.3542,N,00138.2555,W,1,08,0.96,47.3,M,48.7,M,,*42

$GPGLL,4709.3542,N,00138.2555,W,145531.000,A,A*4B

$GPGSA,A,3,26,10,07,18,21,27,08,16,,,,,1.23,0.96,0.77*0F

$GPGSV,4,1,13,27,76,089,16,08,62,305,17,10,56,097,17,18,38,060,18*77

$GPGSV,4,2,13,16,36,177,21,11,23,267,14,21,14,066,15,07,13,282,16*72

$GPGSV,4,3,13,01,11,247,,26,10,167,16,30,10,315,,15,04,030,16*7F

$GPGSV,4,4,13,32,01,128,*40

$GPRMC,145531.000,A,4709.3542,N,00138.2555,W,0.21,21.93,180717,,,A*4E

$GPVTG,21.93,T,,M,0.21,N,0.38,K,A*0C

$GPGGA,145532.000,4709.3543,N,00138.2555,W,1,08,0.96,47.3,M,48.7,M,,*40

$GPGLL,4709.3543,N,00138.2555,W,145532.000,A,A*49

$GPGSA,A,3,26,10,07,18,21,27,08,16,,,,,1.23,0.96,0.77*0F

$GPGSV,4,1,13,27,76,090,15,08,62,305,17,10,56,097,17,18,38,060,18*7C

$GPGSV,4,2,13,16,36,177,21,11,23,267,14,21,14,066,15,07,13,282,16*72

$GPGSV,4,3,13,01,11,247,,26,10,167,16,30,10,315,,15,04,030,16*7F

$GPGSV,4,4,13,32,01,128,*40

$GPRMC,145532.000,A,4709.3543,N,00138.2555,W,0.29,355.67,180717,,,A*7F

$GPVTG,355.67,T,,M,0.29,N,0.53,K,A*32

$GPGGA,145533.000,4709.3543,N,00138.2555,W,1,08,0.97,47.3,M,48.7,M,,*40

$GPGLL,4709.3543,N,00138.2555,W,145533.000,A,A*48

$GPGSA,A,3,26,10,07,18,21,27,08,16,,,,,1.56,0.97,1.22*0D

$GPGSV,4,1,13,27,76,090,15,08,62,305,16,10,56,097,17,18,38,060,18*7D

$GPGSV,4,2,13,16,36,177,20,11,23,267,15,21,14,066,15,07,13,282,16*72

$GPGSV,4,3,13,01,11,247,,26,10,167,16,30,10,315,,15,04,030,16*7F

$GPGSV,4,4,13,32,01,128,*40

$GPRMC,145533.000,A,4709.3543,N,00138.2555,W,0.37,336.02,180717,,,A*77

$GPVTG,336.02,T,,M,0.37,N,0.69,K,A*32

$GPGGA,145534.000,4709.3544,N,00138.2556,W,1,08,0.96,47.3,M,48.7,M,,*42

$GPGLL,4709.3544,N,00138.2556,W,145534.000,A,A*4B

$GPGSA,A,3,26,10,07,18,21,27,08,16,,,,,1.23,0.96,0.77*0F

$GPGSV,4,1,13,27,76,090,14,08,62,305,16,10,56,097,18,18,38,060,18*73

$GPGSV,4,2,13,16,36,177,20,11,23,267,15,21,14,066,15,07,13,282,16*72

$GPGSV,4,3,13,01,11,247,,26,10,167,16,30,10,315,,15,04,030,15*7C

$GPGSV,4,4,13,32,01,128,*40

$GPRMC,145534.000,A,4709.3544,N,00138.2556,W,0.46,326.03,180717,,,A*72

$GPVTG,326.03,T,,M,0.46,N,0.84,K,A*37

$GPGGA,145535.000,4709.3546,N,00138.2557,W,1,08,0.96,47.3,M,48.7,M,,*40

$GPGLL,4709.3546,N,00138.2557,W,145535.000,A,A*49

$GPGSA,A,3,26,10,07,18,21,27,08,16,,,,,1.23,0.96,0.77*0F

$GPGSV,4,1,13,27,76,090,14,08,62,305,16,10,56,097,18,18,38,060,18*73

$GPGSV,4,2,13,16,36,177,20,11,23,267,15,21,14,066,15,07,13,282,16*72

$GPGSV,4,3,13,01,11,247,,26,10,167,16,30,10,315,,15,04,030,15*7C

$GPGSV,4,4,13,32,01,128,*40

$GPRMC,145535.000,A,4709.3546,N,00138.2557,W,0.51,325.60,180717,,,A*70

$GPVTG,325.60,T,,M,0.51,N,0.94,K,A*36

$GPGGA,145536.000,4709.3547,N,00138.2559,W,1,08,0.96,47.3,M,48.7,M,,*4C

$GPGLL,4709.3547,N,00138.2559,W,145536.000,A,A*45

$GPGSA,A,3,26,10,07,18,21,27,08,16,,,,,1.23,0.96,0.77*0F

$GPGSV,4,1,13,27,76,090,13,08,62,305,16,10,56,097,18,18,38,060,18*74

$GPGSV,4,2,13,16,36,177,20,11,23,267,15,21,14,066,15,07,13,282,15*71

$GPGSV,4,3,13,01,11,247,,26,10,167,16,30,10,315,,15,04,030,15*7C

$GPGSV,4,4,13,32,01,128,*40

$GPRMC,145536.000,A,4709.3547,N,00138.2559,W,0.55,319.01,180717,,,A*70

$GPVTG,319.01,T,,M,0.55,N,1.01,K,A*37

$GPGGA,145537.000,4709.3548,N,00138.2560,W,1,08,0.96,47.3,M,48.7,M,,*48

$GPGLL,4709.3548,N,00138.2560,W,145537.000,A,A*41

$GPGSA,A,3,26,10,07,18,21,27,08,16,,,,,1.23,0.96,0.77*0F

$GPGSV,4,1,13,27,76,090,14,08,62,305,16,10,56,097,18,18,38,060,18*73

$GPGSV,4,2,13,16,36,177,20,11,23,267,15,21,14,066,14,07,13,282,15*70

$GPGSV,4,3,13,01,11,247,,26,10,167,16,30,10,315,,15,04,030,15*7C

$GPGSV,4,4,13,32,01,128,*40

$GPRMC,145537.000,A,4709.3548,N,00138.2560,W,0.62,317.27,180717,,,A*7A

$GPVTG,317.27,T,,M,0.62,N,1.16,K,A*3F

$GPGGA,145538.000,4709.3555,N,00138.2570,W,1,08,0.96,47.1,M,48.7,M,,*48

$GPGLL,4709.3555,N,00138.2570,W,145538.000,A,A*43

$GPGSA,A,3,26,10,07,18,21,27,08,16,,,,,1.23,0.96,0.77*0F

$GPGSV,4,1,13,27,76,090,13,08,62,305,17,10,56,097,18,18,38,060,18*75

$GPGSV,4,2,13,16,36,177,20,11,23,267,15,21,14,066,13,07,13,282,16*74

$GPGSV,4,3,13,01,11,247,,26,10,167,16,30,10,315,,15,04,030,15*7C

$GPGSV,4,4,13,32,01,128,*40

$GPRMC,145538.000,A,4709.3555,N,00138.2570,W,0.74,320.81,180717,,,A*77

$GPVTG,320.81,T,,M,0.74,N,1.37,K,A*33

$GPGGA,145539.000,4709.3562,N,00138.2580,W,1,08,0.96,46.8,M,48.7,M,,*4A

$GPGLL,4709.3562,N,00138.2580,W,145539.000,A,A*49

$GPGSA,A,3,26,10,07,18,21,27,08,16,,,,,1.23,0.96,0.77*0F

$GPGSV,4,1,13,27,76,090,12,08,62,305,17,10,56,097,18,18,38,060,18*74

$GPGSV,4,2,13,16,36,177,20,11,23,267,15,21,14,066,14,07,13,282,16*73

$GPGSV,4,3,13,01,11,247,,26,10,167,16,30,10,315,,15,04,030,15*7C

$GPGSV,4,4,13,32,01,128,*40

$GPRMC,145539.000,A,4709.3562,N,00138.2580,W,0.80,321.53,180717,,,A*78

$GPVTG,321.53,T,,M,0.80,N,1.48,K,A*3E

$GPGGA,145540.000,4709.3567,N,00138.2589,W,1,08,0.96,46.6,M,48.7,M,,*46

$GPGLL,4709.3567,N,00138.2589,W,145540.000,A,A*4B

$GPGSA,A,3,26,10,07,18,21,27,08,16,,,,,1.23,0.96,0.77*0F

$GPGSV,4,1,13,27,76,090,12,08,62,305,18,10,56,097,18,18,38,060,18*7B

$GPGSV,4,2,13,16,36,177,20,11,23,267,15,21,14,066,12,07,13,282,16*75

$GPGSV,4,3,13,01,11,247,,26,10,167,16,30,10,315,,15,04,030,15*7C

$GPGSV,4,4,13,32,01,128,*40

$GPRMC,145540.000,A,4709.3567,N,00138.2589,W,0.84,321.18,180717,,,A*71

$GPVTG,321.18,T,,M,0.84,N,1.56,K,A*3A

$GPGGA,145541.000,4709.3572,N,00138.2595,W,1,08,0.96,46.4,M,48.7,M,,*4C

$GPGLL,4709.3572,N,00138.2595,W,145541.000,A,A*43

$GPGSA,A,3,26,10,07,18,21,27,08,16,,,,,1.23,0.96,0.77*0F

$GPGSV,4,1,13,27,76,090,11,08,62,305,18,10,56,097,18,18,38,060,18*78

$GPGSV,4,2,13,16,36,177,20,11,23,267,15,21,14,066,14,07,13,282,16*73

$GPGSV,4,3,13,01,11,247,,26,10,167,16,30,10,315,,15,04,030,15*7C

$GPGSV,4,4,13,32,01,128,*40

$GPRMC,145541.000,A,4709.3572,N,00138.2595,W,0.88,322.79,180717,,,A*71

$GPVTG,322.79,T,,M,0.88,N,1.63,K,A*34

$GPGGA,145542.000,4709.3580,N,00138.2603,W,1,08,0.96,46.2,M,48.7,M,,*48

$GPGLL,4709.3580,N,00138.2603,W,145542.000,A,A*41

$GPGSA,A,3,26,10,07,18,21,27,08,16,,,,,1.23,0.96,0.77*0F

$GPGSV,4,1,13,27,76,090,11,08,62,305,18,10,56,097,18,18,38,060,18*78

$GPGSV,4,2,13,16,36,177,20,11,23,267,15,21,14,066,13,07,13,282,16*74

$GPGSV,4,3,13,01,11,247,,26,10,167,16,30,10,315,,15,04,030,15*7C

$GPGSV,4,4,13,32,01,128,*40

$GPRMC,145542.000,A,4709.3580,N,00138.2603,W,0.95,325.13,180717,,,A*74

$GPVTG,325.13,T,,M,0.95,N,1.77,K,A*36

$GPGGA,145543.000,4709.3586,N,00138.2609,W,1,08,0.96,46.1,M,48.7,M,,*46

$GPGLL,4709.3586,N,00138.2609,W,145543.000,A,A*4C

$GPGSA,A,3,26,10,07,18,21,27,08,16,,,,,1.23,0.96,0.77*0F

$GPGSV,4,1,13,27,76,090,12,08,62,305,18,10,56,097,18,18,38,060,18*7B

$GPGSV,4,2,13,16,36,177,20,11,23,267,15,21,14,066,12,07,13,282,16*75

$GPGSV,4,3,13,01,11,247,,26,10,167,16,30,10,315,,15,04,030,14*7D

$GPGSV,4,4,13,32,01,128,*40

$GPRMC,145543.000,A,4709.3586,N,00138.2609,W,0.97,326.69,180717,,,A*75

$GPVTG,326.69,T,,M,0.97,N,1.80,K,A*32

$GPGGA,145544.000,4709.3590,N,00138.2615,W,1,08,0.96,45.6,M,48.7,M,,*4F

$GPGLL,4709.3590,N,00138.2615,W,145544.000,A,A*41

$GPGSA,A,3,26,10,07,18,21,27,08,16,,,,,1.23,0.96,0.77*0F

$GPGSV,4,1,13,27,76,090,13,08,62,305,18,10,56,097,18,18,38,060,18*7A

$GPGSV,4,2,13,16,36,177,20,11,23,267,15,21,14,066,13,07,13,282,16*74

$GPGSV,4,3,13,01,11,247,,26,10,167,16,30,10,315,,15,04,030,14*7D

$GPGSV,4,4,13,32,01,128,*40

$GPRMC,145544.000,A,4709.3590,N,00138.2615,W,0.96,327.88,180717,,,A*77

$GPVTG,327.88,T,,M,0.96,N,1.77,K,A*35

$GPGGA,145545.000,4709.3593,N,00138.2619,W,1,08,0.96,45.2,M,48.7,M,,*45

$GPGLL,4709.3593,N,00138.2619,W,145545.000,A,A*4F

$GPGSA,A,3,26,10,07,18,21,27,08,16,,,,,1.23,0.96,0.77*0F

$GPGSV,4,1,13,27,76,090,14,08,62,305,18,10,56,097,18,18,38,060,18*7D

$GPGSV,4,2,13,16,36,177,20,11,23,267,15,21,14,066,13,07,13,282,15*77

$GPGSV,4,3,13,01,11,247,,26,10,167,16,30,10,315,,15,04,030,14*7D

$GPGSV,4,4,13,32,01,128,*40

$GPRMC,145545.000,A,4709.3593,N,00138.2619,W,0.93,326.11,180717,,,A*7D

$GPVTG,326.11,T,,M,0.93,N,1.72,K,A*34

$GPGGA,145546.000,4709.3597,N,00138.2618,W,1,08,0.96,45.0,M,48.7,M,,*41

$GPGLL,4709.3597,N,00138.2618,W,145546.000,A,A*49

$GPGSA,A,3,26,10,07,18,21,27,08,16,,,,,1.23,0.96,0.77*0F

$GPGSV,4,1,13,27,76,090,14,08,62,305,18,10,56,097,18,18,38,060,18*7D

$GPGSV,4,2,13,16,36,177,20,11,23,267,15,21,14,066,15,07,13,282,16*72

$GPGSV,4,3,13,01,11,247,,26,10,167,16,30,10,315,,15,04,030,14*7D

$GPGSV,4,4,13,32,01,128,*40

$GPRMC,145546.000,A,4709.3597,N,00138.2618,W,0.91,332.13,180717,,,A*7E

$GPVTG,332.13,T,,M,0.91,N,1.69,K,A*3B

$GPGGA,145547.000,4709.3602,N,00138.2621,W,1,08,0.96,44.8,M,48.7,M,,*4C

$GPGLL,4709.3602,N,00138.2621,W,145547.000,A,A*4D

$GPGSA,A,3,26,10,07,18,21,27,08,16,,,,,1.23,0.96,0.77*0F

$GPGSV,4,1,13,27,76,090,15,08,62,305,18,10,56,097,18,18,38,060,18*7C

$GPGSV,4,2,13,16,36,177,20,11,23,267,15,21,14,066,15,07,13,282,16*72

$GPGSV,4,3,13,01,11,247,,26,10,167,16,30,10,315,,15,04,030,14*7D

$GPGSV,4,4,13,32,01,128,*40

$GPRMC,145547.000,A,4709.3602,N,00138.2621,W,0.95,332.98,180717,,,A*7D

$GPVTG,332.98,T,,M,0.95,N,1.76,K,A*32

$GPGGA,145548.000,4709.3607,N,00138.2625,W,1,08,0.96,44.5,M,48.7,M,,*4F

$GPGLL,4709.3607,N,00138.2625,W,145548.000,A,A*43

$GPGSA,A,3,26,10,07,18,21,27,08,16,,,,,1.23,0.96,0.77*0F

$GPGSV,4,1,13,27,76,090,15,08,62,305,18,10,56,097,18,18,38,060,18*7C

$GPGSV,4,2,13,16,36,177,20,11,23,267,15,21,14,066,15,07,13,282,15*71

$GPGSV,4,3,13,01,11,247,,26,10,167,16,30,10,315,,15,04,030,15*7C

$GPGSV,4,4,13,32,01,128,*40

$GPRMC,145548.000,A,4709.3607,N,00138.2625,W,0.97,333.36,180717,,,A*74

$GPVTG,333.36,T,,M,0.97,N,1.81,K,A*3D

$GPGGA,145549.000,4709.3612,N,00138.2626,W,1,08,0.96,44.3,M,48.7,M,,*4F

$GPGLL,4709.3612,N,00138.2626,W,145549.000,A,A*45

$GPGSA,A,3,26,10,07,18,21,27,08,16,,,,,1.23,0.96,0.77*0F

$GPGSV,4,1,13,27,76,090,15,08,62,305,18,10,56,097,18,18,38,060,18*7C

$GPGSV,4,2,13,16,36,177,20,11,23,267,15,21,14,066,15,07,13,282,15*71

$GPGSV,4,3,13,01,11,247,,26,10,167,16,30,10,315,,15,04,030,14*7D

$GPGSV,4,4,13,32,01,128,*40

$GPRMC,145549.000,A,4709.3612,N,00138.2626,W,0.94,338.36,180717,,,A*7A

$GPVTG,338.36,T,,M,0.94,N,1.74,K,A*3F

$GPGGA,145550.000,4709.3617,N,00138.2628,W,1,08,0.96,44.1,M,48.7,M,,*4E

$GPGLL,4709.3617,N,00138.2628,W,145550.000,A,A*46

$GPGSA,A,3,26,10,07,18,21,27,08,16,,,,,1.23,0.96,0.77*0F

$GPGSV,4,1,13,27,76,090,15,08,62,305,18,10,56,097,18,18,38,060,17*73

$GPGSV,4,2,13,16,36,177,20,11,23,267,15,21,14,066,15,07,13,282,14*70

$GPGSV,4,3,13,01,11,247,,26,10,167,16,30,10,315,,15,04,030,14*7D

$GPGSV,4,4,13,32,01,128,*40

$GPRMC,145550.000,A,4709.3617,N,00138.2628,W,1.00,340.06,180717,,,A*79

$GPVTG,340.06,T,,M,1.00,N,1.85,K,A*31

$GPGGA,145551.000,4709.3621,N,00138.2636,W,1,08,0.96,43.7,M,48.7,M,,*44

$GPGLL,4709.3621,N,00138.2636,W,145551.000,A,A*4D

$GPGSA,A,3,26,10,07,18,21,27,08,16,,,,,1.23,0.96,0.77*0F

$GPGSV,4,1,13,27,76,090,16,08,62,305,18,10,56,097,18,18,38,060,16*71

$GPGSV,4,2,13,16,36,177,20,11,23,267,14,21,14,066,15,07,13,282,14*71

$GPGSV,4,3,13,01,11,247,,26,10,167,16,30,10,315,,15,04,030,14*7D

$GPGSV,4,4,13,32,01,128,*40

$GPRMC,145551.000,A,4709.3621,N,00138.2636,W,1.04,337.78,180717,,,A*7F

$GPVTG,337.78,T,,M,1.04,N,1.92,K,A*3A

$GPGGA,145552.000,4709.3626,N,00138.2641,W,1,08,0.96,43.3,M,48.7,M,,*44

$GPGLL,4709.3626,N,00138.2641,W,145552.000,A,A*49

$GPGSA,A,3,26,10,07,18,21,27,08,16,,,,,1.23,0.96,0.77*0F

$GPGSV,4,1,13,27,76,090,16,08,62,305,18,10,56,097,18,18,38,060,16*71

$GPGSV,4,2,13,16,36,177,19,11,23,267,13,21,14,066,14,07,13,282,16*7F

$GPGSV,4,3,13,01,11,247,,26,10,167,16,30,10,315,,15,04,030,14*7D

$GPGSV,4,4,13,32,01,128,*40

$GPRMC,145552.000,A,4709.3626,N,00138.2641,W,1.05,338.53,180717,,,A*7C

$GPVTG,338.53,T,,M,1.05,N,1.94,K,A*3B

$GPGGA,145553.000,4709.3631,N,00138.2645,W,1,08,0.96,42.9,M,48.7,M,,*4C

$GPGLL,4709.3631,N,00138.2645,W,145553.000,A,A*4A

$GPGSA,A,3,26,10,07,18,21,27,08,16,,,,,1.23,0.96,0.77*0F

$GPGSV,4,1,13,27,76,090,16,08,62,305,18,10,56,097,18,18,38,060,16*71

$GPGSV,4,2,13,16,36,177,18,11,23,267,13,21,14,066,15,07,13,282,16*7F

$GPGSV,4,3,13,01,11,247,,26,10,167,16,30,10,315,,15,04,030,14*7D

$GPGSV,4,4,13,32,01,128,*40

$GPRMC,145553.000,A,4709.3631,N,00138.2645,W,1.07,340.61,180717,,,A*73

$GPVTG,340.61,T,,M,1.07,N,1.98,K,A*3B

$GPGGA,145554.000,4709.3635,N,00138.2646,W,1,08,0.96,42.6,M,48.7,M,,*43

$GPGLL,4709.3635,N,00138.2646,W,145554.000,A,A*4A

$GPGSA,A,3,26,10,07,18,21,27,08,16,,,,,1.23,0.96,0.77*0F

$GPGSV,4,1,13,27,76,090,16,08,62,305,19,10,56,097,18,18,38,060,16*70

$GPGSV,4,2,13,16,36,177,18,11,23,267,13,21,14,066,14,07,13,282,15*7D

$GPGSV,4,3,13,01,11,247,,26,10,167,16,30,10,315,,15,04,030,14*7D

$GPGSV,4,4,13,32,01,128,*40

$GPRMC,145554.000,A,4709.3635,N,00138.2646,W,1.07,343.71,180717,,,A*71

$GPVTG,343.71,T,,M,1.07,N,1.98,K,A*39

$GPGGA,145555.000,4709.3637,N,00138.2648,W,1,08,0.96,42.3,M,48.7,M,,*4B

$GPGLL,4709.3637,N,00138.2648,W,145555.000,A,A*47

$GPGSA,A,3,26,10,07,18,21,27,08,16,,,,,1.23,0.96,0.77*0F

$GPGSV,4,1,13,27,76,090,16,08,62,305,19,10,56,097,18,18,38,060,16*70

$GPGSV,4,2,13,16,36,177,18,11,23,267,14,21,14,066,14,07,13,282,15*7A

$GPGSV,4,3,13,01,11,247,,26,10,167,16,30,10,315,,15,04,030,13*7A

$GPGSV,4,4,13,32,01,128,*40

$GPRMC,145555.000,A,4709.3637,N,00138.2648,W,1.04,343.67,180717,,,A*78

$GPVTG,343.67,T,,M,1.04,N,1.93,K,A*36

$GPGGA,145556.000,4709.3640,N,00138.2656,W,1,08,0.96,41.9,M,48.7,M,,*4E

$GPGLL,4709.3640,N,00138.2656,W,145556.000,A,A*4B

$GPGSA,A,3,26,10,07,18,21,27,08,16,,,,,1.23,0.96,0.77*0F

$GPGSV,4,1,13,27,76,090,16,08,62,305,19,10,56,097,18,18,38,060,16*70

$GPGSV,4,2,13,16,36,177,18,11,23,267,14,21,14,066,14,07,13,282,16*79

$GPGSV,4,3,13,01,11,247,,26,10,167,16,30,10,315,,15,04,030,13*7A

$GPGSV,4,4,13,32,01,128,*40

$GPRMC,145556.000,A,4709.3640,N,00138.2656,W,1.02,339.56,180717,,,A*7D

$GPVTG,339.56,T,,M,1.02,N,1.89,K,A*34

$GPGGA,145557.000,4709.3643,N,00138.2662,W,1,08,0.96,41.5,M,48.7,M,,*47

$GPGLL,4709.3643,N,00138.2662,W,145557.000,A,A*4E

$GPGSA,A,3,26,10,07,18,21,27,08,16,,,,,1.23,0.96,0.77*0F

$GPGSV,4,1,13,27,76,090,16,08,62,305,19,10,56,097,18,18,38,060,16*70

$GPGSV,4,2,13,16,36,177,18,11,23,267,14,21,14,066,13,07,13,282,16*7E

$GPGSV,4,3,13,01,11,247,,26,10,167,16,30,10,315,,15,04,030,13*7A

$GPGSV,4,4,13,32,01,128,*40

$GPRMC,145557.000,A,4709.3643,N,00138.2662,W,1.03,337.30,180717,,,A*77

$GPVTG,337.30,T,,M,1.03,N,1.91,K,A*32

$GPGGA,145558.000,4709.3649,N,00138.2662,W,1,08,0.96,41.1,M,48.7,M,,*46

$GPGLL,4709.3649,N,00138.2662,W,145558.000,A,A*4B

$GPGSA,A,3,26,10,07,18,21,27,08,16,,,,,1.23,0.96,0.77*0F

$GPGSV,4,1,13,27,76,090,16,08,62,305,19,10,56,097,18,18,38,060,17*71

$GPGSV,4,2,13,16,36,177,18,11,23,267,14,21,14,066,15,07,13,282,16*78

$GPGSV,4,3,13,01,11,247,,26,10,167,16,30,10,315,,15,04,030,13*7A

$GPGSV,4,4,13,32,01,128,*40

$GPRMC,145558.000,A,4709.3649,N,00138.2662,W,1.05,340.61,180717,,,A*70

$GPVTG,340.61,T,,M,1.05,N,1.95,K,A*34

$GPGGA,145559.000,4709.3655,N,00138.2662,W,1,08,0.96,40.7,M,48.7,M,,*4D

$GPGLL,4709.3655,N,00138.2662,W,145559.000,A,A*47

$GPGSA,A,3,26,10,07,18,21,27,08,16,,,,,1.23,0.96,0.77*0F

$GPGSV,4,1,13,27,76,090,16,08,62,305,19,10,56,097,18,18,38,060,17*71

$GPGSV,4,2,13,16,36,177,18,11,23,267,14,21,14,066,13,07,13,282,16*7E

$GPGSV,4,3,13,01,11,247,,26,10,167,16,30,10,315,,15,04,030,13*7A

$GPGSV,4,4,13,32,01,128,*40

$GPRMC,145559.000,A,4709.3655,N,00138.2662,W,1.07,344.90,180717,,,A*74

$GPVTG,344.90,T,,M,1.07,N,1.99,K,A*30

$GPGGA,145600.000,4709.3660,N,00138.2661,W,1,08,0.96,40.4,M,48.7,M,,*44

$GPGLL,4709.3660,N,00138.2661,W,145600.000,A,A*4D

$GPGSA,A,3,26,10,07,18,21,27,08,16,,,,,1.23,0.96,0.77*0F

$GPGSV,4,1,13,27,76,090,16,08,62,305,19,10,56,097,18,18,38,060,17*71

$GPGSV,4,2,13,16,36,177,18,11,23,267,14,21,14,066,13,07,13,282,15*7D

$GPGSV,4,3,13,01,11,247,,26,10,167,16,30,10,315,,15,04,030,13*7A

$GPGSV,4,4,13,32,01,128,*40

$GPRMC,145600.000,A,4709.3660,N,00138.2661,W,1.09,348.60,180717,,,A*73

$GPVTG,348.60,T,,M,1.09,N,2.02,K,A*3C

$GPGGA,145601.000,4709.3667,N,00138.2660,W,1,08,0.97,40.0,M,48.7,M,,*46

$GPGLL,4709.3667,N,00138.2660,W,145601.000,A,A*4A

$GPGSA,A,3,26,10,07,18,21,27,08,16,,,,,1.55,0.97,1.22*0E

$GPGSV,4,1,13,27,76,090,15,08,62,305,19,10,56,097,18,18,38,060,17*72

$GPGSV,4,2,13,16,36,177,18,11,23,267,14,21,14,066,14,07,13,282,15*7A

$GPGSV,4,3,13,01,11,247,,26,10,167,16,30,10,315,,15,04,030,13*7A

$GPGSV,4,4,13,32,01,128,*40

$GPRMC,145601.000,A,4709.3667,N,00138.2660,W,1.13,353.04,180717,,,A*77

$GPVTG,353.04,T,,M,1.13,N,2.09,K,A*34

$GPGGA,145602.000,4709.3672,N,00138.2658,W,1,08,0.97,39.6,M,48.7,M,,*42

$GPGLL,4709.3672,N,00138.2658,W,145602.000,A,A*46

$GPGSA,A,3,26,10,07,18,21,27,08,16,,,,,1.55,0.97,1.22*0E

$GPGSV,4,1,13,27,76,090,15,08,62,305,19,10,56,097,18,18,38,060,17*72

$GPGSV,4,2,13,16,36,177,18,11,23,267,14,21,14,066,15,07,13,282,16*78

$GPGSV,4,3,13,01,11,247,,26,10,167,15,30,10,315,,15,04,030,13*79

$GPGSV,4,4,13,32,01,128,*40

$GPRMC,145602.000,A,4709.3672,N,00138.2658,W,1.13,357.49,180717,,,A*76

$GPVTG,357.49,T,,M,1.13,N,2.09,K,A*39

$GPGGA,145603.000,4709.3677,N,00138.2659,W,1,08,0.97,39.2,M,48.7,M,,*43

$GPGLL,4709.3677,N,00138.2659,W,145603.000,A,A*43

$GPGSA,A,3,26,10,07,18,21,27,08,16,,,,,1.55,0.97,1.22*0E

$GPGSV,4,1,13,27,76,090,15,08,62,305,19,10,56,097,18,18,38,060,16*73

$GPGSV,4,2,13,16,36,177,18,11,23,267,13,21,14,066,14,07,13,282,16*7E

$GPGSV,4,3,13,01,11,247,,26,10,167,15,30,10,315,,15,04,030,14*7E

$GPGSV,4,4,13,32,01,128,*40

$GPRMC,145603.000,A,4709.3677,N,00138.2659,W,1.14,357.71,180717,,,A*7F

$GPVTG,357.71,T,,M,1.14,N,2.10,K,A*3D

$GPGGA,145604.000,4709.3681,N,00138.2659,W,1,08,0.97,38.8,M,48.7,M,,*46

$GPGLL,4709.3681,N,00138.2659,W,145604.000,A,A*4D

$GPGSA,A,3,26,10,07,18,21,27,08,16,,,,,1.55,0.97,1.22*0E

$GPGSV,4,1,13,27,76,090,16,08,62,305,19,10,56,097,18,18,38,060,16*70

$GPGSV,4,2,13,16,36,177,18,11,23,267,13,21,14,066,13,07,13,282,15*7A

$GPGSV,4,3,13,01,11,247,,26,10,167,16,30,10,315,,15,04,030,14*7D

$GPGSV,4,4,13,32,01,128,*40

$GPRMC,145604.000,A,4709.3681,N,00138.2659,W,1.14,358.74,180717,,,A*7B

$GPVTG,358.74,T,,M,1.14,N,2.12,K,A*35

$GPGGA,145605.000,4709.3685,N,00138.2658,W,1,08,0.97,38.5,M,48.7,M,,*4F

$GPGLL,4709.3685,N,00138.2658,W,145605.000,A,A*49

$GPGSA,A,3,26,10,07,18,21,27,08,16,,,,,1.55,0.97,1.22*0E

$GPGSV,4,1,13,27,76,090,16,08,62,305,19,10,56,097,18,18,38,060,16*70

$GPGSV,4,2,13,16,36,177,18,11,23,267,14,21,14,066,12,07,13,282,14*7D

$GPGSV,4,3,13,01,11,247,,26,10,167,15,30,10,315,,15,04,030,14*7E

$GPGSV,4,4,13,32,01,128,*40

$GPRMC,145605.000,A,4709.3685,N,00138.2658,W,1.16,0.97,180717,,,A*7E

$GPVTG,0.97,T,,M,1.16,N,2.15,K,A*33

$GPGGA,145606.000,4709.3690,N,00138.2657,W,1,08,0.97,38.3,M,48.7,M,,*41

$GPGLL,4709.3690,N,00138.2657,W,145606.000,A,A*41

$GPGSA,A,3,26,10,07,18,21,27,08,16,,,,,1.55,0.97,1.22*0E

$GPGSV,4,1,13,27,76,090,16,08,62,305,19,10,56,097,18,18,38,060,16*70

$GPGSV,4,2,13,16,36,177,18,11,23,267,14,21,14,066,15,07,13,282,13*7D

$GPGSV,4,3,13,01,11,247,,26,10,167,16,30,10,315,,15,04,030,14*7D

$GPGSV,4,4,13,32,01,128,*40

$GPRMC,145606.000,A,4709.3690,N,00138.2657,W,1.18,2.75,180717,,,A*76

$GPVTG,2.75,T,,M,1.18,N,2.18,K,A*3E

$GPGGA,145607.000,4709.3695,N,00138.2653,W,1,08,0.97,38.0,M,48.7,M,,*42

$GPGLL,4709.3695,N,00138.2653,W,145607.000,A,A*41

$GPGSA,A,3,26,10,07,18,21,27,08,16,,,,,1.55,0.97,1.22*0E

$GPGSV,4,1,13,27,76,090,16,08,62,305,19,10,56,097,18,18,38,060,16*70

$GPGSV,4,2,13,16,36,177,18,11,23,267,13,21,14,066,15,07,13,282,14*7D

$GPGSV,4,3,13,01,11,247,,26,10,167,15,30,10,315,,15,04,030,14*7E

$GPGSV,4,4,13,32,01,128,*40

$GPRMC,145607.000,A,4709.3695,N,00138.2653,W,1.19,5.88,180717,,,A*72

$GPVTG,5.88,T,,M,1.19,N,2.21,K,A*30

$GPGGA,145608.000,4709.3699,N,00138.2651,W,1,08,0.97,37.7,M,48.7,M,,*4B

$GPGLL,4709.3699,N,00138.2651,W,145608.000,A,A*40

$GPGSA,A,3,26,10,07,18,21,27,08,16,,,,,1.55,0.97,1.21*0D

$GPGSV,4,1,13,27,76,090,16,08,62,305,19,10,56,097,18,18,38,060,16*70

$GPGSV,4,2,13,16,36,177,18,11,23,267,13,21,14,066,16,07,13,282,15*7F

$GPGSV,4,3,13,01,11,247,,26,10,167,15,30,10,315,,15,04,030,14*7E

$GPGSV,4,4,13,32,01,128,*40

$GPRMC,145608.000,A,4709.3699,N,00138.2651,W,1.17,7.89,180717,,,A*7E

$GPVTG,7.89,T,,M,1.17,N,2.17,K,A*38

$GPGGA,145609.000,4709.3703,N,00138.2649,W,1,08,0.97,37.3,M,48.7,M,,*45

$GPGLL,4709.3703,N,00138.2649,W,145609.000,A,A*4A

$GPGSA,A,3,26,10,07,18,21,27,08,16,,,,,1.55,0.97,1.21*0D

$GPGSV,4,1,13,27,76,090,16,08,62,305,19,10,56,097,18,18,38,060,16*70

$GPGSV,4,2,13,16,36,177,18,11,23,267,12,21,14,066,16,07,13,282,15*7E

$GPGSV,4,3,13,01,11,247,,26,10,167,14,30,10,315,,15,04,030,14*7F

$GPGSV,4,4,13,32,01,128,*40

$GPRMC,145609.000,A,4709.3703,N,00138.2649,W,1.15,7.82,180717,,,A*7D

$GPVTG,7.82,T,,M,1.15,N,2.12,K,A*34

$GPGGA,145610.000,4709.3706,N,00138.2650,W,1,08,0.97,37.0,M,48.7,M,,*43

$GPGLL,4709.3706,N,00138.2650,W,145610.000,A,A*4F

$GPGSA,A,3,26,10,07,18,21,27,08,16,,,,,1.55,0.97,1.21*0D

$GPGSV,4,1,13,27,76,090,16,08,62,305,19,10,56,097,17,18,38,060,15*7C

$GPGSV,4,2,13,16,36,177,18,11,23,267,13,21,14,066,14,07,13,282,14*7C

$GPGSV,4,3,13,01,11,247,,26,10,167,14,30,10,315,,15,04,030,14*7F

$GPGSV,4,4,13,32,01,128,*40

$GPRMC,145610.000,A,4709.3706,N,00138.2650,W,1.11,6.26,180717,,,A*73

$GPVTG,6.26,T,,M,1.11,N,2.05,K,A*39

$GPGGA,145611.000,4709.3708,N,00138.2655,W,1,08,0.97,36.7,M,48.7,M,,*4F

$GPGLL,4709.3708,N,00138.2655,W,145611.000,A,A*45

$GPGSA,A,3,26,10,07,18,21,27,08,16,,,,,1.55,0.97,1.21*0D

$GPGSV,4,1,13,27,76,090,16,08,62,305,19,10,56,097,17,18,38,060,15*7C

$GPGSV,4,2,13,16,36,177,18,11,23,267,13,21,14,066,15,07,13,282,13*7A

$GPGSV,4,3,13,01,11,247,,26,10,167,14,30,10,315,,15,04,030,14*7F

$GPGSV,4,4,13,32,01,128,*40

$GPRMC,145611.000,A,4709.3708,N,00138.2655,W,1.04,1.99,180717,,,A*7E

$GPVTG,1.99,T,,M,1.04,N,1.93,K,A*32

$GPGGA,145612.000,4709.3706,N,00138.2667,W,1,08,0.97,36.5,M,48.7,M,,*41

$GPGLL,4709.3706,N,00138.2667,W,145612.000,A,A*49

$GPGSA,A,3,26,10,07,18,21,27,08,16,,,,,1.55,0.97,1.21*0D

$GPGSV,4,1,13,27,76,090,16,08,62,305,19,10,56,097,17,18,38,060,11*78

$GPGSV,4,2,13,16,36,177,18,11,23,267,14,21,14,066,15,07,13,282,16*78

$GPGSV,4,3,13,01,11,247,,26,10,167,14,30,10,315,,15,04,030,14*7F

$GPGSV,4,4,13,32,02,127,*4C

$GPRMC,145612.000,A,4709.3706,N,00138.2667,W,0.94,352.39,180717,,,A*75

$GPVTG,352.39,T,,M,0.94,N,1.74,K,A*3C

$GPGGA,145613.000,4709.3703,N,00138.2680,W,1,08,0.97,36.2,M,48.7,M,,*4B

$GPGLL,4709.3703,N,00138.2680,W,145613.000,A,A*44

$GPGSA,A,3,26,10,07,18,21,27,08,16,,,,,1.55,0.97,1.21*0D

$GPGSV,4,1,13,27,76,090,16,08,62,305,19,10,56,097,17,18,38,060,11*78

$GPGSV,4,2,13,16,36,177,18,11,23,267,13,21,14,066,15,07,13,282,14*7D

$GPGSV,4,3,13,01,11,247,,26,10,167,14,30,10,315,,15,04,030,14*7F

$GPGSV,4,4,13,32,02,127,*4C

$GPRMC,145613.000,A,4709.3703,N,00138.2680,W,0.84,340.62,180717,,,A*74

$GPVTG,340.62,T,,M,0.84,N,1.56,K,A*30

$GPGGA,145614.000,4709.3698,N,00138.2693,W,1,08,0.96,36.0,M,48.7,M,,*4E

$GPGLL,4709.3698,N,00138.2693,W,145614.000,A,A*42

$GPGSA,A,3,26,10,07,18,21,27,08,16,,,,,1.23,0.96,0.77*0F

$GPGSV,4,1,13,27,76,090,16,08,62,305,19,10,56,097,17,18,38,060,13*7A

$GPGSV,4,2,13,16,36,177,18,11,23,267,13,21,14,066,15,07,13,282,13*7A

$GPGSV,4,3,13,01,11,247,,26,10,167,15,30,10,315,,15,04,030,14*7E

$GPGSV,4,4,13,32,02,127,*4C

$GPRMC,145614.000,A,4709.3698,N,00138.2693,W,0.78,325.05,180717,,,A*73

$GPVTG,325.05,T,,M,0.78,N,1.45,K,A*33

$GPGGA,145615.000,4709.3694,N,00138.2705,W,1,08,0.96,35.8,M,48.7,M,,*46

$GPGLL,4709.3694,N,00138.2705,W,145615.000,A,A*41

$GPGSA,A,3,26,10,07,18,21,27,08,16,,,,,1.23,0.96,0.77*0F

$GPGSV,4,1,13,27,76,090,16,08,62,305,19,10,56,097,16,18,38,060,14*7C

$GPGSV,4,2,13,16,36,177,18,11,23,267,12,21,14,066,15,07,13,282,13*7B

$GPGSV,4,3,13,01,11,247,,26,10,167,16,30,10,315,,15,04,030,14*7D

$GPGSV,4,4,13,32,02,127,*4C

$GPRMC,145615.000,A,4709.3694,N,00138.2705,W,0.76,311.17,180717,,,A*7A

$GPVTG,311.17,T,,M,0.76,N,1.40,K,A*3C

$GPGGA,145616.000,4709.3695,N,00138.2712,W,1,08,0.96,35.6,M,48.7,M,,*4C

$GPGLL,4709.3695,N,00138.2712,W,145616.000,A,A*45

$GPGSA,A,3,26,10,07,18,21,27,08,16,,,,,1.23,0.96,0.77*0F

$GPGSV,4,1,13,27,76,090,16,08,62,305,20,10,56,097,16,18,38,060,13*71

$GPGSV,4,2,13,16,36,177,18,11,23,267,13,21,14,066,14,07,13,282,15*7D

$GPGSV,4,3,13,01,12,247,,26,10,167,15,30,10,315,,15,04,030,14*7D

$GPGSV,4,4,13,32,02,127,*4C

$GPRMC,145616.000,A,4709.3695,N,00138.2712,W,0.74,309.34,180717,,,A*74

$GPVTG,309.34,T,,M,0.74,N,1.37,K,A*36

$GPGGA,145617.000,4709.3701,N,00138.2710,W,1,08,0.96,35.2,M,48.7,M,,*47

$GPGLL,4709.3701,N,00138.2710,W,145617.000,A,A*4A

$GPGSA,A,3,26,10,07,18,21,27,08,16,,,,,1.23,0.96,0.77*0F

$GPGSV,4,1,13,27,76,090,16,08,62,305,20,10,56,097,16,18,38,060,13*71

$GPGSV,4,2,13,16,36,177,18,11,23,267,12,21,14,066,13,07,13,282,14*7A

$GPGSV,4,3,13,01,12,247,,26,10,167,15,30,10,315,,15,04,030,14*7D

$GPGSV,4,4,13,32,02,127,*4C

$GPRMC,145617.000,A,4709.3701,N,00138.2710,W,0.72,321.59,180717,,,A*7C

$GPVTG,321.59,T,,M,0.72,N,1.34,K,A*32

$GPGGA,145618.000,4709.3707,N,00138.2709,W,1,08,0.96,34.9,M,48.7,M,,*4C

$GPGLL,4709.3707,N,00138.2709,W,145618.000,A,A*4B

$GPGSA,A,3,26,10,07,18,21,27,08,16,,,,,1.23,0.96,0.77*0F

$GPGSV,4,1,13,27,76,090,16,08,62,305,21,10,56,097,16,18,38,060,13*70

$GPGSV,4,2,13,16,36,177,18,11,23,267,13,21,14,066,14,07,13,282,12*7A

$GPGSV,4,3,13,01,12,247,,26,10,167,16,30,10,315,,15,04,030,14*7E

$GPGSV,4,4,13,32,02,127,*4C

$GPRMC,145618.000,A,4709.3707,N,00138.2709,W,0.70,330.10,180717,,,A*72

$GPVTG,330.10,T,,M,0.70,N,1.30,K,A*39

$GPGGA,145619.000,4709.3711,N,00138.2702,W,1,08,0.96,34.7,M,48.7,M,,*4F

$GPGLL,4709.3711,N,00138.2702,W,145619.000,A,A*46

$GPGSA,A,3,26,10,07,18,21,27,08,16,,,,,1.23,0.96,0.77*0F

$GPGSV,4,1,13,27,76,090,16,08,62,305,21,10,56,097,16,18,38,060,13*70

$GPGSV,4,2,13,16,36,177,18,11,23,267,14,21,14,066,14,07,13,282,14*7B

$GPGSV,4,3,13,01,12,247,,26,10,167,16,30,10,315,,15,04,030,14*7E

$GPGSV,4,4,13,32,02,127,*4C

$GPRMC,145619.000,A,4709.3711,N,00138.2702,W,0.66,342.01,180717,,,A*7D

$GPVTG,342.01,T,,M,0.66,N,1.22,K,A*38

$GPGGA,145620.000,4709.3713,N,00138.2697,W,1,08,0.96,34.4,M,48.7,M,,*49

$GPGLL,4709.3713,N,00138.2697,W,145620.000,A,A*43

$GPGSA,A,3,26,10,07,18,21,27,08,16,,,,,1.23,0.96,0.77*0F

$GPGSV,4,1,13,27,76,090,16,08,62,305,21,10,56,097,16,18,38,060,13*70

$GPGSV,4,2,13,16,36,177,18,11,23,267,14,21,14,066,14,07,13,282,13*7C

$GPGSV,4,3,13,01,12,247,,26,10,167,16,30,10,315,,15,04,030,14*7E

$GPGSV,4,4,13,32,02,127,*4C

$GPRMC,145620.000,A,4709.3713,N,00138.2697,W,0.61,349.72,180717,,,A*70

$GPVTG,349.72,T,,M,0.61,N,1.14,K,A*35

$GPGGA,145621.000,4709.3717,N,00138.2688,W,1,08,0.97,34.1,M,48.7,M,,*46

$GPGLL,4709.3717,N,00138.2688,W,145621.000,A,A*48

$GPGSA,A,3,26,10,07,18,21,27,08,16,,,,,1.55,0.97,1.21*0D

$GPGSV,4,1,13,27,76,090,16,08,62,305,21,10,56,097,16,18,38,060,14*77

$GPGSV,4,2,13,16,36,177,18,11,23,267,14,21,14,066,15,07,13,282,16*78

$GPGSV,4,3,13,01,12,247,,26,10,167,16,30,10,315,,15,04,030,14*7E

$GPGSV,4,4,13,32,02,127,*4C

$GPRMC,145621.000,A,4709.3717,N,00138.2688,W,0.59,1.50,180717,,,A*7F

$GPVTG,1.50,T,,M,0.59,N,1.10,K,A*35

$GPGGA,145622.000,4709.3721,N,00138.2684,W,1,08,0.97,33.9,M,48.7,M,,*43

$GPGLL,4709.3721,N,00138.2684,W,145622.000,A,A*42

$GPGSA,A,3,26,10,07,18,21,27,08,16,,,,,1.55,0.97,1.21*0D

$GPGSV,4,1,13,27,76,090,16,08,62,305,22,10,56,097,16,18,38,060,15*75

$GPGSV,4,2,13,16,36,177,18,11,23,267,14,21,14,066,16,07,13,282,16*7B

$GPGSV,4,3,13,01,12,247,,26,10,167,15,30,10,315,,15,04,030,13*7A

$GPGSV,4,4,13,32,02,127,*4C

$GPRMC,145622.000,A,4709.3721,N,00138.2684,W,0.60,3.18,180717,,,A*71

$GPVTG,3.18,T,,M,0.60,N,1.12,K,A*33

$GPGGA,145623.000,4709.3722,N,00138.2685,W,1,08,0.97,33.7,M,48.7,M,,*4E

$GPGLL,4709.3722,N,00138.2685,W,145623.000,A,A*41

$GPGSA,A,3,26,10,07,18,21,27,08,16,,,,,1.55,0.97,1.21*0D

$GPGSV,4,1,13,27,76,090,16,08,63,305,22,10,56,097,16,18,38,060,15*74

$GPGSV,4,2,13,16,36,177,18,11,23,267,14,21,14,066,16,07,13,282,12*7F

$GPGSV,4,3,13,01,12,247,,26,10,167,14,30,10,315,,15,04,030,13*7B

$GPGSV,4,4,13,32,02,127,*4C

$GPRMC,145623.000,A,4709.3722,N,00138.2685,W,0.55,357.77,180717,,,A*7F

$GPVTG,357.77,T,,M,0.55,N,1.03,K,A*3E

$GPGGA,145624.000,4709.3725,N,00138.2693,W,1,08,0.97,33.4,M,48.7,M,,*4A

$GPGLL,4709.3725,N,00138.2693,W,145624.000,A,A*46

$GPGSA,A,3,26,10,07,18,21,27,08,16,,,,,1.55,0.97,1.21*0D

$GPGSV,4,1,13,27,76,090,16,08,63,305,22,10,56,097,16,18,38,060,15*74

$GPGSV,4,2,13,16,36,177,18,11,23,267,13,21,14,066,15,07,13,282,12*7B

$GPGSV,4,3,13,01,12,247,,26,10,167,16,30,10,315,,15,04,030,13*79

$GPGSV,4,4,13,32,02,127,*4C

$GPRMC,145624.000,A,4709.3725,N,00138.2693,W,0.58,341.29,180717,,,A*79

$GPVTG,341.29,T,,M,0.58,N,1.07,K,A*3B

$GPGGA,145625.000,4709.3727,N,00138.2702,W,1,08,0.96,33.2,M,48.7,M,,*47

$GPGLL,4709.3727,N,00138.2702,W,145625.000,A,A*4C

$GPGSA,A,3,26,10,07,18,21,27,08,16,,,,,1.23,0.96,0.77*0F

$GPGSV,4,1,13,27,76,090,16,08,63,305,21,10,56,096,16,18,38,060,15*76

$GPGSV,4,2,13,16,36,177,18,11,23,267,13,21,14,066,14,07,13,282,14*7C

$GPGSV,4,3,13,01,12,247,,26,10,167,15,30,10,315,,15,04,030,13*7A

$GPGSV,4,4,13,32,02,127,*4C

$GPRMC,145625.000,A,4709.3727,N,00138.2702,W,0.67,323.17,180717,,,A*76

$GPVTG,323.17,T,,M,0.67,N,1.25,K,A*3E

$GPGGA,145626.000,4709.3728,N,00138.2719,W,1,08,0.96,32.9,M,48.7,M,,*4B

$GPGLL,4709.3728,N,00138.2719,W,145626.000,A,A*4A

$GPGSA,A,3,26,10,07,18,21,27,08,16,,,,,1.23,0.96,0.77*0F

$GPGSV,4,1,13,27,76,090,16,08,63,305,21,10,56,096,16,18,38,060,15*76

$GPGSV,4,2,13,16,36,177,18,11,23,267,13,21,14,066,15,07,13,282,15*7C

$GPGSV,4,3,13,01,12,247,,26,10,167,14,30,10,315,,15,04,030,14*7C

$GPGSV,4,4,13,32,02,127,*4C

$GPRMC,145626.000,A,4709.3728,N,00138.2719,W,0.81,307.97,180717,,,A*76

$GPVTG,307.97,T,,M,0.81,N,1.50,K,A*3A

$GPGGA,145627.000,4709.3725,N,00138.2749,W,1,08,0.96,32.9,M,48.7,M,,*42

$GPGLL,4709.3725,N,00138.2749,W,145627.000,A,A*43

$GPGSA,A,3,26,10,07,18,21,27,08,16,,,,,1.23,0.96,0.77*0F

$GPGSV,4,1,13,27,76,090,16,08,63,305,21,10,56,096,16,18,38,060,15*76

$GPGSV,4,2,13,16,36,177,18,11,23,267,13,21,14,066,15,07,13,282,13*7A

$GPGSV,4,3,13,01,12,247,,26,10,167,15,30,10,315,,15,04,030,14*7D

$GPGSV,4,4,13,32,02,127,*4C

$GPRMC,145627.000,A,4709.3725,N,00138.2749,W,1.07,290.55,180717,,,A*71

$GPVTG,290.55,T,,M,1.07,N,1.98,K,A*30

$GPGGA,145628.000,4709.3724,N,00138.2777,W,1,08,0.96,32.8,M,48.7,M,,*40

$GPGLL,4709.3724,N,00138.2777,W,145628.000,A,A*40

$GPGSA,A,3,26,10,07,18,21,27,08,16,,,,,1.23,0.96,0.77*0F

$GPGSV,4,1,13,27,76,090,16,08,63,305,22,10,56,096,16,18,38,060,15*75

$GPGSV,4,2,13,16,36,177,18,11,23,267,13,21,14,066,15,07,13,282,15*7C

$GPGSV,4,3,13,01,12,247,,26,10,167,16,30,10,315,,15,04,030,13*79

$GPGSV,4,4,13,32,02,127,*4C

$GPRMC,145628.000,A,4709.3724,N,00138.2777,W,1.33,282.77,180717,,,A*76

$GPVTG,282.77,T,,M,1.33,N,2.46,K,A*34

$GPGGA,145629.000,4709.3726,N,00138.2795,W,1,08,0.96,32.6,M,48.7,M,,*41

$GPGLL,4709.3726,N,00138.2795,W,145629.000,A,A*4F

$GPGSA,A,3,26,10,07,18,21,27,08,16,,,,,1.23,0.96,0.77*0F

$GPGSV,4,1,13,27,76,090,16,08,63,305,22,10,56,096,16,18,38,060,15*75

$GPGSV,4,2,13,16,36,177,18,11,23,267,13,21,14,066,15,07,13,282,13*7A

$GPGSV,4,3,13,01,12,247,,26,10,167,16,30,10,315,,15,04,030,13*79

$GPGSV,4,4,13,32,02,127,*4C

$GPRMC,145629.000,A,4709.3726,N,00138.2795,W,1.47,281.76,180717,,,A*78

$GPVTG,281.76,T,,M,1.47,N,2.72,K,A*32

$GPGGA,145630.000,4709.3727,N,00138.2807,W,1,08,0.96,32.5,M,48.7,M,,*4F

$GPGLL,4709.3727,N,00138.2807,W,145630.000,A,A*42

$GPGSA,A,3,26,10,07,18,21,27,08,16,,,,,1.23,0.96,0.77*0F

$GPGSV,4,1,13,27,76,090,16,08,63,305,22,10,56,096,16,18,38,060,15*75

$GPGSV,4,2,13,16,36,177,18,11,23,267,14,21,14,066,15,07,13,282,15*7B

$GPGSV,4,3,13,01,12,247,,26,10,167,16,30,10,315,,15,04,030,14*7E

$GPGSV,4,4,13,32,02,127,*4C

$GPRMC,145630.000,A,4709.3727,N,00138.2807,W,1.50,280.43,180717,,,A*74

$GPVTG,280.43,T,,M,1.50,N,2.78,K,A*39

$GPGGA,145631.000,4709.3726,N,00138.2828,W,1,08,0.96,32.4,M,48.7,M,,*43

$GPGLL,4709.3726,N,00138.2828,W,145631.000,A,A*4F

$GPGSA,A,3,26,10,07,18,21,27,08,16,,,,,1.23,0.96,0.77*0F

$GPGSV,4,1,13,27,76,090,16,08,63,305,22,10,56,096,16,18,38,060,15*75

$GPGSV,4,2,13,16,36,177,18,11,23,267,14,21,14,066,16,07,13,282,13*7E

$GPGSV,4,3,13,01,12,247,,26,10,167,13,30,10,315,,15,04,030,14*7B

$GPGSV,4,4,13,32,02,127,*4C

$GPRMC,145631.000,A,4709.3726,N,00138.2828,W,1.61,277.94,180717,,,A*79

$GPVTG,277.94,T,,M,1.61,N,2.98,K,A*37

$GPGGA,145632.000,4709.3724,N,00138.2852,W,1,08,0.96,32.3,M,48.7,M,,*48

$GPGLL,4709.3724,N,00138.2852,W,145632.000,A,A*43

$GPGSA,A,3,26,10,07,18,21,27,08,16,,,,,1.23,0.96,0.77*0F

$GPGSV,4,1,13,27,76,090,16,08,63,305,22,10,56,096,16,18,38,060,15*75

$GPGSV,4,2,13,16,36,177,18,11,23,267,14,21,14,066,16,07,13,282,13*7E

$GPGSV,4,3,13,01,12,247,,26,10,167,13,30,10,315,,15,04,030,14*7B

$GPGSV,4,4,13,32,02,127,*4C

$GPRMC,145632.000,A,4709.3724,N,00138.2852,W,1.73,276.21,180717,,,A*79

$GPVTG,276.21,T,,M,1.73,N,3.21,K,A*38

$GPGGA,145633.000,4709.3722,N,00138.2869,W,1,08,0.96,32.1,M,48.7,M,,*45

$GPGLL,4709.3722,N,00138.2869,W,145633.000,A,A*4C

$GPGSA,A,3,26,10,07,18,21,27,08,16,,,,,1.23,0.96,0.77*0F

$GPGSV,4,1,13,27,76,090,16,08,63,305,22,10,56,096,16,18,37,059,15*70

$GPGSV,4,2,13,16,36,177,18,11,23,267,14,21,14,066,15,07,13,282,13*7D

$GPGSV,4,3,13,01,12,247,,26,10,167,15,30,10,315,,15,04,030,15*7C

$GPGSV,4,4,13,32,02,127,*4C

$GPRMC,145633.000,A,4709.3722,N,00138.2869,W,1.77,274.82,180717,,,A*79

$GPVTG,274.82,T,,M,1.77,N,3.28,K,A*3E

$GPGGA,145634.000,4709.3720,N,00138.2879,W,1,08,0.96,32.0,M,48.7,M,,*40

$GPGLL,4709.3720,N,00138.2879,W,145634.000,A,A*48

$GPGSA,A,3,26,10,07,18,21,27,08,16,,,,,1.23,0.96,0.77*0F

$GPGSV,4,1,13,27,76,090,16,08,63,305,22,10,56,096,16,18,37,059,14*71

$GPGSV,4,2,13,16,36,177,17,11,23,267,14,21,14,066,13,07,13,282,15*72

$GPGSV,4,3,13,01,12,247,,26,10,167,15,30,10,315,,15,04,030,15*7C

$GPGSV,4,4,13,32,02,127,*4C

$GPRMC,145634.000,A,4709.3720,N,00138.2879,W,1.73,272.95,180717,,,A*79

$GPVTG,272.95,T,,M,1.73,N,3.20,K,A*32

$GPGGA,145635.000,4709.3724,N,00138.2897,W,1,08,0.96,31.8,M,48.7,M,,*4E

$GPGLL,4709.3724,N,00138.2897,W,145635.000,A,A*4D

$GPGSA,A,3,26,10,07,18,21,27,08,16,,,,,1.23,0.96,0.77*0F

$GPGSV,4,1,13,27,76,090,16,08,63,305,23,10,56,096,15,18,37,059,15*72

$GPGSV,4,2,13,16,36,177,16,11,23,267,13,21,14,066,13,07,13,282,14*75

$GPGSV,4,3,13,01,12,247,,26,10,167,12,30,10,315,,15,04,030,15*7B

$GPGSV,4,4,13,32,02,127,*4C

$GPRMC,145635.000,A,4709.3724,N,00138.2897,W,1.84,274.54,180717,,,A*7F

$GPVTG,274.54,T,,M,1.84,N,3.41,K,A*36

$GPGGA,145636.000,4709.3724,N,00138.2907,W,1,08,0.96,31.8,M,48.7,M,,*45

$GPGLL,4709.3724,N,00138.2907,W,145636.000,A,A*46

$GPGSA,A,3,26,10,07,18,21,27,08,16,,,,,1.23,0.96,0.77*0F

$GPGSV,4,1,13,27,76,090,16,08,63,305,23,10,56,096,15,18,37,059,15*72

$GPGSV,4,2,13,16,36,177,16,11,23,267,14,21,14,066,16,07,13,282,13*70

$GPGSV,4,3,13,01,12,247,,26,10,167,14,30,10,315,,15,04,030,15*7D

$GPGSV,4,4,13,32,02,127,*4C

$GPRMC,145636.000,A,4709.3724,N,00138.2907,W,1.83,273.60,180717,,,A*73

$GPVTG,273.60,T,,M,1.83,N,3.39,K,A*3E

$GPGGA,145637.000,4709.3726,N,00138.2917,W,1,08,0.96,31.8,M,48.7,M,,*47

$GPGLL,4709.3726,N,00138.2917,W,145637.000,A,A*44

$GPGSA,A,3,26,10,07,18,21,27,08,16,,,,,1.23,0.96,0.77*0F

$GPGSV,4,1,13,27,76,090,16,08,63,305,22,10,56,096,15,18,37,059,16*70

$GPGSV,4,2,13,16,36,177,16,11,23,267,14,21,14,066,17,07,13,282,15*77

$GPGSV,4,3,13,01,12,247,,26,10,167,15,30,10,315,,15,04,030,14*7D

$GPGSV,4,4,13,32,02,127,*4C

$GPRMC,145637.000,A,4709.3726,N,00138.2917,W,1.80,274.92,180717,,,A*78

$GPVTG,274.92,T,,M,1.80,N,3.34,K,A*3A

$GPGGA,145638.000,4709.3728,N,00138.2927,W,1,08,0.96,31.7,M,48.7,M,,*4A

$GPGLL,4709.3728,N,00138.2927,W,145638.000,A,A*46

$GPGSA,A,3,26,10,07,18,21,27,08,16,,,,,1.23,0.96,0.77*0F

$GPGSV,4,1,13,27,76,090,16,08,63,305,22,10,56,096,12,18,37,059,14*75

$GPGSV,4,2,13,16,36,177,16,11,23,267,14,21,14,066,15,07,13,282,15*75

$GPGSV,4,3,13,01,12,247,,26,10,167,12,30,10,315,,15,04,030,13*7D

$GPGSV,4,4,13,32,02,127,*4C

$GPRMC,145638.000,A,4709.3728,N,00138.2927,W,1.83,275.98,180717,,,A*72

$GPVTG,275.98,T,,M,1.83,N,3.38,K,A*3E

$GPGGA,145639.000,4709.3729,N,00138.2936,W,1,08,0.96,31.7,M,48.7,M,,*4A

$GPGLL,4709.3729,N,00138.2936,W,145639.000,A,A*46

$GPGSA,A,3,26,10,07,18,21,27,08,16,,,,,1.23,0.96,0.77*0F

$GPGSV,4,1,13,27,76,090,16,08,63,305,21,10,56,096,14,18,37,059,15*71

$GPGSV,4,2,13,16,36,177,17,11,23,267,14,21,14,066,16,07,13,282,13*71

$GPGSV,4,3,13,01,12,247,,26,10,167,12,30,10,315,,15,04,030,13*7D

$GPGSV,4,4,13,32,02,127,*4C

$GPRMC,145639.000,A,4709.3729,N,00138.2936,W,1.82,276.15,180717,,,A*75

$GPVTG,276.15,T,,M,1.82,N,3.37,K,A*36

$GPGGA,145640.000,4709.3728,N,00138.2946,W,1,08,0.96,31.7,M,48.7,M,,*42

$GPGLL,4709.3728,N,00138.2946,W,145640.000,A,A*4E

$GPGSA,A,3,26,10,07,18,21,27,08,16,,,,,1.23,0.96,0.77*0F

$GPGSV,4,1,13,27,76,090,17,08,63,305,21,10,56,096,10,18,37,059,12*73

$GPGSV,4,2,13,16,36,177,17,11,23,267,14,21,14,066,15,07,13,282,12*73

$GPGSV,4,3,13,01,12,247,,26,10,167,11,30,10,315,,15,04,030,13*7E

$GPGSV,4,4,13,32,02,127,*4C

$GPRMC,145640.000,A,4709.3728,N,00138.2946,W,1.80,273.98,180717,,,A*7F

$GPVTG,273.98,T,,M,1.80,N,3.33,K,A*30

$GPGGA,145641.000,4709.3728,N,00138.2953,W,1,08,0.96,31.7,M,48.7,M,,*47

$GPGLL,4709.3728,N,00138.2953,W,145641.000,A,A*4B

$GPGSA,A,3,26,10,07,18,21,27,08,16,,,,,1.23,0.96,0.77*0F

$GPGSV,4,1,13,27,76,090,17,08,63,305,21,10,56,096,12,18,37,059,11*72

$GPGSV,4,2,13,16,36,177,17,11,23,267,14,21,14,066,16,07,13,282,15*77

$GPGSV,4,3,13,01,12,247,,26,10,167,14,30,10,315,,15,04,030,13*7B

$GPGSV,4,4,13,32,02,127,*4C

$GPRMC,145641.000,A,4709.3728,N,00138.2953,W,1.74,273.96,180717,,,A*7F

$GPVTG,273.96,T,,M,1.74,N,3.22,K,A*35

$GPGGA,145642.000,4709.3730,N,00138.2962,W,1,08,0.96,31.7,M,48.7,M,,*4F

$GPGLL,4709.3730,N,00138.2962,W,145642.000,A,A*43

$GPGSA,A,3,26,10,07,18,21,27,08,16,,,,,1.23,0.96,0.77*0F

$GPGSV,4,1,13,27,76,091,17,08,63,305,22,10,56,096,12,18,37,059,11*70

$GPGSV,4,2,13,16,36,177,17,11,23,267,13,21,14,066,15,07,13,282,15*73

$GPGSV,4,3,13,01,12,247,,26,10,167,14,30,10,315,,15,04,030,13*7B

$GPGSV,4,4,13,32,02,127,*4C

$GPRMC,145642.000,A,4709.3730,N,00138.2962,W,1.71,275.10,180717,,,A*7A

$GPVTG,275.10,T,,M,1.71,N,3.17,K,A*3E

$GPGGA,145643.000,4709.3732,N,00138.2973,W,1,08,0.96,31.7,M,48.7,M,,*4C

$GPGLL,4709.3732,N,00138.2973,W,145643.000,A,A*40

$GPGSA,A,3,26,10,07,18,21,27,08,16,,,,,1.23,0.96,0.77*0F

$GPGSV,4,1,13,27,76,091,17,08,63,305,22,10,56,096,13,18,37,059,13*73

$GPGSV,4,2,13,16,36,177,17,11,23,267,13,21,14,066,14,07,13,282,16*71

$GPGSV,4,3,13,01,12,247,,26,10,167,15,30,10,315,,15,04,030,13*7A

$GPGSV,4,4,13,32,02,127,*4C

$GPRMC,145643.000,A,4709.3732,N,00138.2973,W,1.74,276.71,180717,,,A*78

$GPVTG,276.71,T,,M,1.74,N,3.23,K,A*38

$GPGGA,145644.000,4709.3734,N,00138.2983,W,1,08,0.96,31.7,M,48.7,M,,*42

$GPGLL,4709.3734,N,00138.2983,W,145644.000,A,A*4E

$GPGSA,A,3,26,10,07,18,21,27,08,16,,,,,1.23,0.96,0.77*0F

$GPGSV,4,1,13,27,76,091,16,08,63,305,21,10,56,096,11,18,37,059,14*74

$GPGSV,4,2,13,16,36,177,17,11,23,267,13,21,14,066,13,07,13,282,16*76

$GPGSV,4,3,13,01,12,247,,26,10,167,15,30,10,315,,15,04,030,13*7A

$GPGSV,4,4,13,32,02,127,*4C

$GPRMC,145644.000,A,4709.3734,N,00138.2983,W,1.77,277.75,180717,,,A*70

$GPVTG,277.75,T,,M,1.77,N,3.28,K,A*35

$GPGGA,145645.000,4709.3737,N,00138.2991,W,1,08,0.96,31.7,M,48.7,M,,*43

$GPGLL,4709.3737,N,00138.2991,W,145645.000,A,A*4F

$GPGSA,A,3,26,10,07,18,21,27,08,16,,,,,1.23,0.96,0.77*0F

$GPGSV,4,1,13,27,76,091,15,08,63,305,21,10,56,096,10,18,37,059,14*76

$GPGSV,4,2,13,16,36,177,17,11,23,267,13,21,14,066,14,07,13,282,13*74

$GPGSV,4,3,13,01,12,247,,26,10,167,13,30,10,315,,15,04,030,13*7C

$GPGSV,4,4,13,32,02,127,*4C

$GPRMC,145645.000,A,4709.3737,N,00138.2991,W,1.76,280.15,180717,,,A*7E

$GPVTG,280.15,T,,M,1.76,N,3.26,K,A*34

$GPGGA,145646.000,4709.3736,N,00138.3002,W,1,08,0.96,31.7,M,48.7,M,,*43

$GPGLL,4709.3736,N,00138.3002,W,145646.000,A,A*4F

$GPGSA,A,3,26,10,07,18,21,27,08,16,,,,,1.23,0.96,0.77*0F

$GPGSV,4,1,13,27,76,091,12,08,63,305,21,10,56,096,10,18,37,059,14*71

$GPGSV,4,2,13,16,36,177,17,11,23,267,13,21,14,066,15,07,13,282,14*72

$GPGSV,4,3,13,01,12,247,,26,10,167,13,30,10,315,,15,04,030,13*7C

$GPGSV,4,4,13,32,02,127,*4C

$GPRMC,145646.000,A,4709.3736,N,00138.3002,W,1.76,279.17,180717,,,A*7A

$GPVTG,279.17,T,,M,1.76,N,3.27,K,A*31

$GPGGA,145647.000,4709.3721,N,00138.3012,W,1,08,0.96,31.7,M,48.7,M,,*45

$GPGLL,4709.3721,N,00138.3012,W,145647.000,A,A*49

$GPGSA,A,3,26,10,07,18,21,27,08,16,,,,,1.23,0.96,0.77*0F

$GPGSV,4,1,13,27,76,091,10,08,63,305,21,10,56,096,10,18,37,059,14*73

$GPGSV,4,2,13,16,36,177,17,11,23,267,,21,14,066,16,07,13,282,14*73

$GPGSV,4,3,13,01,12,247,,26,10,167,14,30,10,315,,15,04,030,13*7B

$GPGSV,4,4,13,32,02,127,*4C

$GPRMC,145647.000,A,4709.3721,N,00138.3012,W,1.71,270.84,180717,,,A*78

$GPVTG,270.84,T,,M,1.71,N,3.16,K,A*37

$GPGGA,145648.000,4709.3708,N,00138.3021,W,1,08,0.96,31.7,M,48.7,M,,*41

$GPGLL,4709.3708,N,00138.3021,W,145648.000,A,A*4D

$GPGSA,A,3,26,10,07,18,21,27,08,16,,,,,1.23,0.96,0.77*0F

$GPGSV,4,1,13,27,76,091,13,08,63,305,21,10,56,096,10,18,37,059,14*70

$GPGSV,4,2,13,16,36,177,17,11,23,267,,21,14,066,16,07,13,282,14*73

$GPGSV,4,3,13,01,12,247,,26,10,167,14,30,10,315,,15,04,030,12*7A

$GPGSV,4,4,13,32,02,127,*4C

$GPRMC,145648.000,A,4709.3708,N,00138.3021,W,1.68,264.46,180717,,,A*7F

$GPVTG,264.46,T,,M,1.68,N,3.11,K,A*33

$GPGGA,145649.000,4709.3697,N,00138.3029,W,1,08,0.96,31.7,M,48.7,M,,*4F

$GPGLL,4709.3697,N,00138.3029,W,145649.000,A,A*43

$GPGSA,A,3,26,10,07,18,21,27,08,16,,,,,1.23,0.96,0.77*0F

$GPGSV,4,1,13,27,76,091,14,08,63,305,21,10,56,096,10,18,37,059,14*77

$GPGSV,4,2,13,16,36,177,17,11,23,267,14,21,14,066,16,07,13,282,15*77

$GPGSV,4,3,13,01,12,247,,26,10,167,15,30,10,315,,15,04,030,12*7B

$GPGSV,4,4,13,32,02,127,*4C

$GPRMC,145649.000,A,4709.3697,N,00138.3029,W,1.65,259.12,180717,,,A*73

$GPVTG,259.12,T,,M,1.65,N,3.05,K,A*34

$GPGGA,145650.000,4709.3694,N,00138.3036,W,1,08,0.96,31.7,M,48.7,M,,*4A

$GPGLL,4709.3694,N,00138.3036,W,145650.000,A,A*46

$GPGSA,A,3,26,10,07,18,21,27,08,16,,,,,1.23,0.96,0.77*0F

$GPGSV,4,1,13,27,76,091,14,08,63,305,21,10,56,096,10,18,37,059,14*77

$GPGSV,4,2,13,16,36,177,17,11,23,267,14,21,14,066,17,07,13,282,14*77

$GPGSV,4,3,13,01,12,247,,26,10,167,13,30,10,315,,15,04,030,12*7D

$GPGSV,4,4,13,32,02,127,*4C

$GPRMC,145650.000,A,4709.3694,N,00138.3036,W,1.62,258.04,180717,,,A*77

$GPVTG,258.04,T,,M,1.62,N,3.00,K,A*30

$GPGGA,145651.000,4709.3693,N,00138.3036,W,1,08,0.96,31.6,M,48.7,M,,*4D

$GPGLL,4709.3693,N,00138.3036,W,145651.000,A,A*40

$GPGSA,A,3,26,10,07,18,21,27,08,16,,,,,1.23,0.96,0.77*0F

$GPGSV,4,1,13,27,76,091,14,08,63,305,21,10,56,096,10,18,37,059,14*77

$GPGSV,4,2,13,16,36,177,17,11,23,267,,21,14,066,17,07,13,282,16*70

$GPGSV,4,3,13,01,12,247,,26,10,167,15,30,10,315,,15,04,030,13*7A

$GPGSV,4,4,13,32,02,127,*4C

$GPRMC,145651.000,A,4709.3693,N,00138.3036,W,1.53,257.06,180717,,,A*7E

$GPVTG,257.06,T,,M,1.53,N,2.84,K,A*32

$GPGGA,145652.000,4709.3692,N,00138.3036,W,1,08,0.96,31.5,M,48.7,M,,*4C

$GPGLL,4709.3692,N,00138.3036,W,145652.000,A,A*42

$GPGSA,A,3,26,10,07,18,21,27,08,16,,,,,1.23,0.96,0.77*0F

$GPGSV,4,1,13,27,76,091,14,08,63,305,22,10,56,096,09,18,37,059,14*7C

$GPGSV,4,2,13,16,36,177,17,11,23,267,,21,14,066,17,07,13,282,15*73

$GPGSV,4,3,13,01,12,247,,26,10,167,15,30,10,315,,15,04,030,13*7A

$GPGSV,4,4,13,32,02,127,*4C

$GPRMC,145652.000,A,4709.3692,N,00138.3036,W,1.41,254.67,180717,,,A*7B

$GPVTG,254.67,T,,M,1.41,N,2.62,K,A*3D

$GPGGA,145653.000,4709.3690,N,00138.3035,W,1,08,0.96,31.4,M,48.7,M,,*4D

$GPGLL,4709.3690,N,00138.3035,W,145653.000,A,A*42

$GPGSA,A,3,26,10,07,18,21,27,08,16,,,,,1.23,0.96,0.77*0F

$GPGSV,4,1,13,27,76,091,14,08,63,305,23,10,56,096,08,18,37,059,14*7C

$GPGSV,4,2,13,16,36,177,17,11,23,267,14,21,14,066,17,07,13,282,15*76

$GPGSV,4,3,13,01,12,247,,26,10,167,15,30,10,315,,15,04,030,13*7A

$GPGSV,4,4,13,32,02,127,*4C

$GPRMC,145653.000,A,4709.3690,N,00138.3035,W,1.28,252.70,180717,,,A*74

$GPVTG,252.70,T,,M,1.28,N,2.37,K,A*32

$GPGGA,145654.000,4709.3682,N,00138.3034,W,1,08,0.96,31.2,M,48.7,M,,*4E

$GPGLL,4709.3682,N,00138.3034,W,145654.000,A,A*47

$GPGSA,A,3,26,10,07,18,21,27,08,16,,,,,1.23,0.96,0.77*0F

$GPGSV,4,1,13,27,76,091,14,08,63,305,23,10,56,096,08,18,37,059,14*7C

$GPGSV,4,2,13,16,36,177,17,11,23,267,15,21,14,066,17,07,13,282,17*75

$GPGSV,4,3,13,01,12,247,,26,10,167,14,30,10,315,,15,04,030,12*7A

$GPGSV,4,4,13,32,02,127,*4C

$GPRMC,145654.000,A,4709.3682,N,00138.3034,W,1.18,247.10,180717,,,A*70

$GPVTG,247.10,T,,M,1.18,N,2.18,K,A*3E

$GPGGA,145655.000,4709.3671,N,00138.3035,W,1,08,0.96,30.9,M,48.7,M,,*48

$GPGLL,4709.3671,N,00138.3035,W,145655.000,A,A*4B

$GPGSA,A,3,26,10,07,18,21,27,08,16,,,,,1.23,0.96,0.77*0F

$GPGSV,4,1,13,27,76,091,15,08,63,305,23,10,56,096,08,18,37,059,14*7D

$GPGSV,4,2,13,16,36,177,17,11,23,267,12,21,14,066,16,07,13,282,16*72

$GPGSV,4,3,13,01,12,247,,26,10,167,15,30,10,315,,15,04,030,12*7B

$GPGSV,4,4,13,32,02,127,*4C

$GPRMC,145655.000,A,4709.3671,N,00138.3035,W,1.19,240.19,180717,,,A*73

$GPVTG,240.19,T,,M,1.19,N,2.20,K,A*3A

$GPGGA,145656.000,4709.3660,N,00138.3036,W,1,08,0.96,30.6,M,48.7,M,,*47

$GPGLL,4709.3660,N,00138.3036,W,145656.000,A,A*4B

$GPGSA,A,3,26,10,07,18,21,27,08,16,,,,,1.23,0.96,0.77*0F

$GPGSV,4,1,13,27,76,091,16,08,63,305,23,10,56,096,08,18,37,059,13*79

$GPGSV,4,2,13,16,36,177,17,11,23,267,14,21,14,066,16,07,13,282,15*77

$GPGSV,4,3,13,01,12,247,,26,10,167,16,30,10,315,,15,04,030,12*78

$GPGSV,4,4,13,32,02,127,*4C

$GPRMC,145656.000,A,4709.3660,N,00138.3036,W,1.22,234.17,180717,,,A*76

$GPVTG,234.17,T,,M,1.22,N,2.27,K,A*38

$GPGGA,145657.000,4709.3659,N,00138.3039,W,1,08,0.96,30.5,M,48.7,M,,*40

$GPGLL,4709.3659,N,00138.3039,W,145657.000,A,A*4F

$GPGSA,A,3,26,10,07,18,21,27,08,16,,,,,1.23,0.96,0.77*0F

$GPGSV,4,1,13,27,76,091,16,08,63,305,23,10,56,096,08,18,37,059,12*78

$GPGSV,4,2,13,16,36,177,16,11,23,267,14,21,14,066,16,07,13,281,15*75

$GPGSV,4,3,13,01,12,247,,26,10,167,13,30,10,315,,15,04,030,*7E

$GPGSV,4,4,13,32,02,127,*4C

$GPRMC,145657.000,A,4709.3659,N,00138.3039,W,1.18,234.29,180717,,,A*76

$GPVTG,234.29,T,,M,1.18,N,2.19,K,A*31

$GPGGA,145658.000,4709.3655,N,00138.3040,W,1,08,0.96,30.4,M,48.7,M,,*4C

$GPGLL,4709.3655,N,00138.3040,W,145658.000,A,A*42

$GPGSA,A,3,26,10,07,18,21,27,08,16,,,,,1.23,0.96,0.77*0F

$GPGSV,4,1,13,27,76,091,16,08,63,305,23,10,56,096,08,18,37,059,12*78

$GPGSV,4,2,13,16,36,177,16,11,23,267,14,21,14,066,16,07,13,281,14*74

$GPGSV,4,3,13,01,12,247,,26,10,167,13,30,10,315,,15,04,030,*7E

$GPGSV,4,4,13,32,02,127,*4C

$GPRMC,145658.000,A,4709.3655,N,00138.3040,W,1.15,231.95,180717,,,A*74

$GPVTG,231.95,T,,M,1.15,N,2.13,K,A*34

$GPGGA,145659.000,4709.3647,N,00138.3040,W,1,08,0.96,30.2,M,48.7,M,,*48

$GPGLL,4709.3647,N,00138.3040,W,145659.000,A,A*40

$GPGSA,A,3,26,10,07,18,21,27,08,16,,,,,1.23,0.96,0.77*0F

$GPGSV,4,1,13,27,76,091,16,08,63,305,23,10,56,096,08,18,37,059,12*78

$GPGSV,4,2,13,16,36,177,16,11,23,267,14,21,14,066,16,07,13,281,16*76

$GPGSV,4,3,13,01,12,247,,26,10,167,13,30,10,315,,15,04,030,*7E

$GPGSV,4,4,13,32,02,127,*4C

$GPRMC,145659.000,A,4709.3647,N,00138.3040,W,1.15,226.11,180717,,,A*7C

$GPVTG,226.11,T,,M,1.15,N,2.12,K,A*3F

$GPGGA,145700.000,4709.3640,N,00138.3039,W,1,08,0.96,29.9,M,48.7,M,,*4F

$GPGLL,4709.3640,N,00138.3039,W,145700.000,A,A*44

$GPGSA,A,3,26,10,07,18,21,27,08,16,,,,,1.23,0.96,0.77*0F

$GPGSV,4,1,13,27,76,091,16,08,63,305,23,10,56,096,09,18,37,059,12*79

$GPGSV,4,2,13,16,36,177,16,11,23,267,,21,14,066,16,07,13,281,15*70

$GPGSV,4,3,13,01,12,247,,26,10,167,10,30,10,315,,15,04,030,*7D

$GPGSV,4,4,13,32,02,127,*4C

$GPRMC,145700.000,A,4709.3640,N,00138.3039,W,1.12,220.52,180717,,,A*7E

$GPVTG,220.52,T,,M,1.12,N,2.08,K,A*32

$GPGGA,145701.000,4709.3635,N,00138.3038,W,1,08,0.96,29.6,M,48.7,M,,*42

$GPGLL,4709.3635,N,00138.3038,W,145701.000,A,A*46

$GPGSA,A,3,26,10,07,18,21,27,08,16,,,,,1.23,0.96,0.77*0F

$GPGSV,4,1,13,27,76,091,16,08,63,305,23,10,56,096,09,18,37,059,11*7A

$GPGSV,4,2,13,16,36,177,16,11,23,268,,21,14,066,16,07,13,281,16*7C

$GPGSV,4,3,13,01,12,247,,26,10,167,13,30,10,315,,15,04,030,*7E

$GPGSV,4,4,13,32,02,127,*4C

$GPRMC,145701.000,A,4709.3635,N,00138.3038,W,1.08,217.51,180717,,,A*70

$GPVTG,217.51,T,,M,1.08,N,2.00,K,A*36

$GPGGA,145702.000,4709.3632,N,00138.3031,W,1,08,0.96,29.4,M,48.7,M,,*4D

$GPGLL,4709.3632,N,00138.3031,W,145702.000,A,A*4B

$GPGSA,A,3,26,10,07,18,21,27,08,16,,,,,1.23,0.96,0.77*0F

$GPGSV,4,1,13,27,76,091,15,08,63,305,23,10,56,096,10,18,37,059,11*71

$GPGSV,4,2,13,16,36,177,16,11,23,268,,21,14,066,16,07,13,281,17*7D

$GPGSV,4,3,13,01,12,247,,26,10,167,16,30,10,315,,15,04,030,*7B

$GPGSV,4,4,13,32,02,127,*4C

$GPRMC,145702.000,A,4709.3632,N,00138.3031,W,0.98,215.17,180717,,,A*75

$GPVTG,215.17,T,,M,0.98,N,1.81,K,A*34

$GPGGA,145703.000,4709.3629,N,00138.3024,W,1,08,0.96,29.3,M,48.7,M,,*45

$GPGLL,4709.3629,N,00138.3024,W,145703.000,A,A*44

$GPGSA,A,3,26,10,07,18,21,27,08,16,,,,,1.23,0.96,0.77*0F

$GPGSV,4,1,13,27,76,091,16,08,63,305,23,10,56,096,10,18,37,059,10*73

$GPGSV,4,2,13,16,36,177,16,11,23,268,,21,14,066,16,07,13,281,17*7D

$GPGSV,4,3,13,01,12,247,,26,10,167,15,30,10,315,,15,04,030,*78

$GPGSV,4,4,13,32,02,127,*4C

$GPRMC,145703.000,A,4709.3629,N,00138.3024,W,0.89,211.91,180717,,,A*70

$GPVTG,211.91,T,,M,0.89,N,1.64,K,A*35

$GPGGA,145704.000,4709.3626,N,00138.3029,W,1,08,0.96,29.0,M,48.7,M,,*43

$GPGLL,4709.3626,N,00138.3029,W,145704.000,A,A*41

$GPGSA,A,3,26,10,07,18,21,27,08,16,,,,,1.23,0.96,0.77*0F

$GPGSV,4,1,13,27,76,091,16,08,63,305,23,10,56,096,10,18,37,059,10*73

$GPGSV,4,2,13,16,36,177,17,11,23,268,,21,14,066,16,07,13,281,17*7C

$GPGSV,4,3,13,01,12,247,,26,10,167,15,30,10,315,,15,04,030,*78

$GPGSV,4,4,13,32,02,127,*4C

$GPRMC,145704.000,A,4709.3626,N,00138.3029,W,0.87,214.05,180717,,,A*73

$GPVTG,214.05,T,,M,0.87,N,1.62,K,A*35

$GPGGA,145705.000,4709.3623,N,00138.3039,W,1,08,0.96,28.5,M,48.7,M,,*42

$GPGLL,4709.3623,N,00138.3039,W,145705.000,A,A*44

$GPGSA,A,3,26,10,07,18,21,27,08,16,,,,,1.23,0.96,0.77*0F

$GPGSV,4,1,13,27,76,091,16,08,63,305,23,10,56,096,10,18,37,059,10*73

$GPGSV,4,2,13,16,36,177,17,11,23,268,,21,14,066,16,07,13,281,17*7C

$GPGSV,4,3,13,01,12,247,,26,10,167,14,30,10,315,,15,04,029,*71

$GPGSV,4,4,13,32,02,127,*4C

$GPRMC,145705.000,A,4709.3623,N,00138.3039,W,0.88,218.29,180717,,,A*7B

$GPVTG,218.29,T,,M,0.88,N,1.64,K,A*3E

$GPGGA,145706.000,4709.3619,N,00138.3048,W,1,08,0.96,28.1,M,48.7,M,,*4A

$GPGLL,4709.3619,N,00138.3048,W,145706.000,A,A*48

$GPGSA,A,3,26,10,07,18,21,27,08,16,,,,,1.23,0.96,0.77*0F

$GPGSV,4,1,13,27,76,091,16,08,63,305,24,10,56,096,10,18,37,059,10*74

$GPGSV,4,2,13,16,35,177,17,11,23,268,,21,14,066,16,07,13,281,16*7E

$GPGSV,4,3,13,01,12,247,,26,10,167,13,30,10,315,,15,04,029,*76

$GPGSV,4,4,13,32,02,127,*4C

$GPRMC,145706.000,A,4709.3619,N,00138.3048,W,0.91,218.17,180717,,,A*72

$GPVTG,218.17,T,,M,0.91,N,1.68,K,A*37

$GPGGA,145707.000,4709.3615,N,00138.3059,W,1,08,0.96,27.6,M,48.7,M,,*4F

$GPGLL,4709.3615,N,00138.3059,W,145707.000,A,A*45

$GPGSA,A,3,26,10,07,18,21,27,08,16,,,,,1.23,0.96,0.77*0F

$GPGSV,4,1,13,27,76,091,16,08,63,305,24,10,56,096,10,18,37,059,10*74

$GPGSV,4,2,13,16,35,177,17,11,23,268,,21,14,066,16,07,13,281,16*7E

$GPGSV,4,3,13,01,12,247,,26,10,167,11,30,10,315,,15,04,029,*74

$GPGSV,4,4,13,32,02,127,*4C

$GPRMC,145707.000,A,4709.3615,N,00138.3059,W,0.96,219.93,180717,,,A*75

$GPVTG,219.93,T,,M,0.96,N,1.78,K,A*3C

