2,26,13,167,,30,10,318,,01,09,245,,15,05,033,*7E

$GPRMC,144847.000,A,4709.3745,N,00138.2856,W,0.56,148.18,180717,,,A*75

$GPVTG,148.18,T,,M,0.56,N,1.04,K,A*3F

$GPGGA,144848.000,4709.3743,N,00138.2855,W,1,07,1.19,51.4,M,48.7,M,,*47

$GPGLL,4709.3743,N,00138.2855,W,144848.000,A,A*47

$GPGSA,A,3,10,07,18,21,27,08,16,,,,,,1.45,1.19,0.83*06

$GPGSV,3,1,12,27,79,079,20,08,59,303,18,10,56,103,19,16,40,177,10*79

$GPGSV,3,2,12,18,40,063,18,11,20,265,,21,17,065,17,07,14,285,16*73

$GPGSV,3,3,12,26,13,167,,30,10,318,,01,09,245,,15,05,033,*7E

$GPRMC,144848.000,A,4709.3743,N,00138.2855,W,0.72,153.92,180717,,,A*71

$GPVTG,153.92,T,,M,0.72,N,1.34,K,A*32

$GPGGA,144849.000,4709.3724,N,00138.2850,W,1,07,1.19,51.2,M,48.7,M,,*44

$GPGLL,4709.3724,N,00138.2850,W,144849.000,A,A*42

$GPGSA,A,3,10,07,18,21,27,08,16,,,,,,1.45,1.19,0.83*06

$GPGSV,3,1,12,27,79,079,20,08,59,303,18,10,56,103,19,16,40,177,10*79

$GPGSV,3,2,12,18,40,063,18,11,20,265,,21,17,065,17,07,14,285,16*73

$GPGSV,3,3,12,26,13,167,,30,10,318,,01,09,245,,15,05,033,*7E

$GPRMC,144849.000,A,4709.3724,N,00138.2850,W,0.90,156.42,180717,,,A*70

$GPVTG,156.42,T,,M,0.90,N,1.67,K,A*30

$GPGGA,144850.000,4709.3712,N,00138.2843,W,1,07,1.19,51.2,M,48.7,M,,*4B

$GPGLL,4709.3712,N,00138.2843,W,144850.000,A,A*4D

$GPGSA,A,3,10,07,18,21,27,08,16,,,,,,1.45,1.19,0.83*06

$GPGSV,3,1,12,27,79,079,20,08,59,303,18,10,56,103,19,16,40,177,10*79

$GPGSV,3,2,12,18,40,063,18,11,20,265,,21,17,065,17,07,14,285,16*73

$GPGSV,3,3,12,26,13,167,,30,10,318,,01,09,245,,15,05,033,*7E

$GPRMC,144850.000,A,4709.3712,N,00138.2843,W,1.01,157.22,180717,,,A*71

$GPVTG,157.22,T,,M,1.01,N,1.87,K,A*30

$GPGGA,144851.000,4709.3701,N,00138.2839,W,1,07,1.19,51.1,M,48.7,M,,*46

$GPGLL,4709.3701,N,00138.2839,W,144851.000,A,A*43

$GPGSA,A,3,10,07,18,21,27,08,16,,,,,,1.45,1.19,0.83*06

$GPGSV,3,1,12,27,79,079,20,08,59,303,18,10,56,103,19,16,40,177,10*79

$GPGSV,3,2,12,18,40,063,19,11,20,266,,21,17,065,17,07,14,285,16*71

$GPGSV,3,3,12,26,13,167,,30,10,318,,01,09,245,,15,05,033,*7E

$GPRMC,144851.000,A,4709.3701,N,00138.2839,W,1.09,160.34,180717,,,A*74

$GPVTG,160.34,T,,M,1.09,N,2.02,K,A*35

$GPGGA,144852.000,4709.3686,N,00138.2834,W,1,07,1.19,51.0,M,48.7,M,,*47

$GPGLL,4709.3686,N,00138.2834,W,144852.000,A,A*43

$GPGSA,A,3,10,07,18,21,27,08,16,,,,,,1.45,1.19,0.83*06

$GPGSV,3,1,12,27,79,079,20,08,59,303,18,10,56,103,19,16,40,177,10*79

$GPGSV,3,2,12,18,40,063,19,11,20,266,,21,17,065,17,07,14,285,16*71

$GPGSV,3,3,12,26,13,167,,30,10,318,,01,09,245,,15,05,033,*7E

$GPRMC,144852.000,A,4709.3686,N,00138.2834,W,1.21,161.50,180717,,,A*7D

$GPVTG,161.50,T,,M,1.21,N,2.24,K,A*38

$GPGGA,144853.000,4709.3675,N,00138.2833,W,1,07,1.19,51.0,M,48.7,M,,*4D

$GPGLL,4709.3675,N,00138.2833,W,144853.000,A,A*49

$GPGSA,A,3,10,07,18,21,27,08,16,,,,,,1.45,1.19,0.83*06

$GPGSV,3,1,12,27,79,079,20,08,59,303,19,10,56,103,19,16,40,177,10*78

$GPGSV,3,2,12,18,40,063,19,11,20,266,,21,17,065,17,07,14,285,16*71

$GPGSV,3,3,12,26,13,167,,30,10,318,,01,09,245,,15,05,033,*7E

$GPRMC,144853.000,A,4709.3675,N,00138.2833,W,1.26,163.61,180717,,,A*70

$GPVTG,163.61,T,,M,1.26,N,2.33,K,A*39

$GPGGA,144854.000,4709.3663,N,00138.2833,W,1,07,1.19,50.8,M,48.7,M,,*44

$GPGLL,4709.3663,N,00138.2833,W,144854.000,A,A*49

$GPGSA,A,3,10,07,18,21,27,08,16,,,,,,1.45,1.19,0.83*06

$GPGSV,3,1,12,27,79,079,20,08,59,303,19,10,56,103,19,16,40,177,10*78

$GPGSV,3,2,12,18,40,063,19,11,20,266,,21,17,065,17,07,14,285,16*71

$GPGSV,3,3,12,26,13,167,,30,10,318,,01,09,245,,15,05,033,*7E

$GPRMC,144854.000,A,4709.3663,N,00138.2833,W,1.31,167.33,180717,,,A*75

$GPVTG,167.33,T,,M,1.31,N,2.43,K,A*3B

$GPGGA,144855.000,4709.3650,N,00138.2831,W,1,07,1.19,50.7,M,48.7,M,,*48

$GPGLL,4709.3650,N,00138.2831,W,144855.000,A,A*4A

$GPGSA,A,3,10,07,18,21,27,08,16,,,,,,1.45,1.19,0.83*06

$GPGSV,3,1,12,27,79,079,20,08,59,303,19,10,56,103,19,16,40,177,10*78

$GPGSV,3,2,12,18,40,063,19,11,20,266,,21,17,065,17,07,14,285,16*71

$GPGSV,3,3,12,26,13,167,,30,10,318,,01,09,245,,15,05,032,*7F

$GPRMC,144855.000,A,4709.3650,N,00138.2831,W,1.38,168.89,180717,,,A*71

$GPVTG,168.89,T,,M,1.38,N,2.57,K,A*39

$GPGGA,144856.000,4709.3634,N,00138.2830,W,1,07,1.19,50.6,M,48.7,M,,*49

$GPGLL,4709.3634,N,00138.2830,W,144856.000,A,A*4A

$GPGSA,A,3,10,07,18,21,27,08,16,,,,,,1.45,1.19,0.83*06

$GPGSV,3,1,12,27,79,079,20,08,59,303,19,10,56,103,19,18,40,063,19*7B

$GPGSV,3,2,12,16,39,177,10,11,20,266,,21,17,065,17,07,14,285,16*7C

$GPGSV,3,3,12,26,13,167,,30,10,318,,01,09,245,,15,05,032,*7F

$GPRMC,144856.000,A,4709.3634,N,00138.2830,W,1.51,170.25,180717,,,A*71

$GPVTG,170.25,T,,M,1.51,N,2.80,K,A*33

$GPGGA,144857.000,4709.3629,N,00138.2829,W,1,07,1.19,50.5,M,48.7,M,,*4F

$GPGLL,4709.3629,N,00138.2829,W,144857.000,A,A*4F

$GPGSA,A,3,10,07,18,21,27,08,16,,,,,,1.45,1.19,0.83*06

$GPGSV,3,1,12,27,79,079,20,08,59,303,19,10,56,103,20,18,40,063,19*71

$GPGSV,3,2,12,16,39,177,10,11,20,266,,21,17,065,17,07,14,285,16*7C

$GPGSV,3,3,12,26,13,167,,30,10,318,,01,09,245,,15,05,032,*7F

$GPRMC,144857.000,A,4709.3629,N,00138.2829,W,1.50,170.44,180717,,,A*72

$GPVTG,170.44,T,,M,1.50,N,2.78,K,A*32

$GPGGA,144858.000,4709.3621,N,00138.2828,W,1,07,1.19,50.5,M,48.7,M,,*49

$GPGLL,4709.3621,N,00138.2828,W,144858.000,A,A*49

$GPGSA,A,3,10,07,18,21,27,08,16,,,,,,1.45,1.19,0.83*06

$GPGSV,3,1,12,27,79,079,20,08,59,303,19,10,56,103,20,16,39,177,10*7C

$GPGSV,3,2,12,18,39,062,18,11,20,266,,21,17,065,17,07,14,285,16*7F

$GPGSV,3,3,12,26,13,167,,30,10,318,,01,09,245,,15,05,032,*7F

$GPRMC,144858.000,A,4709.3621,N,00138.2828,W,1.52,171.33,180717,,,A*77

$GPVTG,171.33,T,,M,1.52,N,2.82,K,A*34

$GPGGA,144859.000,4709.3608,N,00138.2827,W,1,07,1.19,50.4,M,48.7,M,,*4D

$GPGLL,4709.3608,N,00138.2827,W,144859.000,A,A*4C

$GPGSA,A,3,10,07,18,21,27,08,16,,,,,,1.45,1.19,0.83*06

$GPGSV,3,1,12,27,79,079,20,08,59,303,19,10,56,103,20,16,39,177,10*7C

$GPGSV,3,2,12,18,39,062,18,11,20,266,,21,17,065,17,07,14,285,16*7F

$GPGSV,3,3,12,26,13,167,,30,10,318,,01,09,245,,15,05,032,*7F

$GPRMC,144859.000,A,4709.3608,N,00138.2827,W,1.60,173.26,180717,,,A*75

$GPVTG,173.26,T,,M,1.60,N,2.96,K,A*36

$GPGGA,144900.000,4709.3599,N,00138.2822,W,1,07,1.19,50.4,M,48.7,M,,*4E

$GPGLL,4709.3599,N,00138.2822,W,144900.000,A,A*4F

$GPGSA,A,3,10,07,18,21,27,08,16,,,,,,1.45,1.19,0.83*06

$GPGSV,3,1,12,27,79,079,20,08,59,303,19,10,56,103,20,16,39,177,10*7C

$GPGSV,3,2,12,18,39,062,18,11,20,266,,21,17,065,17,07,14,285,16*7F

$GPGSV,3,3,12,26,13,167,,30,10,318,,01,09,245,,15,05,032,*7F

$GPRMC,144900.000,A,4709.3599,N,00138.2822,W,1.60,171.92,180717,,,A*7B

$GPVTG,171.92,T,,M,1.60,N,2.97,K,A*3A

$GPGGA,144901.000,4709.3589,N,00138.2820,W,1,07,1.19,50.3,M,48.7,M,,*4B

$GPGLL,4709.3589,N,00138.2820,W,144901.000,A,A*4D

$GPGSA,A,3,10,07,18,21,27,08,16,,,,,,1.45,1.19,0.83*06

$GPGSV,3,1,12,27,79,079,21,08,59,303,19,10,56,103,21,16,39,177,10*7C

$GPGSV,3,2,12,18,39,062,18,11,20,266,,21,17,065,17,07,14,285,16*7F

$GPGSV,3,3,12,26,13,167,,30,10,318,,01,09,245,,15,05,032,*7F

$GPRMC,144901.000,A,4709.3589,N,00138.2820,W,1.60,171.97,180717,,,A*7C

$GPVTG,171.97,T,,M,1.60,N,2.97,K,A*3F

$GPGGA,144902.000,4709.3581,N,00138.2820,W,1,07,1.19,50.2,M,48.7,M,,*41

$GPGLL,4709.3581,N,00138.2820,W,144902.000,A,A*46

$GPGSA,A,3,10,07,18,21,27,08,16,,,,,,1.45,1.19,0.83*06

$GPGSV,3,1,12,27,79,079,22,08,59,303,19,10,56,103,22,16,39,177,10*7C

$GPGSV,3,2,12,18,39,062,18,11,20,266,,21,17,065,17,07,14,285,16*7F

$GPGSV,3,3,12,26,13,167,,30,10,318,,01,09,245,,15,05,032,*7F

$GPRMC,144902.000,A,4709.3581,N,00138.2820,W,1.58,171.12,180717,,,A*71

$GPVTG,171.12,T,,M,1.58,N,2.92,K,A*3C

$GPGGA,144903.000,4709.3567,N,00138.2820,W,1,07,1.19,50.1,M,48.7,M,,*4B

$GPGLL,4709.3567,N,00138.2820,W,144903.000,A,A*4F

$GPGSA,A,3,10,07,18,21,27,08,16,,,,,,1.45,1.19,0.83*06

$GPGSV,3,1,12,27,79,079,22,08,59,303,19,10,56,103,22,16,39,177,10*7C

$GPGSV,3,2,12,18,39,062,18,11,20,266,,21,17,065,18,07,14,285,16*70

$GPGSV,3,3,12,26,13,167,,30,10,318,,01,09,245,,15,05,032,*7F

$GPRMC,144903.000,A,4709.3567,N,00138.2820,W,1.65,172.15,180717,,,A*72

$GPVTG,172.15,T,,M,1.65,N,3.07,K,A*3B

$GPGGA,144904.000,4709.3550,N,00138.2822,W,1,07,1.19,50.1,M,48.7,M,,*4A

$GPGLL,4709.3550,N,00138.2822,W,144904.000,A,A*4E

$GPGSA,A,3,10,07,18,21,27,08,16,,,,,,1.45,1.19,0.83*06

$GPGSV,3,1,12,27,79,079,22,08,59,303,19,10,56,103,22,16,39,177,10*7C

$GPGSV,3,2,12,18,39,062,18,11,20,266,,21,17,065,18,07,14,285,16*70

$GPGSV,3,3,12,26,13,167,,30,10,318,,01,09,245,,15,05,032,*7F

$GPRMC,144904.000,A,4709.3550,N,00138.2822,W,1.78,175.01,180717,,,A*7D

$GPVTG,175.01,T,,M,1.78,N,3.29,K,A*39

$GPGGA,144905.000,4709.3537,N,00138.2820,W,1,07,1.19,50.0,M,48.7,M,,*49

$GPGLL,4709.3537,N,00138.2820,W,144905.000,A,A*4C

$GPGSA,A,3,10,07,18,21,27,08,16,,,,,,1.45,1.19,0.83*06

$GPGSV,3,1,12,27,79,079,22,08,59,303,19,10,56,103,23,16,39,177,10*7D

$GPGSV,3,2,12,18,39,062,19,11,20,266,,21,17,065,18,07,14,285,17*70

$GPGSV,3,3,12,26,13,167,,30,10,318,,01,09,245,,15,05,032,*7F

$GPRMC,144905.000,A,4709.3537,N,00138.2820,W,1.85,175.54,180717,,,A*7D

$GPVTG,175.54,T,,M,1.85,N,3.42,K,A*36

$GPGGA,144906.000,4709.3525,N,00138.2819,W,1,07,1.19,50.0,M,48.7,M,,*43

$GPGLL,4709.3525,N,00138.2819,W,144906.000,A,A*46

$GPGSA,A,3,10,07,18,21,27,08,16,,,,,,1.45,1.19,0.83*06

$GPGSV,3,1,12,27,79,079,22,08,59,303,19,10,56,103,23,16,39,177,10*7D

$GPGSV,3,2,12,18,39,062,19,11,20,266,,21,17,065,18,07,14,285,17*70

$GPGSV,3,3,12,26,13,167,,30,10,318,,01,09,245,,15,05,032,*7F

$GPRMC,144906.000,A,4709.3525,N,00138.2819,W,1.89,176.70,180717,,,A*7E

$GPVTG,176.70,T,,M,1.89,N,3.50,K,A*3C

$GPGGA,144907.000,4709.3514,N,00138.2817,W,1,07,1.19,49.9,M,48.7,M,,*4F

$GPGLL,4709.3514,N,00138.2817,W,144907.000,A,A*4B

$GPGSA,A,3,10,07,18,21,27,08,16,,,,,,1.45,1.19,0.83*06

$GPGSV,3,1,12,27,78,080,22,08,59,303,19,10,56,103,23,16,39,177,11*7B

$GPGSV,3,2,12,18,39,062,19,11,20,266,,21,17,065,18,07,14,285,17*70

$GPGSV,3,3,12,26,13,167,,30,10,318,,01,09,245,,15,05,032,*7F

$GPRMC,144907.000,A,4709.3514,N,00138.2817,W,1.91,177.91,180717,,,A*74

$GPVTG,177.91,T,,M,1.91,N,3.54,K,A*3F

$GPGGA,144908.000,4709.3508,N,00138.2816,W,1,07,1.19,49.9,M,48.7,M,,*4C

$GPGLL,4709.3508,N,00138.2816,W,144908.000,A,A*48

$GPGSA,A,3,10,07,18,21,27,08,16,,,,,,1.45,1.19,0.83*06

$GPGSV,3,1,12,27,78,080,22,08,59,303,19,10,56,103,23,16,39,177,11*7B

$GPGSV,3,2,12,18,39,062,19,11,20,266,,21,17,065,18,07,14,285,17*70

$GPGSV,3,3,12,26,13,167,,30,10,318,,01,09,245,,15,05,032,*7F

$GPRMC,144908.000,A,4709.3508,N,00138.2816,W,1.87,178.82,180717,,,A*7D

$GPVTG,178.82,T,,M,1.87,N,3.47,K,A*37

$GPGGA,144909.000,4709.3496,N,00138.2813,W,1,07,1.19,49.7,M,48.7,M,,*40

$GPGLL,4709.3496,N,00138.2813,W,144909.000,A,A*4A

$GPGSA,A,3,10,07,18,21,27,08,16,,,,,,1.45,1.19,0.83*06

$GPGSV,3,1,12,27,78,080,22,08,59,303,19,10,56,103,23,16,39,177,13*79

$GPGSV,3,2,12,18,39,062,19,11,20,266,,21,17,065,18,07,14,285,17*70

$GPGSV,3,3,12,26,13,167,,30,10,318,,01,09,245,,15,05,032,*7F

$GPRMC,144909.000,A,4709.3496,N,00138.2813,W,1.94,177.99,180717,,,A*78

$GPVTG,177.99,T,,M,1.94,N,3.59,K,A*3F

$GPGGA,144910.000,4709.3484,N,00138.2812,W,1,07,1.19,49.6,M,48.7,M,,*4B

$GPGLL,4709.3484,N,00138.2812,W,144910.000,A,A*40

$GPGSA,A,3,10,07,18,21,27,08,16,,,,,,1.45,1.19,0.83*06

$GPGSV,3,1,12,27,78,080,22,08,59,303,19,10,56,103,23,16,39,177,14*7E

$GPGSV,3,2,12,18,39,062,18,11,20,266,,21,17,065,18,07,14,285,17*71

$GPGSV,3,3,12,26,13,167,,30,10,318,,01,09,245,,15,05,032,*7F

$GPRMC,144910.000,A,4709.3484,N,00138.2812,W,2.02,177.92,180717,,,A*75

$GPVTG,177.92,T,,M,2.02,N,3.74,K,A*37

$GPGGA,144911.000,4709.3473,N,00138.2811,W,1,07,1.19,49.5,M,48.7,M,,*42

$GPGLL,4709.3473,N,00138.2811,W,144911.000,A,A*4A

$GPGSA,A,3,10,07,18,21,27,08,16,,,,,,1.45,1.19,0.83*06

$GPGSV,3,1,12,27,78,080,23,08,59,303,19,10,56,103,23,16,39,177,15*7E

$GPGSV,3,2,12,18,39,062,18,11,20,266,,21,17,065,18,07,14,285,17*71

$GPGSV,3,3,12,26,13,167,,30,10,318,,01,09,245,,15,05,032,*7F

$GPRMC,144911.000,A,4709.3473,N,00138.2811,W,2.05,179.31,180717,,,A*7F

$GPVTG,179.31,T,,M,2.05,N,3.81,K,A*3D

$GPGGA,144912.000,4709.3468,N,00138.2811,W,1,07,1.19,49.4,M,48.7,M,,*4A

$GPGLL,4709.3468,N,00138.2811,W,144912.000,A,A*43

$GPGSA,A,3,10,07,18,21,27,08,16,,,,,,1.45,1.19,0.83*06

$GPGSV,3,1,12,27,78,080,23,08,59,303,19,10,56,103,24,16,39,177,15*79

$GPGSV,3,2,12,18,39,062,18,11,20,266,,21,17,065,18,07,14,285,17*71

$GPGSV,3,3,12,26,13,167,,30,10,318,,01,09,245,,15,05,032,*7F

$GPRMC,144912.000,A,4709.3468,N,00138.2811,W,2.03,180.28,180717,,,A*7E

$GPVTG,180.28,T,,M,2.03,N,3.76,K,A*3D

$GPGGA,144913.000,4709.3462,N,00138.2809,W,1,07,1.19,49.4,M,48.7,M,,*48

$GPGLL,4709.3462,N,00138.2809,W,144913.000,A,A*41

$GPGSA,A,3,10,07,18,21,27,08,16,,,,,,1.45,1.19,0.83*06

$GPGSV,3,1,12,27,78,080,23,08,59,303,19,10,56,103,24,16,39,177,15*79

$GPGSV,3,2,12,18,39,062,18,11,20,266,,21,17,065,18,07,14,285,17*71

$GPGSV,3,3,12,26,13,167,,30,10,318,,01,09,245,,15,05,032,*7F

$GPRMC,144913.000,A,4709.3462,N,00138.2809,W,2.02,180.93,180717,,,A*7D

$GPVTG,180.93,T,,M,2.02,N,3.74,K,A*3E

$GPGGA,144914.000,4709.3457,N,00138.2808,W,1,07,1.19,49.4,M,48.7,M,,*48

$GPGLL,4709.3457,N,00138.2808,W,144914.000,A,A*41

$GPGSA,A,3,10,07,18,21,27,08,16,,,,,,1.45,1.19,0.83*06

$GPGSV,3,1,12,27,78,080,23,08,59,303,19,10,56,103,24,16,39,177,15*79

$GPGSV,3,2,12,18,39,062,18,11,20,266,,21,17,065,18,07,14,285,17*71

$GPGSV,3,3,12,26,13,167,,30,10,318,,01,09,245,,15,05,032,*7F

$GPRMC,144914.000,A,4709.3457,N,00138.2808,W,1.99,181.96,180717,,,A*78

$GPVTG,181.96,T,,M,1.99,N,3.69,K,A*37

$GPGGA,144915.000,4709.3454,N,00138.2805,W,1,07,1.19,49.4,M,48.7,M,,*47

$GPGLL,4709.3454,N,00138.2805,W,144915.000,A,A*4E

$GPGSA,A,3,10,07,18,21,27,08,16,,,,,,1.45,1.19,0.83*06

$GPGSV,3,1,12,27,78,080,23,08,59,303,19,10,56,103,23,16,39,177,15*7E

$GPGSV,3,2,12,18,39,062,18,11,20,266,,21,17,065,18,07,14,285,16*70

$GPGSV,3,3,12,26,13,167,,30,10,318,,01,09,245,,15,05,032,*7F

$GPRMC,144915.000,A,4709.3454,N,00138.2805,W,1.91,181.12,180717,,,A*73

$GPVTG,181.12,T,,M,1.91,N,3.53,K,A*3A

$GPGGA,144916.000,4709.3452,N,00138.2805,W,1,07,1.19,49.3,M,48.7,M,,*45

$GPGLL,4709.3452,N,00138.2805,W,144916.000,A,A*4B

$GPGSA,A,3,10,07,18,21,27,08,16,,,,,,1.45,1.19,0.83*06

$GPGSV,3,1,12,27,78,080,23,08,59,303,19,10,56,103,23,16,39,177,15*7E

$GPGSV,3,2,12,18,39,062,17,11,20,266,,21,17,065,18,07,14,285,16*7F

$GPGSV,3,3,12,26,13,167,,30,10,318,,01,09,245,,15,05,032,*7F

$GPRMC,144916.000,A,4709.3452,N,00138.2805,W,1.83,182.51,180717,,,A*71

$GPVTG,182.51,T,,M,1.83,N,3.40,K,A*3F

$GPGGA,144917.000,4709.3444,N,00138.2808,W,1,07,1.19,49.3,M,48.7,M,,*4E

$GPGLL,4709.3444,N,00138.2808,W,144917.000,A,A*40

$GPGSA,A,3,10,07,18,21,27,08,16,,,,,,1.45,1.19,0.83*06

$GPGSV,3,1,12,27,78,080,23,08,59,303,19,10,56,103,23,16,39,177,14*7F

$GPGSV,3,2,12,18,39,062,17,11,20,266,,21,17,065,18,07,14,285,16*7F

$GPGSV,3,3,12,26,13,167,,30,10,318,,01,09,245,,15,05,032,*7F

$GPRMC,144917.000,A,4709.3444,N,00138.2808,W,1.85,184.93,180717,,,A*74

$GPVTG,184.93,T,,M,1.85,N,3.42,K,A*33

$GPGGA,144918.000,4709.3439,N,00138.2807,W,1,07,1.19,49.3,M,48.7,M,,*44

$GPGLL,4709.3439,N,00138.2807,W,144918.000,A,A*4A

$GPGSA,A,3,10,07,18,21,27,08,16,,,,,,1.45,1.19,0.83*06

$GPGSV,3,1,12,27,78,080,23,08,59,303,19,10,56,103,23,16,39,177,13*78

$GPGSV,3,2,12,18,39,062,17,11,20,266,,21,17,065,18,07,14,285,16*7F

$GPGSV,3,3,12,26,13,167,,30,10,318,,01,09,245,,15,05,032,*7F

$GPRMC,144918.000,A,4709.3439,N,00138.2807,W,1.82,186.07,180717,,,A*76

$GPVTG,186.07,T,,M,1.82,N,3.37,K,A*39

$GPGGA,144919.000,4709.3435,N,00138.2808,W,1,07,1.19,49.2,M,48.7,M,,*47

$GPGLL,4709.3435,N,00138.2808,W,144919.000,A,A*48

$GPGSA,A,3,10,07,18,21,27,08,16,,,,,,1.45,1.19,0.83*06

$GPGSV,3,1,12,27,78,080,23,08,59,303,18,10,56,103,24,16,39,177,12*7F

$GPGSV,3,2,12,18,39,062,17,11,20,266,,21,17,065,18,07,14,285,16*7F

$GPGSV,3,3,12,26,13,167,,30,10,318,,01,09,245,,15,05,032,*7F

$GPRMC,144919.000,A,4709.3435,N,00138.2808,W,1.76,188.71,180717,,,A*70

$GPVTG,188.71,T,,M,1.76,N,3.25,K,A*3E

$GPGGA,144920.000,4709.3431,N,00138.2808,W,1,07,1.19,49.1,M,48.7,M,,*4A

$GPGLL,4709.3431,N,00138.2808,W,144920.000,A,A*46

$GPGSA,A,3,10,07,18,21,27,08,16,,,,,,1.45,1.19,0.83*06

$GPGSV,3,1,12,27,78,080,23,08,59,303,18,10,56,103,24,16,39,177,16*7B

$GPGSV,3,2,12,18,39,062,17,11,20,266,,21,17,065,18,07,14,285,16*7F

$GPGSV,3,3,12,26,13,167,,30,10,318,,01,09,245,,15,05,032,*7F

$GPRMC,144920.000,A,4709.3431,N,00138.2808,W,1.71,190.58,180717,,,A*7B

$GPVTG,190.58,T,,M,1.71,N,3.18,K,A*35

$GPGGA,144921.000,4709.3427,N,00138.2808,W,1,07,1.19,49.0,M,48.7,M,,*4D

$GPGLL,4709.3427,N,00138.2808,W,144921.000,A,A*40

$GPGSA,A,3,10,07,18,21,27,08,16,,,,,,1.45,1.19,0.83*06

$GPGSV,3,1,12,27,78,080,23,08,59,303,18,10,56,103,24,16,39,177,16*7B

$GPGSV,3,2,12,18,39,062,17,11,20,266,,21,17,065,18,07,14,285,16*7F

$GPGSV,3,3,12,26,13,167,,30,10,318,,01,09,245,,15,05,032,*7F

$GPRMC,144921.000,A,4709.3427,N,00138.2808,W,1.65,192.86,180717,,,A*79

$GPVTG,192.86,T,,M,1.65,N,3.06,K,A*3E

$GPGGA,144922.000,4709.3427,N,00138.2807,W,1,07,1.19,48.9,M,48.7,M,,*49

$GPGLL,4709.3427,N,00138.2807,W,144922.000,A,A*4C

$GPGSA,A,3,10,07,18,21,27,08,16,,,,,,1.45,1.19,0.83*06

$GPGSV,3,1,12,27,78,080,23,08,59,303,18,10,56,103,24,16,39,177,16*7B

$GPGSV,3,2,12,18,39,062,17,11,20,266,,21,17,065,18,07,14,284,15*7D

$GPGSV,3,3,12,26,13,167,,30,10,318,,01,09,245,,15,05,032,*7F

$GPRMC,144922.000,A,4709.3427,N,00138.2807,W,1.59,193.02,180717,,,A*77

$GPVTG,193.02,T,,M,1.59,N,2.95,K,A*37

$GPGGA,144923.000,4709.3427,N,00138.2806,W,1,07,1.19,48.9,M,48.7,M,,*49

$GPGLL,4709.3427,N,00138.2806,W,144923.000,A,A*4C

$GPGSA,A,3,10,07,18,21,27,08,16,,,,,,1.45,1.19,0.83*06

$GPGSV,3,1,12,27,78,080,23,08,59,303,19,10,56,103,24,16,39,177,16*7A

$GPGSV,3,2,12,18,39,062,17,11,20,266,,21,17,065,18,07,14,284,15*7D

$GPGSV,3,3,12,26,13,167,,30,10,318,,01,09,245,,15,05,032,*7F

$GPRMC,144923.000,A,4709.3427,N,00138.2806,W,1.50,194.00,180717,,,A*7B

$GPVTG,194.00,T,,M,1.50,N,2.79,K,A*39

$GPGGA,144924.000,4709.3446,N,00138.2800,W,1,07,1.19,49.2,M,48.7,M,,*45

$GPGLL,4709.3446,N,00138.2800,W,144924.000,A,A*4A

$GPGSA,A,3,10,07,18,21,27,08,16,,,,,,1.45,1.19,0.83*06

$GPGSV,3,1,12,27,78,080,23,08,59,303,19,10,56,103,24,16,39,177,15*79

$GPGSV,3,2,12,18,39,062,17,11,20,266,,21,17,065,18,07,14,284,15*7D

$GPGSV,3,3,12,26,13,167,,30,10,318,,01,09,245,,15,05,032,*7F

$GPRMC,144924.000,A,4709.3446,N,00138.2800,W,1.22,194.78,180717,,,A*77

$GPVTG,194.78,T,,M,1.22,N,2.27,K,A*38

$GPGGA,144925.000,4709.3466,N,00138.2792,W,1,07,1.19,49.4,M,48.7,M,,*44

$GPGLL,4709.3466,N,00138.2792,W,144925.000,A,A*4D

$GPGSA,A,3,10,07,18,21,27,08,16,,,,,,1.45,1.19,0.83*06

$GPGSV,3,1,12,27,78,080,23,08,59,303,19,10,56,102,24,16,39,177,15*78

$GPGSV,3,2,12,18,39,062,17,11,20,266,,21,17,065,18,07,14,284,15*7D

$GPGSV,3,3,12,26,13,167,,30,10,318,,01,09,245,,15,05,032,*7F

$GPRMC,144925.000,A,4709.3466,N,00138.2792,W,0.94,192.40,180717,,,A*71

$GPVTG,192.40,T,,M,0.94,N,1.74,K,A*3C

$GPGGA,144926.000,4709.3479,N,00138.2785,W,1,07,1.19,49.6,M,48.7,M,,*4D

$GPGLL,4709.3479,N,00138.2785,W,144926.000,A,A*46

$GPGSA,A,3,10,07,18,21,27,08,16,,,,,,1.45,1.19,0.83*06

$GPGSV,3,1,12,27,78,080,23,08,59,303,19,10,56,102,24,16,39,177,16*7B

$GPGSV,3,2,12,18,39,062,18,11,20,266,,21,17,065,18,07,14,284,15*72

$GPGSV,3,3,12,26,13,167,,30,10,318,,01,09,245,,15,05,032,*7F

$GPRMC,144926.000,A,4709.3479,N,00138.2785,W,0.77,188.06,180717,,,A*7E

$GPVTG,188.06,T,,M,0.77,N,1.42,K,A*3D

$GPGGA,144927.000,4709.3493,N,00138.2778,W,1,07,1.19,49.8,M,48.7,M,,*44

$GPGLL,4709.3493,N,00138.2778,W,144927.000,A,A*41

$GPGSA,A,3,10,07,18,21,27,08,16,,,,,,1.45,1.19,0.83*06

$GPGSV,3,1,12,27,78,080,23,08,59,303,19,10,56,102,24,16,39,177,16*7B

$GPGSV,3,2,12,18,39,062,18,11,20,266,,21,17,065,18,07,14,284,15*72

$GPGSV,3,3,12,26,13,167,,30,10,318,,01,09,245,,15,05,032,*7F

$GPRMC,144927.000,A,4709.3493,N,00138.2778,W,0.58,180.77,180717,,,A*7A

$GPVTG,180.77,T,,M,0.58,N,1.08,K,A*30

$GPGGA,144928.000,4709.3502,N,00138.2774,W,1,07,1.19,50.0,M,48.7,M,,*4E

$GPGLL,4709.3502,N,00138.2774,W,144928.000,A,A*4B

$GPGSA,A,3,10,07,18,21,27,08,16,,,,,,1.45,1.19,0.83*06

$GPGSV,3,1,12,27,78,080,23,08,59,303,19,10,56,102,24,16,39,177,16*7B

$GPGSV,3,2,12,18,39,062,18,11,20,266,,21,17,065,18,07,14,284,15*72

$GPGSV,3,3,12,26,13,167,,30,10,318,,01,09,245,,15,05,032,*7F

$GPRMC,144928.000,A,4709.3502,N,00138.2774,W,0.45,181.43,180717,,,A*7A

$GPVTG,181.43,T,,M,0.45,N,0.83,K,A*38

$GPGGA,144929.000,4709.3508,N,00138.2769,W,1,07,1.19,50.1,M,48.7,M,,*48

$GPGLL,4709.3508,N,00138.2769,W,144929.000,A,A*4C

$GPGSA,A,3,10,07,18,21,27,08,16,,,,,,1.45,1.19,0.83*06

$GPGSV,3,1,12,27,78,080,23,08,59,303,19,10,56,102,24,16,39,177,17*7A

$GPGSV,3,2,12,18,39,062,18,11,20,266,,21,17,065,18,07,14,284,15*72

$GPGSV,3,3,12,26,13,167,,30,10,318,,01,09,245,,15,05,032,*7F

$GPRMC,144929.000,A,4709.3508,N,00138.2769,W,0.25,179.91,180717,,,A*73

$GPVTG,179.91,T,,M,0.25,N,0.47,K,A*3E

$GPGGA,144930.000,4709.3515,N,00138.2764,W,1,07,1.19,50.1,M,48.7,M,,*41

$GPGLL,4709.3515,N,00138.2764,W,144930.000,A,A*45

$GPGSA,A,3,10,07,18,21,27,08,16,,,,,,1.45,1.19,0.83*06

$GPGSV,3,1,12,27,78,080,23,08,59,303,19,10,56,102,24,16,39,177,17*7A

$GPGSV,3,2,12,18,39,062,18,11,20,266,,21,17,065,18,07,14,284,15*72

$GPGSV,3,3,12,26,13,167,,30,10,318,,01,09,245,,15,05,032,*7F

$GPRMC,144930.000,A,4709.3515,N,00138.2764,W,0.17,166.08,180717,,,A*75

$GPVTG,166.08,T,,M,0.17,N,0.31,K,A*30

$GPGGA,144931.000,4709.3523,N,00138.2758,W,1,07,1.19,50.1,M,48.7,M,,*4A

$GPGLL,4709.3523,N,00138.2758,W,144931.000,A,A*4E

$GPGSA,A,3,10,07,18,21,27,08,16,,,,,,1.45,1.19,0.83*06

$GPGSV,3,1,12,27,78,080,23,08,59,303,19,10,56,102,24,16,39,177,17*7A

$GPGSV,3,2,12,18,39,062,18,11,20,266,,21,17,065,18,07,14,284,16*71

$GPGSV,3,3,12,26,13,167,,30,10,318,,01,09,245,,15,05,032,*7F

$GPRMC,144931.000,A,4709.3523,N,00138.2758,W,0.09,108.91,180717,,,A*79

$GPVTG,108.91,T,,M,0.09,N,0.16,K,A*32

$GPGGA,144932.000,4709.3523,N,00138.2757,W,1,07,1.19,50.1,M,48.7,M,,*46

$GPGLL,4709.3523,N,00138.2757,W,144932.000,A,A*42

$GPGSA,A,3,10,07,18,21,27,08,16,,,,,,1.45,1.19,0.83*06

$GPGSV,3,1,12,27,78,080,23,08,59,303,19,10,56,102,24,16,39,177,17*7A

$GPGSV,3,2,12,18,39,062,18,11,20,266,,21,17,065,18,07,14,284,14*73

$GPGSV,3,3,12,26,13,167,,30,10,318,,01,09,245,,15,05,032,*7F

$GPRMC,144932.000,A,4709.3523,N,00138.2757,W,0.20,61.26,180717,,,A*4C

$GPVTG,61.26,T,,M,0.20,N,0.38,K,A*07

$GPGGA,144933.000,4709.3523,N,00138.2756,W,1,07,1.19,50.1,M,48.7,M,,*46

$GPGLL,4709.3523,N,00138.2756,W,144933.000,A,A*42

$GPGSA,A,3,10,07,18,21,27,08,16,,,,,,1.45,1.19,0.83*06

$GPGSV,3,1,12,27,78,080,23,08,59,303,19,10,56,102,24,16,39,177,17*7A

$GPGSV,3,2,12,18,39,062,17,11,20,266,,21,17,065,18,07,14,284,15*7D

$GPGSV,3,3,12,26,13,167,,30,10,318,,01,09,245,,15,05,032,*7F

$GPRMC,144933.000,A,4709.3523,N,00138.2756,W,0.35,40.61,180717,,,A*48

$GPVTG,40.61,T,,M,0.35,N,0.65,K,A*0B

$GPGGA,144934.000,4709.3524,N,00138.2755,W,1,07,1.19,50.1,M,48.7,M,,*45

$GPGLL,4709.3524,N,00138.2755,W,144934.000,A,A*41

$GPGSA,A,3,10,07,18,21,27,08,16,,,,,,1.45,1.19,0.83*06

$GPGSV,3,1,12,27,78,080,23,08,59,303,19,10,56,102,24,16,39,177,17*7A

$GPGSV,3,2,12,18,39,062,17,11,20,266,,21,17,065,18,07,14,284,14*7C

$GPGSV,3,3,12,26,13,167,,30,10,318,,01,09,245,,15,05,032,*7F

$GPRMC,144934.000,A,4709.3524,N,00138.2755,W,0.46,34.41,180717,,,A*4E

$GPVTG,34.41,T,,M,0.46,N,0.85,K,A*00

$GPGGA,144935.000,4709.3525,N,00138.2754,W,1,07,1.19,50.1,M,48.7,M,,*44

$GPGLL,4709.3525,N,00138.2754,W,144935.000,A,A*40

$GPGSA,A,3,10,07,18,21,27,08,16,,,,,,1.45,1.19,0.83*06

$GPGSV,3,1,12,27,78,080,23,08,59,303,19,10,56,102,24,16,39,177,17*7A

$GPGSV,3,2,12,18,39,062,17,11,20,266,,21,17,065,18,07,14,284,17*7F

$GPGSV,3,3,12,26,13,167,,30,10,318,,01,09,245,,15,05,032,*7F

$GPRMC,144935.000,A,4709.3525,N,00138.2754,W,0.39,35.31,180717,,,A*41

$GPVTG,35.31,T,,M,0.39,N,0.72,K,A*06

$GPGGA,144936.000,4709.3526,N,00138.2753,W,1,07,1.19,50.1,M,48.7,M,,*43

$GPGLL,4709.3526,N,00138.2753,W,144936.000,A,A*47

$GPGSA,A,3,10,07,18,21,27,08,16,,,,,,1.45,1.19,0.83*06

$GPGSV,3,1,12,27,78,080,23,08,59,303,19,10,56,102,24,16,39,177,17*7A

$GPGSV,3,2,12,18,39,062,17,11,20,266,,21,17,065,18,07,14,284,17*7F

$GPGSV,3,3,12,26,13,167,,30,10,318,,01,09,245,,15,05,032,*7F

$GPRMC,144936.000,A,4709.3526,N,00138.2753,W,0.36,42.34,180717,,,A*4C

$GPVTG,42.34,T,,M,0.36,N,0.66,K,A*09

$GPGGA,144937.000,4709.3527,N,00138.2752,W,1,07,1.19,50.1,M,48.7,M,,*42

$GPGLL,4709.3527,N,00138.2752,W,144937.000,A,A*46

$GPGSA,A,3,10,07,18,21,27,08,16,,,,,,1.45,1.19,0.83*06

$GPGSV,3,1,12,27,78,080,23,08,59,303,19,10,56,102,24,16,39,177,17*7A

$GPGSV,3,2,12,18,39,062,17,11,20,266,,21,17,065,18,07,14,284,15*7D

$GPGSV,3,3,12,26,13,167,,30,10,318,,01,09,245,,15,05,032,*7F

$GPRMC,144937.000,A,4709.3527,N,00138.2752,W,0.33,62.66,180717,,,A*4D

$GPVTG,62.66,T,,M,0.33,N,0.61,K,A*0E

$GPGGA,144938.000,4709.3527,N,00138.2751,W,1,07,1.19,50.1,M,48.7,M,,*4E

$GPGLL,4709.3527,N,00138.2751,W,144938.000,A,A*4A

$GPGSA,A,3,10,07,18,21,27,08,16,,,,,,1.45,1.19,0.83*06

$GPGSV,3,1,12,27,78,080,23,08,59,303,19,10,56,102,24,16,39,177,17*7A

$GPGSV,3,2,12,18,39,062,17,11,20,266,,21,17,065,18,07,14,284,14*7C

$GPGSV,3,3,12,26,13,167,,30,10,318,,01,09,245,,15,05,032,*7F

$GPRMC,144938.000,A,4709.3527,N,00138.2751,W,0.37,88.82,180717,,,A*4B

$GPVTG,88.82,T,,M,0.37,N,0.69,K,A*0C

$GPGGA,144939.000,4709.3527,N,00138.2749,W,1,07,1.19,50.1,M,48.7,M,,*46

$GPGLL,4709.3527,N,00138.2749,W,144939.000,A,A*42

$GPGSA,A,3,10,07,18,21,27,08,16,,,,,,1.45,1.19,0.83*06

$GPGSV,3,1,12,27,78,080,23,08,59,303,19,10,56,102,24,16,39,177,18*75

$GPGSV,3,2,12,18,39,062,17,11,20,266,,21,17,065,18,07,14,284,14*7C

$GPGSV,3,3,12,26,13,167,,30,10,318,,01,09,245,,15,05,032,*7F

$GPRMC,144939.000,A,4709.3527,N,00138.2749,W,0.54,72.91,180717,,,A*41

$GPVTG,72.91,T,,M,0.54,N,1.00,K,A*00

$GPGGA,144940.000,4709.3528,N,00138.2747,W,1,07,1.19,50.1,M,48.7,M,,*49

$GPGLL,4709.3528,N,00138.2747,W,144940.000,A,A*4D

$GPGSA,A,3,10,07,18,21,27,08,16,,,,,,1.45,1.19,0.83*06

$GPGSV,3,1,12,27,78,080,23,08,59,303,19,10,56,102,24,16,39,177,18*75

$GPGSV,3,2,12,18,39,062,17,11,20,266,,21,17,065,18,07,14,284,16*7E

$GPGSV,3,3,12,26,13,167,,30,10,318,,01,09,245,,15,05,032,*7F

$GPRMC,144940.000,A,4709.3528,N,00138.2747,W,0.75,72.46,180717,,,A*47

$GPVTG,72.46,T,,M,0.75,N,1.39,K,A*03

$GPGGA,144941.000,4709.3537,N,00138.2732,W,1,07,1.19,50.3,M,48.7,M,,*46

$GPGLL,4709.3537,N,00138.2732,W,144941.000,A,A*40

$GPGSA,A,3,10,07,18,21,27,08,16,,,,,,1.45,1.19,0.83*06

$GPGSV,3,1,12,27,78,080,23,08,59,303,19,10,56,102,24,16,39,177,18*75

$GPGSV,3,2,12,18,39,062,17,11,20,266,,21,17,065,17,07,14,284,14*73

$GPGSV,3,3,12,26,13,167,,30,10,318,,01,09,245,,15,05,032,*7F

$GPRMC,144941.000,A,4709.3537,N,00138.2732,W,0.93,72.36,180717,,,A*45

$GPVTG,72.36,T,,M,0.93,N,1.73,K,A*02

$GPGGA,144942.000,4709.3544,N,00138.2722,W,1,08,0.96,50.4,M,48.7,M,,*4E

$GPGLL,4709.3544,N,00138.2722,W,144942.000,A,A*46

$GPGSA,A,3,26,10,07,18,21,27,08,16,,,,,1.24,0.96,0.79*06

$GPGSV,3,1,12,27,78,081,23,08,59,303,18,10,56,102,24,16,39,177,18*75

$GPGSV,3,2,12,18,39,062,17,11,20,266,,21,17,065,17,07,14,284,14*73

$GPGSV,3,3,12,26,13,167,14,30,10,318,,01,09,245,,15,05,032,*7A

$GPRMC,144942.000,A,4709.3544,N,00138.2722,W,0.99,71.40,180717,,,A*4B

$GPVTG,71.40,T,,M,0.99,N,1.83,K,A*05

$GPGGA,144943.000,4709.3550,N,00138.2715,W,1,08,0.96,50.6,M,48.7,M,,*4C

$GPGLL,4709.3550,N,00138.2715,W,144943.000,A,A*46

$GPGSA,A,3,26,10,07,18,21,27,08,16,,,,,1.24,0.96,0.79*06

$GPGSV,3,1,12,27,78,081,23,08,59,303,18,10,56,102,24,16,39,177,18*75

$GPGSV,3,2,12,18,39,062,17,11,20,266,,21,17,065,17,07,14,284,14*73

$GPGSV,3,3,12,26,13,167,12,30,10,318,,01,09,245,,15,05,032,*7C

$GPRMC,144943.000,A,4709.3550,N,00138.2715,W,1.01,68.97,180717,,,A*49

$GPVTG,68.97,T,,M,1.01,N,1.86,K,A*02

$GPGGA,144944.000,4709.3554,N,00138.2708,W,1,08,0.96,50.7,M,48.7,M,,*42

$GPGLL,4709.3554,N,00138.2708,W,144944.000,A,A*49

$GPGSA,A,3,26,10,07,18,21,27,08,16,,,,,1.24,0.96,0.79*06

$GPGSV,3,1,12,27,78,081,23,08,59,303,18,10,56,102,23,16,39,177,18*72

$GPGSV,3,2,12,18,39,062,16,11,20,266,,21,17,065,17,07,14,284,13*75

$GPGSV,3,3,12,26,13,167,12,30,10,318,,01,09,245,,15,05,032,*7C

$GPRMC,144944.000,A,4709.3554,N,00138.2708,W,1.02,67.62,180717,,,A*40

$GPVTG,67.62,T,,M,1.02,N,1.89,K,A*0B

$GPGGA,144945.000,4709.3558,N,00138.2702,W,1,08,0.96,50.8,M,48.7,M,,*4A

$GPGLL,4709.3558,N,00138.2702,W,144945.000,A,A*4E

$GPGSA,A,3,26,10,07,18,21,27,08,16,,,,,1.24,0.96,0.79*06

$GPGSV,3,1,12,27,78,081,23,08,59,303,18,10,56,102,23,16,39,177,18*72

$GPGSV,3,2,12,18,39,062,16,11,20,266,,21,17,065,17,07,14,284,15*73

$GPGSV,3,3,12,26,13,167,12,30,10,318,,01,09,245,,15,05,032,*7C

$GPRMC,144945.000,A,4709.3558,N,00138.2702,W,1.05,67.27,180717,,,A*41

$GPVTG,67.27,T,,M,1.05,N,1.94,K,A*01

$GPGGA,144946.000,4709.3565,N,00138.2692,W,1,08,0.96,51.0,M,48.7,M,,*46

$GPGLL,4709.3565,N,00138.2692,W,144946.000,A,A*4B

$GPGSA,A,3,26,10,07,18,21,27,08,16,,,,,1.24,0.96,0.79*06

$GPGSV,3,1,12,27,78,081,23,08,59,303,18,10,56,102,23,16,39,177,18*72

$GPGSV,3,2,12,18,39,062,16,11,20,266,,21,17,065,17,07,14,284,14*72

$GPGSV,3,3,12,26,13,167,12,30,10,318,,01,09,245,,15,05,032,*7C

$GPRMC,144946.000,A,4709.3565,N,00138.2692,W,1.12,65.27,180717,,,A*40

$GPVTG,65.27,T,,M,1.12,N,2.08,K,A*03

$GPGGA,144947.000,4709.3571,N,00138.2688,W,1,08,0.96,51.2,M,48.7,M,,*4B

$GPGLL,4709.3571,N,00138.2688,W,144947.000,A,A*44

$GPGSA,A,3,26,10,07,18,21,27,08,16,,,,,1.24,0.96,0.79*06

$GPGSV,3,1,12,27,78,081,23,08,59,303,18,10,56,102,23,16,39,177,18*72

$GPGSV,3,2,12,18,39,062,16,11,20,266,,21,17,065,17,07,14,284,13*75

$GPGSV,3,3,12,26,13,167,13,30,10,318,,01,09,245,,15,05,032,*7D

$GPRMC,144947.000,A,4709.3571,N,00138.2688,W,1.11,62.51,180717,,,A*4A

$GPVTG,62.51,T,,M,1.11,N,2.06,K,A*08

$GPGGA,144948.000,4709.3574,N,00138.2683,W,1,08,0.96,51.4,M,48.7,M,,*4C

$GPGLL,4709.3574,N,00138.2683,W,144948.000,A,A*45

$GPGSA,A,3,26,10,07,18,21,27,08,16,,,,,1.24,0.96,0.79*06

$GPGSV,3,1,12,27,78,081,23,08,59,303,18,10,56,102,23,16,39,177,18*72

$GPGSV,3,2,12,18,39,062,16,11,20,266,,21,17,065,17,07,14,284,12*74

$GPGSV,3,3,12,26,13,167,14,30,10,318,,01,09,245,,15,05,032,*7A

$GPRMC,144948.000,A,4709.3574,N,00138.2683,W,1.08,62.46,180717,,,A*45

$GPVTG,62.46,T,,M,1.08,N,2.00,K,A*00

$GPGGA,144949.000,4709.3581,N,00138.2679,W,1,08,0.96,51.6,M,48.7,M,,*40

$GPGLL,4709.3581,N,00138.2679,W,144949.000,A,A*4B

$GPGSA,A,3,26,10,07,18,21,27,08,16,,,,,1.24,0.96,0.79*06

$GPGSV,3,1,12,27,78,081,23,08,59,303,18,10,56,102,23,16,39,177,18*72

$GPGSV,3,2,12,18,39,062,16,11,20,266,,21,17,065,17,07,14,284,14*72

$GPGSV,3,3,12,26,13,167,14,30,10,318,,01,09,245,,15,05,032,*7A

$GPRMC,144949.000,A,4709.3581,N,00138.2679,W,1.07,58.83,180717,,,A*44

$GPVTG,58.83,T,,M,1.07,N,1.98,K,A*0D

$GPGGA,144950.000,4709.3585,N,00138.2672,W,1,08,0.96,51.7,M,48.7,M,,*46

$GPGLL,4709.3585,N,00138.2672,W,144950.000,A,A*4C

$GPGSA,A,3,26,10,07,18,21,27,08,16,,,,,1.24,0.96,0.79*06

$GPGSV,3,1,12,27,78,081,23,08,59,303,18,10,56,102,23,16,39,177,18*72

$GPGSV,3,2,12,18,39,062,16,11,20,266,,21,17,065,17,07,14,284,13*75

$GPGSV,3,3,12,26,13,167,14,30,10,318,,01,09,245,,15,05,032,*7A

$GPRMC,144950.000,A,4709.3585,N,00138.2672,W,1.03,59.07,180717,,,A*4A

$GPVTG,59.07,T,,M,1.03,N,1.91,K,A*0D

$GPGGA,144951.000,4709.3590,N,00138.2667,W,1,08,0.96,51.9,M,48.7,M,,*49

$GPGLL,4709.3590,N,00138.2667,W,144951.000,A,A*4D

$GPGSA,A,3,26,10,07,18,21,27,08,16,,,,,1.24,0.96,0.79*06

$GPGSV,3,1,12,27,78,081,23,08,59,303,18,10,56,102,23,16,39,177,18*72

$GPGSV,3,2,12,18,39,062,16,11,20,266,,21,17,065,17,07,14,284,13*75

$GPGSV,3,3,12,26,13,167,14,30,10,318,,01,09,245,,15,05,032,*7A

$GPRMC,144951.000,A,4709.3590,N,00138.2667,W,1.02,58.83,180717,,,A*47

$GPVTG,58.83,T,,M,1.02,N,1.90,K,A*00

$GPGGA,144952.000,4709.3598,N,00138.2661,W,1,08,0.96,52.1,M,48.7,M,,*4F

$GPGLL,4709.3598,N,00138.2661,W,144952.000,A,A*40

$GPGSA,A,3,26,10,07,18,21,27,08,16,,,,,1.24,0.96,0.79*06

$GPGSV,3,1,12,27,78,081,23,08,59,303,18,10,56,102,23,16,39,177,18*72

$GPGSV,3,2,12,18,39,062,16,11,20,266,,21,17,065,16,07,14,284,14*73

$GPGSV,3,3,12,26,13,167,15,30,10,318,,01,09,245,,15,05,032,*7B

$GPRMC,144952.000,A,4709.3598,N,00138.2661,W,1.08,56.54,180717,,,A*44

$GPVTG,56.54,T,,M,1.08,N,2.00,K,A*04

$GPGGA,144953.000,4709.3602,N,00138.2651,W,1,08,0.96,52.3,M,48.7,M,,*4F

$GPGLL,4709.3602,N,00138.2651,W,144953.000,A,A*42

$GPGSA,A,3,26,10,07,18,21,27,08,16,,,,,1.24,0.96,0.79*06

$GPGSV,3,1,12,27,78,081,23,08,59,303,18,10,56,102,23,16,39,177,18*72

$GPGSV,3,2,12,18,39,062,16,11,20,266,,21,17,065,16,07,14,284,16*71

$GPGSV,3,3,12,26,13,167,14,30,10,318,,01,09,245,,15,05,032,*7A

$GPRMC,144953.000,A,4709.3602,N,00138.2651,W,1.11,57.67,180717,,,A*4F

$GPVTG,57.67,T,,M,1.11,N,2.06,K,A*0B

$GPGGA,144954.000,4709.3603,N,00138.2644,W,1,08,0.96,52.5,M,48.7,M,,*4B

$GPGLL,4709.3603,N,00138.2644,W,144954.000,A,A*40

$GPGSA,A,3,26,10,07,18,21,27,08,16,,,,,1.24,0.96,0.79*06

$GPGSV,3,1,12,27,78,081,21,08,59,303,18,10,56,102,23,16,39,177,18*70

$GPGSV,3,2,12,18,39,062,16,11,20,266,,21,17,065,16,07,14,284,13*74

$GPGSV,3,3,12,26,13,167,14,30,10,318,,01,09,245,,15,05,032,*7A

$GPRMC,144954.000,A,4709.3603,N,00138.2644,W,1.08,60.35,180717,,,A*46

$GPVTG,60.35,T,,M,1.08,N,2.00,K,A*06

$GPGGA,144955.000,4709.3603,N,00138.2639,W,1,08,0.96,52.6,M,48.7,M,,*43

$GPGLL,4709.3603,N,00138.2639,W,144955.000,A,A*4B

$GPGSA,A,3,26,10,07,18,21,27,08,16,,,,,1.24,0.96,0.79*06

$GPGSV,3,1,12,27,78,081,20,08,59,303,17,10,56,102,23,16,39,177,18*7E

$GPGSV,3,2,12,18,39,062,16,11,20,266,,21,17,065,16,07,14,284,13*74

$GPGSV,3,3,12,26,13,167,15,30,10,318,,01,09,245,,15,05,032,*7B

$GPRMC,144955.000,A,4709.3603,N,00138.2639,W,1.03,62.73,180717,,,A*46

$GPVTG,62.73,T,,M,1.03,N,1.91,K,A*06

$GPGGA,144956.000,4709.3604,N,00138.2631,W,1,08,0.96,52.9,M,48.7,M,,*40

$GPGLL,4709.3604,N,00138.2631,W,144956.000,A,A*47

$GPGSA,A,3,26,10,07,18,21,27,08,16,,,,,1.24,0.96,0.79*06

$GPGSV,3,1,12,27,78,081,20,08,59,303,17,10,56,102,23,16,39,177,18*7E

$GPGSV,3,2,12,18,39,062,15,11,20,266,,21,17,065,16,07,14,284,15*71

$GPGSV,3,3,12,26,13,167,13,30,10,318,,01,09,245,,15,05,032,*7D

$GPRMC,144956.000,A,4709.3604,N,00138.2631,W,1.03,64.24,180717,,,A*4E

$GPVTG,64.24,T,,M,1.03,N,1.90,K,A*03

$GPGGA,144957.000,4709.3605,N,00138.2622,W,1,08,0.96,53.1,M,48.7,M,,*4B

$GPGLL,4709.3605,N,00138.2622,W,144957.000,A,A*45

$GPGSA,A,3,26,10,07,18,21,27,08,16,,,,,1.24,0.96,0.79*06

$GPGSV,3,1,12,27,78,081,20,08,59,303,17,10,56,102,23,16,39,177,18*7E

$GPGSV,3,2,12,18,39,062,15,11,20,266,,21,17,065,16,07,14,284,15*71

$GPGSV,3,3,12,26,13,167,13,30,10,318,,01,09,245,,15,05,032,*7D

$GPRMC,144957.000,A,4709.3605,N,00138.2622,W,1.04,65.97,180717,,,A*42

$GPVTG,65.97,T,,M,1.04,N,1.94,K,A*09

$GPGGA,144958.000,4709.3611,N,00138.2619,W,1,08,0.96,53.3,M,48.7,M,,*4B

$GPGLL,4709.3611,N,00138.2619,W,144958.000,A,A*47

$GPGSA,A,3,26,10,07,18,21,27,08,16,,,,,1.24,0.96,0.79*06

$GPGSV,3,1,12,27,78,081,21,08,60,303,17,10,56,102,23,16,39,177,18*75

$GPGSV,3,2,12,18,39,062,14,11,20,266,,21,17,065,16,07,14,284,15*70

$GPGSV,3,3,12,26,13,167,14,30,10,318,,01,09,245,,15,05,032,*7A

$GPRMC,144958.000,A,4709.3611,N,00138.2619,W,1.04,62.15,180717,,,A*4D

$GPVTG,62.15,T,,M,1.04,N,1.92,K,A*02

$GPGGA,144959.000,4709.3616,N,00138.2612,W,1,08,0.96,53.5,M,48.7,M,,*40

$GPGLL,4709.3616,N,00138.2612,W,144959.000,A,A*4A

$GPGSA,A,3,26,10,07,18,21,27,08,16,,,,,1.24,0.96,0.79*06

$GPGSV,3,1,12,27,78,081,20,08,60,303,17,10,56,102,23,16,39,177,18*74

$GPGSV,3,2,12,18,39,062,15,11,20,266,,21,17,065,16,07,14,284,16*72

$GPGSV,3,3,12,26,13,167,14,30,10,318,,01,09,245,,15,05,032,*7A

$GPRMC,144959.000,A,4709.3616,N,00138.2612,W,1.08,59.19,180717,,,A*48

$GPVTG,59.19,T,,M,1.08,N,2.00,K,A*02

$GPGGA,145000.000,4709.3620,N,00138.2611,W,1,08,0.96,53.6,M,48.7,M,,*41

$GPGLL,4709.3620,N,00138.2611,W,145000.000,A,A*48

$GPGSA,A,3,26,10,07,18,21,27,08,16,,,,,1.24,0.96,0.79*06

$GPGSV,3,1,12,27,78,081,20,08,60,303,17,10,56,102,23,16,39,177,18*74

$GPGSV,3,2,12,18,39,062,15,11,20,266,,21,17,065,15,07,14,284,15*72

$GPGSV,3,3,12,26,13,167,14,30,10,318,,01,09,245,,15,05,032,*7A

$GPRMC,145000.000,A,4709.3620,N,00138.2611,W,1.03,54.28,180717,,,A*4E

$GPVTG,54.28,T,,M,1.03,N,1.90,K,A*0C

$GPGGA,145001.000,4709.3621,N,00138.2607,W,1,08,0.96,53.8,M,48.7,M,,*48

$GPGLL,4709.3621,N,00138.2607,W,145001.000,A,A*4F

$GPGSA,A,3,26,10,07,18,21,27,08,16,,,,,1.24,0.96,0.79*06

$GPGSV,3,1,12,27,78,081,20,08,60,303,17,10,56,102,23,16,39,177,18*74

$GPGSV,3,2,12,18,39,062,17,11,21,266,,21,17,065,15,07,14,284,16*72

$GPGSV,3,3,12,26,13,167,12,30,10,318,,01,09,245,,15,05,032,*7C

$GPRMC,145001.000,A,4709.3621,N,00138.2607,W,0.98,52.75,180717,,,A*44

$GPVTG,52.75,T,,M,0.98,N,1.82,K,A*02

$GPGGA,145002.000,4709.3618,N,00138.2601,W,1,08,0.96,53.9,M,48.7,M,,*46

$GPGLL,4709.3618,N,00138.2601,W,145002.000,A,A*40

$GPGSA,A,3,26,10,07,18,21,27,08,16,,,,,1.24,0.96,0.79*06

$GPGSV,3,1,12,27,78,081,20,08,60,303,17,10,56,102,23,16,39,177,18*74

$GPGSV,3,2,12,18,39,062,17,11,21,266,,21,17,065,16,07,14,284,14*73

$GPGSV,3,3,12,26,13,167,15,30,10,318,,01,09,245,,15,05,032,*7B

$GPRMC,145002.000,A,4709.3618,N,00138.2601,W,0.91,59.49,180717,,,A*46

$GPVTG,59.49,T,,M,0.91,N,1.69,K,A*0A

$GPGGA,145003.000,4709.3613,N,00138.2595,W,1,08,0.96,54.1,M,48.7,M,,*4D

$GPGLL,4709.3613,N,00138.2595,W,145003.000,A,A*44

$GPGSA,A,3,26,10,07,18,21,27,08,16,,,,,1.24,0.96,0.79*06

$GPGSV,3,1,12,27,78,081,20,08,60,303,17,10,56,102,23,16,39,177,18*74

$GPGSV,3,2,12,18,39,062,17,11,21,266,,21,17,065,16,07,14,284,16*71

$GPGSV,3,3,12,26,13,167,13,30,10,318,,01,09,245,,15,05,032,*7D

$GPRMC,145003.000,A,4709.3613,N,00138.2595,W,0.86,69.46,180717,,,A*48

$GPVTG,69.46,T,,M,0.86,N,1.60,K,A*09

$GPGGA,145004.000,4709.3609,N,00138.2590,W,1,08,0.96,54.3,M,48.7,M,,*46

$GPGLL,4709.3609,N,00138.2590,W,145004.000,A,A*4D

$GPGSA,A,3,26,10,07,18,21,27,08,16,,,,,1.24,0.96,0.79*06

$GPGSV,3,1,12,27,78,081,20,08,60,303,17,10,56,102,23,16,39,177,18*74

$GPGSV,3,2,12,18,39,062,16,11,21,266,,21,17,065,16,07,14,284,15*73

$GPGSV,3,3,12,26,13,167,12,30,10,318,,01,09,245,,15,05,032,*7C

$GPRMC,145004.000,A,4709.3609,N,00138.2590,W,0.88,77.75,180717,,,A*40

$GPVTG,77.75,T,,M,0.88,N,1.63,K,A*0B

$GPGGA,145005.000,4709.3605,N,00138.2586,W,1,08,0.96,54.5,M,48.7,M,,*4A

$GPGLL,4709.3605,N,00138.2586,W,145005.000,A,A*47

$GPGSA,A,3,26,10,07,18,21,27,08,16,,,,,1.24,0.96,0.79*06

$GPGSV,3,1,12,27,78,081,20,08,60,303,17,10,56,102,23,16,39,177,18*74

$GPGSV,3,2,12,18,39,062,16,11,21,266,,21,17,065,16,07,14,284,15*73

$GPGSV,3,3,12,26,13,167,12,30,10,318,,01,09,245,,15,05,032,*7C

$GPRMC,145005.000,A,4709.3605,N,00138.2586,W,0.89,83.12,180717,,,A*41

$GPVTG,83.12,T,,M,0.89,N,1.65,K,A*06

$GPGGA,145006.000,4709.3605,N,00138.2579,W,1,08,0.96,54.6,M,48.7,M,,*4A

$GPGLL,4709.3605,N,00138.2579,W,145006.000,A,A*44

$GPGSA,A,3,26,10,07,18,21,27,08,16,,,,,1.24,0.96,0.79*06

$GPGSV,3,1,12,27,78,081,19,08,60,303,17,10,56,102,23,16,39,177,18*7E

$GPGSV,3,2,12,18,39,062,16,11,21,266,,21,17,065,14,07,14,284,16*72

$GPGSV,3,3,12,26,13,167,13,30,10,318,,01,09,245,,15,05,032,*7D

$GPRMC,145006.000,A,4709.3605,N,00138.2579,W,0.92,81.74,180717,,,A*4A

$GPVTG,81.74,T,,M,0.92,N,1.71,K,A*0B

$GPGGA,145007.000,4709.3605,N,00138.2571,W,1,08,0.96,54.8,M,48.7,M,,*4D

$GPGLL,4709.3605,N,00138.2571,W,145007.000,A,A*4D

$GPGSA,A,3,26,10,07,18,21,27,08,16,,,,,1.24,0.96,0.79*06

$GPGSV,3,1,12,27,78,081,19,08,60,303,17,10,56,102,23,16,39,177,18*7E

$GPGSV,3,2,12,18,39,062,16,11,21,266,,21,17,065,13,07,14,284,14*77

$GPGSV,3,3,12,26,13,167,15,30,10,318,,01,09,245,,15,05,032,*7B

$GPRMC,145007.000,A,4709.3605,N,00138.2571,W,0.91,79.99,180717,,,A*44

$GPVTG,79.99,T,,M,0.91,N,1.68,K,A*04

$GPGGA,145008.000,4709.3606,N,00138.2562,W,1,08,0.96,54.9,M,48.7,M,,*42

$GPGLL,4709.3606,N,00138.2562,W,145008.000,A,A*43

$GPGSA,A,3,26,10,07,18,21,27,08,16,,,,,1.24,0.96,0.79*06

$GPGSV,3,1,12,27,78,081,19,08,60,303,17,10,56,102,23,16,39,177,18*7E

$GPGSV,3,2,12,18,39,062,16,11,21,266,,21,17,065,14,07,14,284,14*70

$GPGSV,3,3,12,26,13,167,14,30,10,318,,01,09,245,,15,05,032,*7A

$GPRMC,145008.000,A,4709.3606,N,00138.2562,W,0.94,78.02,180717,,,A*4C

$GPVTG,78.02,T,,M,0.94,N,1.73,K,A*08

$GPGGA,145009.000,4709.3603,N,00138.2556,W,1,08,0.96,55.1,M,48.7,M,,*48

$GPGLL,4709.3603,N,00138.2556,W,145009.000,A,A*40

$GPGSA,A,3,26,10,07,18,21,27,08,16,,,,,1.24,0.96,0.79*06

$GPGSV,3,1,12,27,78,081,18,08,60,303,18,10,56,102,23,16,39,177,18*70

$GPGSV,3,2,12,18,39,062,16,11,21,266,,21,17,065,14,07,14,284,13*77

$GPGSV,3,3,12,26,13,167,13,30,10,318,,01,09,245,,15,05,032,*7D

$GPRMC,145009.000,A,4709.3603,N,00138.2556,W,0.91,82.53,180717,,,A*4B

$GPVTG,82.53,T,,M,0.91,N,1.68,K,A*06

$GPGGA,145010.000,4709.3600,N,00138.2555,W,1,08,0.96,55.2,M,48.7,M,,*43

$GPGLL,4709.3600,N,00138.2555,W,145010.000,A,A*48

$GPGSA,A,3,26,10,07,18,21,27,08,16,,,,,1.24,0.96,0.79*06

$GPGSV,3,1,12,27,78,081,18,08,60,303,18,10,56,102,23,16,39,177,18*70

$GPGSV,3,2,12,18,39,062,16,11,21,266,,21,17,065,15,07,14,284,14*71

$GPGSV,3,3,12,26,13,167,14,30,10,318,,01,09,245,,15,05,032,*7A

$GPRMC,145010.000,A,4709.3600,N,00138.2555,W,0.88,89.18,180717,,,A*4F

$GPVTG,89.18,T,,M,0.88,N,1.63,K,A*01

$GPGGA,145011.000,4709.3599,N,00138.2554,W,1,08,0.96,55.4,M,48.7,M,,*46

$GPGLL,4709.3599,N,00138.2554,W,145011.000,A,A*4B

$GPGSA,A,3,26,10,07,18,21,27,08,16,,,,,1.24,0.96,0.79*06

$GPGSV,3,1,12,27,78,081,18,08,60,303,18,10,56,102,23,16,39,177,18*70

$GPGSV,3,2,12,18,39,062,16,11,21,266,,21,16,065,14,07,14,284,14*71

$GPGSV,3,3,12,26,13,167,14,30,10,318,,01,09,245,,15,05,032,*7A

$GPRMC,145011.000,A,4709.3599,N,00138.2554,W,0.87,93.20,180717,,,A*43

$GPVTG,93.20,T,,M,0.87,N,1.60,K,A*0D

$GPGGA,145012.000,4709.3599,N,00138.2556,W,1,08,0.96,55.6,M,48.7,M,,*45

$GPGLL,4709.3599,N,00138.2556,W,145012.000,A,A*4A

$GPGSA,A,3,26,10,07,18,21,27,08,16,,,,,1.24,0.96,0.79*06

$GPGSV,3,1,12,27,78,081,18,08,60,303,19,10,56,102,23,16,39,177,18*71

$GPGSV,3,2,12,18,39,062,16,11,21,266,,21,16,065,15,07,14,284,16*72

$GPGSV,3,3,12,26,13,167,16,30,10,318,,01,09,245,,15,05,032,*78

$GPRMC,145012.000,A,4709.3599,N,00138.2556,W,0.75,94.08,180717,,,A*42

$GPVTG,94.08,T,,M,0.75,N,1.38,K,A*00

$GPGGA,145013.000,4709.3602,N,00138.2561,W,1,08,0.96,55.8,M,48.7,M,,*4F

$GPGLL,4709.3602,N,00138.2561,W,145013.000,A,A*4E

$GPGSA,A,3,26,10,07,18,21,27,08,16,,,,,1.24,0.96,0.79*06

$GPGSV,3,1,12,27,78,081,18,08,60,303,20,10,56,102,22,16,39,177,18*7A

$GPGSV,3,2,12,18,39,062,17,11,21,266,,21,16,065,14,07,14,284,17*73

$GPGSV,3,3,12,26,13,167,16,30,10,318,,01,09,245,,15,05,032,*78

$GPRMC,145013.000,A,4709.3602,N,00138.2561,W,0.60,91.65,180717,,,A*4C

$GPVTG,91.65,T,,M,0.60,N,1.11,K,A*01

$GPGGA,145014.000,4709.3603,N,00138.2565,W,1,08,0.96,56.0,M,48.7,M,,*46

$GPGLL,4709.3603,N,00138.2565,W,145014.000,A,A*4C

$GPGSA,A,3,26,10,07,18,21,27,08,16,,,,,1.24,0.96,0.79*06

$GPGSV,3,1,12,27,78,081,18,08,60,303,20,10,56,102,22,16,39,177,18*7A

$GPGSV,3,2,12,18,39,062,17,11,21,266,,21,16,065,15,07,14,284,16*73

$GPGSV,3,3,12,26,13,167,15,30,10,318,,01,09,245,,15,05,032,*7B

$GPRMC,145014.000,A,4709.3603,N,00138.2565,W,0.48,90.34,180717,,,A*41

$GPVTG,90.34,T,,M,0.48,N,0.90,K,A*06

$GPGGA,145015.000,4709.3607,N,00138.2568,W,1,08,0.96,56.1,M,48.7,M,,*4F

$GPGLL,4709.3607,N,00138.2568,W,145015.000,A,A*44

$GPGSA,A,3,26,10,07,18,21,27,08,16,,,,,1.24,0.96,0.79*06

$GPGSV,3,1,12,27,78,081,18,08,60,303,20,10,56,102,21,16,39,177,18*79

$GPGSV,3,2,12,18,39,062,17,11,21,266,,21,16,065,16,07,14,284,16*70

$GPGSV,3,3,12,26,13,167,16,30,10,318,,01,09,245,,15,05,032,*78

$GPRMC,145015.000,A,4709.3607,N,00138.2568,W,0.44,79.07,180717,,,A*42

$GPVTG,79.07,T,,M,0.44,N,0.82,K,A*0E

$GPGGA,145016.000,4709.3608,N,00138.2571,W,1,08,0.96,56.2,M,48.7,M,,*48

$GPGLL,4709.3608,N,00138.2571,W,145016.000,A,A*40

$GPGSA,A,3,26,10,07,18,21,27,08,16,,,,,1.24,0.96,0.79*06

$GPGSV,3,1,12,27,78,081,18,08,60,303,20,10,56,102,21,16,39,177,19*78

$GPGSV,3,2,12,18,39,062,17,11,21,266,,21,16,065,15,07,14,284,16*73

$GPGSV,3,3,12,26,13,167,15,30,10,318,,01,09,245,,15,05,032,*7B

$GPRMC,145016.000,A,4709.3608,N,00138.2571,W,0.38,72.74,180717,,,A*42

$GPVTG,72.74,T,,M,0.38,N,0.71,K,A*06

$GPGGA,145017.000,4709.3608,N,00138.2573,W,1,08,0.96,56.4,M,48.7,M,,*4D

$GPGLL,4709.3608,N,00138.2573,W,145017.000,A,A*43

$GPGSA,A,3,26,10,07,18,21,27,08,16,,,,,1.24,0.96,0.79*06

$GPGSV,3,1,12,27,78,082,18,08,60,303,20,10,56,102,21,16,39,177,19*7B

$GPGSV,3,2,12,18,39,062,16,11,21,266,,21,16,065,15,07,14,284,16*72

$GPGSV,3,3,12,26,13,167,17,30,10,318,,01,09,245,,15,05,032,*79

$GPRMC,145017.000,A,4709.3608,N,00138.2573,W,0.34,69.35,180717,,,A*42

$GPVTG,69.35,T,,M,0.34,N,0.64,K,A*01

$GPGGA,145018.000,4709.3609,N,00138.2572,W,1,08,0.96,56.4,M,48.7,M,,*42

$GPGLL,4709.3609,N,00138.2572,W,145018.000,A,A*4C

$GPGSA,A,3,26,10,07,18,21,27,08,16,,,,,1.24,0.96,0.79*06

$GPGSV,3,1,12,27,78,082,18,08,60,303,20,10,56,102,20,16,39,177,19*7A

$GPGSV,3,2,12,18,39,062,16,11,21,266,,21,16,065,16,07,14,284,17*70

$GPGSV,3,3,12,26,13,167,16,30,10,318,,01,09,245,,15,05,032,*78

$GPRMC,145018.000,A,4709.3609,N,00138.2572,W,0.22,69.76,180717,,,A*4D

$GPVTG,69.76,T,,M,0.22,N,0.41,K,A*06

$GPGGA,145019.000,4709.3609,N,00138.2571,W,1,08,0.96,56.4,M,48.7,M,,*40

$GPGLL,4709.3609,N,00138.2571,W,145019.000,A,A*4E

$GPGSA,A,3,26,10,07,18,21,27,08,16,,,,,1.24,0.96,0.79*06

$GPGSV,3,1,12,27,78,082,18,08,60,303,20,10,56,102,20,16,39,177,19*7A

$GPGSV,3,2,12,18,39,062,16,11,21,266,,21,16,065,16,07,14,284,17*70

$GPGSV,3,3,12,26,13,167,16,30,10,318,,01,09,245,,15,05,032,*78

$GPRMC,145019.000,A,4709.3609,N,00138.2571,W,0.13,82.03,180717,,,A*4A

$GPVTG,82.03,T,,M,0.13,N,0.24,K,A*00

$GPGGA,145020.000,4709.3609,N,00138.2571,W,1,08,0.96,56.4,M,48.7,M,,*4A

$GPGLL,4709.3609,N,00138.2571,W,145020.000,A,A*44

$GPGSA,A,3,26,10,07,18,21,27,08,16,,,,,1.24,0.96,0.79*06

$GPGSV,3,1,12,27,78,082,18,08,60,303,20,10,56,102,20,16,39,177,19*7A

$GPGSV,3,2,12,18,39,062,16,11,21,266,,21,16,065,16,07,14,284,17*70

$GPGSV,3,3,12,26,13,167,16,30,10,317,,01,09,245,,15,05,032,*77

$GPRMC,145020.000,A,4709.3609,N,00138.2571,W,0.19,54.30,180717,,,A*41

$GPVTG,54.30,T,,M,0.19,N,0.35,K,A*01

$GPGGA,145021.000,4709.3609,N,00138.2570,W,1,08,0.96,56.4,M,48.7,M,,*4A

$GPGLL,4709.3609,N,00138.2570,W,145021.000,A,A*44

$GPGSA,A,3,26,10,07,18,21,27,08,16,,,,,1.24,0.96,0.79*06

$GPGSV,3,1,12,27,78,082,18,08,60,303,20,10,56,102,20,16,39,177,19*7A

$GPGSV,3,2,12,18,39,062,16,11,21,266,,21,16,065,16,07,14,284,17*70

$GPGSV,3,3,12,26,13,167,16,30,10,317,,01,09,245,,15,05,032,*77

$GPRMC,145021.000,A,4709.3609,N,00138.2570,W,0.09,53.32,180717,,,A*45

$GPVTG,53.32,T,,M,0.09,N,0.17,K,A*05

$GPGGA,145022.000,4709.3609,N,00138.2570,W,1,08,0.96,56.4,M,48.7,M,,*49

$GPGLL,4709.3609,N,00138.2570,W,145022.000,A,A*47

$GPGSA,A,3,26,10,07,18,21,27,08,16,,,,,1.24,0.96,0.79*06

$GPGSV,3,1,12,27,78,082,18,08,60,303,20,10,56,102,20,16,39,177,19*7A

$GPGSV,3,2,12,18,39,062,16,11,21,266,,21,16,065,16,07,14,284,17*70

$GPGSV,3,3,12,26,13,167,16,30,10,317,,01,09,245,,15,05,032,*77

$GPRMC,145022.000,A,4709.3609,N,00138.2570,W,0.03,10.53,180717,,,A*4C

$GPVTG,10.53,T,,M,0.03,N,0.05,K,A*0C

$GPGGA,145023.000,4709.3609,N,00138.2570,W,1,08,0.97,56.4,M,48.7,M,,*49

$GPGLL,4709.3609,N,00138.2570,W,145023.000,A,A*46

$GPGSA,A,3,26,10,07,18,21,27,08,16,,,,,1.60,0.97,1.27*0D

$GPGSV,3,1,12,27,78,082,18,08,60,303,20,10,56,102,20,16,39,177,20*70

$GPGSV,3,2,12,18,39,062,17,11,21,266,,21,16,065,16,07,14,284,17*71

$GPGSV,3,3,12,26,13,167,16,30,10,317,,01,09,245,,15,05,032,20*75

$GPRMC,145023.000,A,4709.3609,N,00138.2570,W,0.07,317.86,180717,,,A*75

$GPVTG,317.86,T,,M,0.07,N,0.13,K,A*33

$GPGGA,145024.000,4709.3609,N,00138.2570,W,1,08,0.96,56.4,M,48.7,M,,*4F

$GPGLL,4709.3609,N,00138.2570,W,145024.000,A,A*41

$GPGSA,A,3,26,10,07,18,21,27,08,16,,,,,1.24,0.96,0.79*06

$GPGSV,3,1,12,27,78,082,19,08,60,303,21,10,56,102,21,16,39,177,20*71

$GPGSV,3,2,12,18,39,062,17,11,21,266,,21,16,065,16,07,14,284,17*71

$GPGSV,3,3,12,26,13,167,16,30,10,317,,01,09,245,,15,05,032,19*7F

$GPRMC,145024.000,A,4709.3609,N,00138.2570,W,0.07,292.43,180717,,,A*77

$GPVTG,292.43,T,,M,0.07,N,0.13,K,A*36

$GPGGA,145025.000,4709.3609,N,00138.2571,W,1,08,0.96,56.4,M,48.7,M,,*4F

$GPGLL,4709.3609,N,00138.2571,W,145025.000,A,A*41

$GPGSA,A,3,26,10,07,18,21,27,08,16,,,,,1.24,0.96,0.79*06

$GPGSV,3,1,12,27,78,082,19,08,60,303,21,10,56,102,21,16,39,177,20*71

$GPGSV,3,2,12,18,39,062,17,11,21,266,,21,16,065,16,07,14,284,17*71

$GPGSV,3,3,12,26,13,167,16,30,10,317,,01,09,245,,15,05,032,19*7F

$GPRMC,145025.000,A,4709.3609,N,00138.2571,W,0.14,267.05,180717,,,A*7D

$GPVTG,267.05,T,,M,0.14,N,0.26,K,A*3A

$GPGGA,145026.000,4709.3609,N,00138.2571,W,1,08,0.96,56.4,M,48.7,M,,*4C

$GPGLL,4709.3609,N,00138.2571,W,145026.000,A,A*42

$GPGSA,A,3,26,10,07,18,21,27,08,16,,,,,1.24,0.96,0.79*06

$GPGSV,3,1,12,27,78,082,19,08,60,303,21,10,56,102,21,16,39,177,20*71

$GPGSV,3,2,12,18,39,062,18,11,21,266,,21,16,065,16,07,14,284,17*7E

$GPGSV,3,3,12,26,13,167,16,30,10,317,,01,09,246,,15,05,032,19*7C

$GPRMC,145026.000,A,4709.3609,N,00138.2571,W,0.12,299.09,180717,,,A*75

$GPVTG,299.09,T,,M,0.12,N,0.22,K,A*35

$GPGGA,145027.000,4709.3610,N,00138.2572,W,1,08,0.96,56.4,M,48.7,M,,*46

$GPGLL,4709.3610,N,00138.2572,W,145027.000,A,A*48

$GPGSA,A,3,26,10,07,18,21,27,08,16,,,,,1.24,0.96,0.79*06

$GPGSV,3,1,12,27,78,082,19,08,60,303,21,10,56,102,21,16,39,177,20*71

$GPGSV,3,2,12,18,39,062,18,11,21,266,,21,16,065,16,07,14,284,18*71

$GPGSV,3,3,12,26,13,167,16,30,10,317,,01,09,246,,15,05,032,19*7C

$GPRMC,145027.000,A,4709.3610,N,00138.2572,W,0.12,320.73,180717,,,A*71

$GPVTG,320.73,T,,M,0.12,N,0.22,K,A*3B

$GPGGA,145028.000,4709.3610,N,00138.2572,W,1,08,0.96,56.4,M,48.7,M,,*49

$GPGLL,4709.3610,N,00138.2572,W,145028.000,A,A*47

$GPGSA,A,3,26,10,07,18,21,27,08,16,,,,,1.24,0.96,0.79*06

$GPGSV,3,1,12,27,78,082,18,08,60,303,21,10,56,102,21,16,39,177,20*70

$GPGSV,3,2,12,18,39,062,18,11,21,266,,21,16,065,16,07,14,284,18*71

$GPGSV,3,3,12,26,13,167,16,30,10,317,,01,09,246,,15,05,032,19*7C

$GPRMC,145028.000,A,4709.3610,N,00138.2572,W,0.11,350.62,180717,,,A*7A

$GPVTG,350.62,T,,M,0.11,N,0.20,K,A*3D

$GPGGA,145029.000,4709.3610,N,00138.2572,W,1,08,0.97,56.4,M,48.7,M,,*49

$GPGLL,4709.3610,N,00138.2572,W,145029.000,A,A*46

$GPGSA,A,3,26,10,07,18,21,27,08,16,,,,,1.60,0.97,1.27*0D

$GPGSV,3,1,12,27,78,082,18,08,60,303,21,10,56,102,21,16,39,177,20*70

$GPGSV,3,2,12,18,39,062,18,11,21,266,,21,16,065,16,07,14,284,18*71

$GPGSV,3,3,12,26,13,167,16,30,10,317,,01,09,246,,15,05,032,19*7C

$GPRMC,145029.000,A,4709.3610,N,00138.2572,W,0.05,305.42,180717,,,A*7C

$GPVTG,305.42,T,,M,0.05,N,0.10,K,A*39

$GPGGA,145030.000,4709.3610,N,00138.2572,W,1,08,0.96,56.4,M,48.7,M,,*40

$GPGLL,4709.3610,N,00138.2572,W,145030.000,A,A*4E

$GPGSA,A,3,26,10,07,18,21,27,08,16,,,,,1.24,0.96,0.79*06

$GPGSV,3,1,12,27,78,082,18,08,60,303,21,10,56,102,21,16,39,177,20*70

$GPGSV,3,2,12,18,39,062,18,11,21,266,,21,16,065,16,07,14,284,18*71

$GPGSV,3,3,12,26,13,167,16,30,10,317,,01,09,246,,15,05,032,19*7C

$GPRMC,145030.000,A,4709.3610,N,00138.2572,W,0.02,39.01,180717,,,A*48

$GPVTG,39.01,T,,M,0.02,N,0.03,K,A*07

$GPGGA,145031.000,4709.3610,N,00138.2572,W,1,08,0.96,56.4,M,48.7,M,,*41

$GPGLL,4709.3610,N,00138.2572,W,145031.000,A,A*4F

$GPGSA,A,3,26,10,07,18,21,27,08,16,,,,,1.24,0.96,0.79*06

$GPGSV,3,1,12,27,78,082,18,08,60,303,21,10,56,102,21,16,39,177,20*70

$GPGSV,3,2,12,18,39,062,18,11,21,266,,21,16,065,16,07,14,284,18*71

$GPGSV,3,3,12,26,13,167,16,30,10,317,,01,09,246,,15,05,032,19*7C

$GPRMC,145031.000,A,4709.3610,N,00138.2572,W,0.07,73.56,180717,,,A*40

$GPVTG,73.56,T,,M,0.07,N,0.13,K,A*0F

