4,08,61,304,24,10,56,099,22,18,38,060,16*7D

$GPGSV,4,2,13,16,37,177,13,11,22,267,,21,15,066,16,07,13,283,15*76

$GPGSV,4,3,13,26,11,167,19,30,10,316,,01,10,246,,15,04,031,18*7D

$GPGSV,4,4,13,32,01,128,*40

$GPRMC,145353.000,A,4709.3630,N,00138.2875,W,0.24,259.57,180717,,,A*75

$GPVTG,259.57,T,,M,0.24,N,0.44,K,A*37

$GPGGA,145354.000,4709.3630,N,00138.2876,W,1,08,0.96,54.4,M,48.7,M,,*48

$GPGLL,4709.3630,N,00138.2876,W,145354.000,A,A*44

$GPGSA,A,3,26,10,07,18,21,27,08,16,,,,,1.24,0.96,0.78*07

$GPGSV,4,1,13,27,77,087,24,08,61,304,25,10,56,099,22,18,38,060,16*7C

$GPGSV,4,2,13,16,37,177,14,11,22,267,,21,15,066,16,07,13,283,14*70

$GPGSV,4,3,13,26,11,167,19,30,10,316,,01,10,246,,15,04,031,18*7D

$GPGSV,4,4,13,32,01,128,*40

$GPRMC,145354.000,A,4709.3630,N,00138.2876,W,0.18,250.13,180717,,,A*77

$GPVTG,250.13,T,,M,0.18,N,0.34,K,A*36

$GPGGA,145355.000,4709.3629,N,00138.2877,W,1,08,0.96,54.4,M,48.7,M,,*40

$GPGLL,4709.3629,N,00138.2877,W,145355.000,A,A*4C

$GPGSA,A,3,26,10,07,18,21,27,08,16,,,,,1.24,0.96,0.78*07

$GPGSV,4,1,13,27,77,087,24,08,61,304,24,10,56,099,21,18,38,060,16*7E

$GPGSV,4,2,13,16,37,177,13,11,22,267,,21,15,066,17,07,13,283,15*77

$GPGSV,4,3,13,26,11,167,19,30,10,316,,01,10,246,,15,04,031,18*7D

$GPGSV,4,4,13,32,01,128,*40

$GPRMC,145355.000,A,4709.3629,N,00138.2877,W,0.32,252.32,180717,,,A*76

$GPVTG,252.32,T,,M,0.32,N,0.59,K,A*34

$GPGGA,145356.000,4709.3629,N,00138.2878,W,1,08,0.96,54.4,M,48.7,M,,*4C

$GPGLL,4709.3629,N,00138.2878,W,145356.000,A,A*40

$GPGSA,A,3,26,10,07,18,21,27,08,16,,,,,1.24,0.96,0.78*07

$GPGSV,4,1,13,27,77,087,24,08,61,304,24,10,56,099,21,18,38,060,16*7E

$GPGSV,4,2,13,16,37,177,14,11,22,267,,21,15,066,15,07,13,283,15*72

$GPGSV,4,3,13,26,11,167,18,01,11,246,,30,10,316,,15,04,031,18*7D

$GPGSV,4,4,13,32,01,128,*40

$GPRMC,145356.000,A,4709.3629,N,00138.2878,W,0.36,251.80,180717,,,A*74

$GPVTG,251.80,T,,M,0.36,N,0.67,K,A*37

$GPGGA,145357.000,4709.3629,N,00138.2880,W,1,08,0.96,54.4,M,48.7,M,,*4A

$GPGLL,4709.3629,N,00138.2880,W,145357.000,A,A*46

$GPGSA,A,3,26,10,07,18,21,27,08,16,,,,,1.24,0.96,0.78*07

$GPGSV,4,1,13,27,77,087,24,08,61,304,24,10,56,099,21,18,38,060,16*7E

$GPGSV,4,2,13,16,37,177,13,11,22,267,,21,15,066,15,07,13,283,15*75

$GPGSV,4,3,13,26,11,167,18,01,11,246,,30,10,316,,15,04,031,18*7D

$GPGSV,4,4,13,32,01,128,*40

$GPRMC,145357.000,A,4709.3629,N,00138.2880,W,0.35,243.18,180717,,,A*73

$GPVTG,243.18,T,,M,0.35,N,0.65,K,A*34

$GPGGA,145358.000,4709.3628,N,00138.2881,W,1,08,0.96,54.4,M,48.7,M,,*45

$GPGLL,4709.3628,N,00138.2881,W,145358.000,A,A*49

$GPGSA,A,3,26,10,07,18,21,27,08,16,,,,,1.24,0.96,0.78*07

$GPGSV,4,1,13,27,77,087,25,08,61,304,24,10,56,099,21,18,38,060,16*7F

$GPGSV,4,2,13,16,37,177,11,11,22,267,,21,15,066,15,07,13,283,14*76

$GPGSV,4,3,13,26,11,167,18,01,11,246,,30,10,316,,15,04,031,18*7D

$GPGSV,4,4,13,32,01,128,*40

$GPRMC,145358.000,A,4709.3628,N,00138.2881,W,0.37,242.47,180717,,,A*75

$GPVTG,242.47,T,,M,0.37,N,0.68,K,A*30

$GPGGA,145359.000,4709.3627,N,00138.2883,W,1,08,0.96,54.4,M,48.7,M,,*49

$GPGLL,4709.3627,N,00138.2883,W,145359.000,A,A*45

$GPGSA,A,3,26,10,07,18,21,27,08,16,,,,,1.24,0.96,0.78*07

$GPGSV,4,1,13,27,77,087,25,08,61,304,24,10,56,099,20,18,38,060,16*7E

$GPGSV,4,2,13,16,37,177,13,11,22,267,,21,15,066,15,07,13,283,15*75

$GPGSV,4,3,13,26,11,167,18,01,11,246,,30,10,316,,15,04,031,18*7D

$GPGSV,4,4,13,32,01,128,*40

$GPRMC,145359.000,A,4709.3627,N,00138.2883,W,0.45,246.97,180717,,,A*75

$GPVTG,246.97,T,,M,0.45,N,0.84,K,A*3E

$GPGGA,145400.000,4709.3627,N,00138.2884,W,1,08,0.96,54.4,M,48.7,M,,*45

$GPGLL,4709.3627,N,00138.2884,W,145400.000,A,A*49

$GPGSA,A,3,26,10,07,18,21,27,08,16,,,,,1.24,0.96,0.78*07

$GPGSV,4,1,14,27,77,087,26,08,61,304,24,10,56,099,20,18,38,060,16*7A

$GPGSV,4,2,14,16,37,177,14,11,22,267,,21,15,066,16,07,13,283,17*74

$GPGSV,4,3,14,26,11,167,18,01,11,246,,30,10,316,,15,04,031,18*7A

$GPGSV,4,4,14,32,01,128,,38,,,*4C

$GPRMC,145400.000,A,4709.3627,N,00138.2884,W,0.47,250.06,180717,,,A*74

$GPVTG,250.06,T,,M,0.47,N,0.88,K,A*3F

$GPGGA,145401.000,4709.3626,N,00138.2886,W,1,08,0.96,54.4,M,48.7,M,,*47

$GPGLL,4709.3626,N,00138.2886,W,145401.000,A,A*4B

$GPGSA,A,3,26,10,07,18,21,27,08,16,,,,,1.24,0.96,0.78*07

$GPGSV,4,1,14,27,77,087,25,08,61,304,24,10,56,099,20,18,38,060,16*79

$GPGSV,4,2,14,16,37,177,14,11,22,267,,21,15,066,16,07,13,283,17*74

$GPGSV,4,3,14,26,11,167,18,01,11,246,,30,10,316,,15,04,031,18*7A

$GPGSV,4,4,14,32,01,128,,38,,,*4C

$GPRMC,145401.000,A,4709.3626,N,00138.2886,W,0.48,252.75,180717,,,A*7F

$GPVTG,252.75,T,,M,0.48,N,0.88,K,A*36

$GPGGA,145402.000,4709.3626,N,00138.2888,W,1,08,0.96,54.4,M,48.7,M,,*4A

$GPGLL,4709.3626,N,00138.2888,W,145402.000,A,A*46

$GPGSA,A,3,26,10,07,18,21,27,08,16,,,,,1.24,0.96,0.78*07

$GPGSV,4,1,14,27,77,087,24,08,61,304,24,10,56,099,20,18,38,060,15*7B

$GPGSV,4,2,14,16,37,177,14,11,22,267,,21,15,066,16,07,13,283,16*75

$GPGSV,4,3,14,26,11,167,18,01,11,246,,30,10,316,,15,04,031,18*7A

$GPGSV,4,4,14,32,01,128,,38,,,*4C

$GPRMC,145402.000,A,4709.3626,N,00138.2888,W,0.53,256.90,180717,,,A*77

$GPVTG,256.90,T,,M,0.53,N,0.98,K,A*32

$GPGGA,145403.000,4709.3626,N,00138.2890,W,1,08,0.96,54.4,M,48.7,M,,*42

$GPGLL,4709.3626,N,00138.2890,W,145403.000,A,A*4E

$GPGSA,A,3,26,10,07,18,21,27,08,16,,,,,1.24,0.96,0.78*07

$GPGSV,4,1,14,27,77,087,24,08,62,304,24,10,56,099,20,18,38,060,15*78

$GPGSV,4,2,14,16,37,177,15,11,22,267,,21,15,066,16,07,13,283,16*74

$GPGSV,4,3,14,26,11,167,18,01,11,246,,30,10,316,,15,04,031,18*7A

$GPGSV,4,4,14,32,01,128,,38,,,*4C

$GPRMC,145403.000,A,4709.3626,N,00138.2890,W,0.46,252.93,180717,,,A*7C

$GPVTG,252.93,T,,M,0.46,N,0.86,K,A*3E

$GPGGA,145404.000,4709.3625,N,00138.2892,W,1,08,0.96,54.4,M,48.7,M,,*44

$GPGLL,4709.3625,N,00138.2892,W,145404.000,A,A*48

$GPGSA,A,3,26,10,07,18,21,27,08,16,,,,,1.24,0.96,0.78*07

$GPGSV,4,1,14,27,77,087,24,08,62,304,24,10,56,099,20,18,38,060,15*78

$GPGSV,4,2,14,16,37,177,14,11,22,267,,21,15,066,15,07,13,283,16*76

$GPGSV,4,3,14,26,11,167,18,01,11,246,,30,10,316,,15,04,031,18*7A

$GPGSV,4,4,14,32,01,128,,38,,,*4C

$GPRMC,145404.000,A,4709.3625,N,00138.2892,W,0.45,249.78,180717,,,A*76

$GPVTG,249.78,T,,M,0.45,N,0.83,K,A*37

$GPGGA,145405.000,4709.3624,N,00138.2894,W,1,08,0.96,54.4,M,48.7,M,,*42

$GPGLL,4709.3624,N,00138.2894,W,145405.000,A,A*4E

$GPGSA,A,3,26,10,07,18,21,27,08,16,,,,,1.24,0.96,0.78*07

$GPGSV,4,1,14,27,77,087,24,08,62,304,24,10,56,098,20,18,38,060,15*79

$GPGSV,4,2,14,16,37,177,15,11,22,267,,21,15,066,15,07,13,283,16*77

$GPGSV,4,3,14,26,11,167,18,01,11,246,,30,10,316,,15,04,031,18*7A

$GPGSV,4,4,14,32,01,128,,38,,,*4C

$GPRMC,145405.000,A,4709.3624,N,00138.2894,W,0.60,238.72,180717,,,A*7B

$GPVTG,238.72,T,,M,0.60,N,1.11,K,A*36

$GPGGA,145406.000,4709.3609,N,00138.2910,W,1,08,0.96,54.5,M,48.7,M,,*42

$GPGLL,4709.3609,N,00138.2910,W,145406.000,A,A*4F

$GPGSA,A,3,26,10,07,18,21,27,08,16,,,,,1.24,0.96,0.78*07

$GPGSV,4,1,13,27,77,087,24,08,62,304,23,10,56,098,20,18,38,060,15*79

$GPGSV,4,2,13,16,37,177,16,11,22,267,,21,15,066,15,07,13,283,15*70

$GPGSV,4,3,13,26,11,167,18,01,11,246,,30,10,316,,15,04,031,18*7D

$GPGSV,4,4,13,32,01,128,*40

$GPRMC,145406.000,A,4709.3609,N,00138.2910,W,0.69,237.88,180717,,,A*79

$GPVTG,237.88,T,,M,0.69,N,1.27,K,A*30

$GPGGA,145407.000,4709.3602,N,00138.2918,W,1,08,0.96,54.6,M,48.7,M,,*43

$GPGLL,4709.3602,N,00138.2918,W,145407.000,A,A*4D

$GPGSA,A,3,26,10,07,18,21,27,08,16,,,,,1.24,0.96,0.78*07

$GPGSV,4,1,13,27,77,087,24,08,62,304,23,10,56,098,20,18,38,060,15*79

$GPGSV,4,2,13,16,37,177,16,11,22,267,,21,15,066,15,07,13,283,15*70

$GPGSV,4,3,13,26,11,167,18,01,11,246,,30,10,316,,15,04,031,18*7D

$GPGSV,4,4,13,32,01,128,*40

$GPRMC,145407.000,A,4709.3602,N,00138.2918,W,0.70,238.68,180717,,,A*72

$GPVTG,238.68,T,,M,0.70,N,1.30,K,A*3F

$GPGGA,145408.000,4709.3600,N,00138.2919,W,1,08,0.96,54.7,M,48.7,M,,*4E

$GPGLL,4709.3600,N,00138.2919,W,145408.000,A,A*41

$GPGSA,A,3,26,10,07,18,21,27,08,16,,,,,1.24,0.96,0.78*07

$GPGSV,4,1,13,27,77,087,24,08,62,304,23,10,56,098,20,18,38,060,15*79

$GPGSV,4,2,13,16,37,177,17,11,22,267,,21,15,066,15,07,13,283,15*71

$GPGSV,4,3,13,26,11,167,18,01,11,246,,30,10,316,,15,04,031,18*7D

$GPGSV,4,4,13,32,01,128,*40

$GPRMC,145408.000,A,4709.3600,N,00138.2919,W,0.65,239.87,180717,,,A*7A

$GPVTG,239.87,T,,M,0.65,N,1.21,K,A*3B

$GPGGA,145409.000,4709.3600,N,00138.2918,W,1,08,0.96,54.7,M,48.7,M,,*4E

$GPGLL,4709.3600,N,00138.2918,W,145409.000,A,A*41

$GPGSA,A,3,26,10,07,18,21,27,08,16,,,,,1.24,0.96,0.78*07

$GPGSV,4,1,13,27,77,087,24,08,62,304,23,10,56,098,20,18,38,060,13*7F

$GPGSV,4,2,13,16,37,177,17,11,22,267,,21,15,066,15,07,13,283,15*71

$GPGSV,4,3,13,26,11,167,18,01,11,246,,30,10,316,,15,04,031,18*7D

$GPGSV,4,4,13,32,01,128,*40

$GPRMC,145409.000,A,4709.3600,N,00138.2918,W,0.52,238.05,180717,,,A*75

$GPVTG,238.05,T,,M,0.52,N,0.96,K,A*39

$GPGGA,145410.000,4709.3599,N,00138.2915,W,1,08,0.96,54.7,M,48.7,M,,*48

$GPGLL,4709.3599,N,00138.2915,W,145410.000,A,A*47

$GPGSA,A,3,26,10,07,18,21,27,08,16,,,,,1.24,0.96,0.78*07

$GPGSV,4,1,13,27,77,087,24,08,62,304,23,10,56,098,20,18,38,060,15*79

$GPGSV,4,2,13,16,37,177,17,11,22,267,,21,15,066,15,07,13,283,14*70

$GPGSV,4,3,13,26,11,167,18,01,11,246,,30,10,316,,15,04,031,18*7D

$GPGSV,4,4,13,32,01,128,*40

$GPRMC,145410.000,A,4709.3599,N,00138.2915,W,0.40,228.09,180717,,,A*7D

$GPVTG,228.09,T,,M,0.40,N,0.74,K,A*3B

$GPGGA,145411.000,4709.3595,N,00138.2913,W,1,08,0.96,54.7,M,48.7,M,,*43

$GPGLL,4709.3595,N,00138.2913,W,145411.000,A,A*4C

$GPGSA,A,3,26,10,07,18,21,27,08,16,,,,,1.24,0.96,0.78*07

$GPGSV,4,1,13,27,77,087,24,08,62,304,23,10,56,098,20,18,38,060,16*7A

$GPGSV,4,2,13,16,37,177,17,11,22,267,,21,15,066,15,07,13,283,17*73

$GPGSV,4,3,13,26,11,167,18,01,11,246,,30,10,316,,15,04,031,18*7D

$GPGSV,4,4,13,32,01,128,*40

$GPRMC,145411.000,A,4709.3595,N,00138.2913,W,0.40,214.75,180717,,,A*72

$GPVTG,214.75,T,,M,0.40,N,0.74,K,A*3F

$GPGGA,145412.000,4709.3591,N,00138.2913,W,1,08,0.96,54.7,M,48.7,M,,*44

$GPGLL,4709.3591,N,00138.2913,W,145412.000,A,A*4B

$GPGSA,A,3,26,10,07,18,21,27,08,16,,,,,1.24,0.96,0.78*07

$GPGSV,4,1,13,27,77,087,24,08,62,304,23,10,56,098,20,18,38,060,16*7A

$GPGSV,4,2,13,16,37,177,17,11,22,267,,21,15,066,15,07,13,283,17*73

$GPGSV,4,3,13,26,11,167,18,01,11,246,,30,10,316,,15,04,031,18*7D

$GPGSV,4,4,13,32,01,128,*40

$GPRMC,145412.000,A,4709.3591,N,00138.2913,W,0.42,211.03,180717,,,A*73

$GPVTG,211.03,T,,M,0.42,N,0.77,K,A*3A

$GPGGA,145413.000,4709.3590,N,00138.2914,W,1,08,0.96,54.7,M,48.7,M,,*43

$GPGLL,4709.3590,N,00138.2914,W,145413.000,A,A*4C

$GPGSA,A,3,26,10,07,18,21,27,08,16,,,,,1.24,0.96,0.78*07

$GPGSV,4,1,14,27,77,087,25,08,62,304,23,10,56,098,20,18,38,060,15*7F

$GPGSV,4,2,14,16,37,177,17,11,22,267,,21,15,066,16,07,13,283,17*77

$GPGSV,4,3,14,26,11,167,18,01,11,246,,30,10,316,,15,04,031,18*7A

$GPGSV,4,4,14,32,01,128,,41,,,*42

$GPRMC,145413.000,A,4709.3590,N,00138.2914,W,0.42,210.62,180717,,,A*72

$GPVTG,210.62,T,,M,0.42,N,0.77,K,A*3C

$GPGGA,145414.000,4709.3589,N,00138.2915,W,1,08,0.96,54.7,M,48.7,M,,*4D

$GPGLL,4709.3589,N,00138.2915,W,145414.000,A,A*42

$GPGSA,A,3,26,10,07,18,21,27,08,16,,,,,1.24,0.96,0.78*07

$GPGSV,4,1,14,27,77,087,25,08,62,304,23,10,56,098,20,18,38,060,15*7F

$GPGSV,4,2,14,16,37,177,17,11,22,267,,21,15,066,16,07,13,283,17*77

$GPGSV,4,3,14,26,11,167,18,01,11,246,,30,10,316,,15,04,031,18*7A

$GPGSV,4,4,14,32,01,128,,41,,,*42

$GPRMC,145414.000,A,4709.3589,N,00138.2915,W,0.47,217.10,180717,,,A*7B

$GPVTG,217.10,T,,M,0.47,N,0.87,K,A*34

$GPGGA,145415.000,4709.3588,N,00138.2916,W,1,08,0.96,54.7,M,48.7,M,,*4E

$GPGLL,4709.3588,N,00138.2916,W,145415.000,A,A*41

$GPGSA,A,3,26,10,07,18,21,27,08,16,,,,,1.24,0.96,0.78*07

$GPGSV,4,1,14,27,77,087,25,08,62,304,23,10,56,098,20,18,38,060,15*7F

$GPGSV,4,2,14,16,37,177,17,11,22,267,,21,15,066,16,07,13,283,17*77

$GPGSV,4,3,14,26,11,167,18,01,11,246,,30,10,316,,15,04,031,18*7A

$GPGSV,4,4,14,32,01,128,,41,,,*42

$GPRMC,145415.000,A,4709.3588,N,00138.2916,W,0.50,221.79,180717,,,A*74

$GPVTG,221.79,T,,M,0.50,N,0.93,K,A*3D

$GPGGA,145416.000,4709.3587,N,00138.2918,W,1,08,0.96,54.7,M,48.7,M,,*4C

$GPGLL,4709.3587,N,00138.2918,W,145416.000,A,A*43

$GPGSA,A,3,26,10,07,18,21,27,08,16,,,,,1.23,0.96,0.78*00

$GPGSV,4,1,14,27,77,087,25,08,62,304,23,10,56,098,20,18,38,060,15*7F

$GPGSV,4,2,14,16,37,177,17,11,22,267,,21,15,066,16,07,13,283,17*77

$GPGSV,4,3,14,26,11,167,18,01,11,246,,30,10,316,,15,04,031,18*7A

$GPGSV,4,4,14,32,01,128,,41,,,*42

$GPRMC,145416.000,A,4709.3587,N,00138.2918,W,0.54,225.20,180717,,,A*7A

$GPVTG,225.20,T,,M,0.54,N,0.99,K,A*3B

$GPGGA,145417.000,4709.3586,N,00138.2919,W,1,08,0.96,54.7,M,48.7,M,,*4D

$GPGLL,4709.3586,N,00138.2919,W,145417.000,A,A*42

$GPGSA,A,3,26,10,07,18,21,27,08,16,,,,,1.24,0.96,0.78*07

$GPGSV,4,1,14,27,77,087,25,08,62,304,23,10,56,098,20,18,38,060,15*7F

$GPGSV,4,2,14,16,37,177,17,11,22,267,,21,15,066,16,07,13,283,17*77

$GPGSV,4,3,14,26,11,167,18,01,11,246,,30,10,316,,15,04,031,18*7A

$GPGSV,4,4,14,32,01,128,,41,,,*42

$GPRMC,145417.000,A,4709.3586,N,00138.2919,W,0.56,225.73,180717,,,A*7F

$GPVTG,225.73,T,,M,0.56,N,1.04,K,A*3A

$GPGGA,145418.000,4709.3585,N,00138.2921,W,1,08,0.96,54.7,M,48.7,M,,*4A

$GPGLL,4709.3585,N,00138.2921,W,145418.000,A,A*45

$GPGSA,A,3,26,10,07,18,21,27,08,16,,,,,1.24,0.96,0.78*07

$GPGSV,4,1,14,27,77,087,25,08,62,304,23,10,56,098,20,18,38,060,14*7E

$GPGSV,4,2,14,16,37,177,17,11,22,267,,21,15,066,16,07,13,283,17*77

$GPGSV,4,3,14,26,11,167,18,01,11,246,,30,10,316,,15,04,031,18*7A

$GPGSV,4,4,14,32,01,128,,41,,,*42

$GPRMC,145418.000,A,4709.3585,N,00138.2921,W,0.53,221.09,180717,,,A*74

$GPVTG,221.09,T,,M,0.53,N,0.99,K,A*33

$GPGGA,145419.000,4709.3584,N,00138.2922,W,1,08,0.96,54.7,M,48.7,M,,*49

$GPGLL,4709.3584,N,00138.2922,W,145419.000,A,A*46

$GPGSA,A,3,26,10,07,18,21,27,08,16,,,,,1.24,0.96,0.78*07

$GPGSV,4,1,13,27,77,087,25,08,62,304,23,10,56,098,20,18,38,060,13*7E

$GPGSV,4,2,13,16,37,177,17,11,22,267,,21,15,066,16,07,13,283,17*70

$GPGSV,4,3,13,26,11,167,18,01,11,246,,30,10,316,,15,04,031,18*7D

$GPGSV,4,4,13,32,01,128,*40

$GPRMC,145419.000,A,4709.3584,N,00138.2922,W,0.58,220.42,180717,,,A*72

$GPVTG,220.42,T,,M,0.58,N,1.08,K,A*3F

$GPGGA,145420.000,4709.3582,N,00138.2925,W,1,08,0.96,54.7,M,48.7,M,,*42

$GPGLL,4709.3582,N,00138.2925,W,145420.000,A,A*4D

$GPGSA,A,3,26,10,07,18,21,27,08,16,,,,,1.23,0.96,0.78*00

$GPGSV,4,1,13,27,77,087,25,08,62,304,23,10,56,098,19,18,38,060,15*72

$GPGSV,4,2,13,16,37,177,17,11,22,267,,21,15,066,15,07,13,283,17*73

$GPGSV,4,3,13,26,11,167,18,01,11,246,,30,10,316,,15,04,031,18*7D

$GPGSV,4,4,13,32,01,128,*40

$GPRMC,145420.000,A,4709.3582,N,00138.2925,W,0.62,225.08,180717,,,A*7B

$GPVTG,225.08,T,,M,0.62,N,1.15,K,A*31

$GPGGA,145421.000,4709.3564,N,00138.2933,W,1,08,0.96,54.5,M,48.7,M,,*4E

$GPGLL,4709.3564,N,00138.2933,W,145421.000,A,A*43

$GPGSA,A,3,26,10,07,18,21,27,08,16,,,,,1.24,0.96,0.78*07

$GPGSV,4,1,13,27,77,087,25,08,62,304,23,10,56,098,19,18,38,060,14*73

$GPGSV,4,2,13,16,37,177,18,11,22,267,,21,15,066,15,07,13,283,17*7C

$GPGSV,4,3,13,26,11,167,18,01,11,246,,30,10,316,,15,04,031,18*7D

$GPGSV,4,4,13,32,01,128,*40

$GPRMC,145421.000,A,4709.3564,N,00138.2933,W,0.75,224.50,180717,,,A*7F

$GPVTG,224.50,T,,M,0.75,N,1.40,K,A*3B

$GPGGA,145422.000,4709.3554,N,00138.2935,W,1,08,0.96,54.4,M,48.7,M,,*49

$GPGLL,4709.3554,N,00138.2935,W,145422.000,A,A*45

$GPGSA,A,3,26,10,07,18,21,27,08,16,,,,,1.23,0.96,0.78*00

$GPGSV,4,1,13,27,77,088,25,08,62,304,23,10,56,098,19,18,38,060,15*7D

$GPGSV,4,2,13,16,37,177,18,11,22,267,,21,15,066,15,07,13,283,17*7C

$GPGSV,4,3,13,26,11,167,18,01,11,246,,30,10,316,,15,04,031,18*7D

$GPGSV,4,4,13,32,01,128,*40

$GPRMC,145422.000,A,4709.3554,N,00138.2935,W,0.76,224.92,180717,,,A*74

$GPVTG,224.92,T,,M,0.76,N,1.41,K,A*37

$GPGGA,145423.000,4709.3552,N,00138.2932,W,1,08,0.96,54.4,M,48.7,M,,*49

$GPGLL,4709.3552,N,00138.2932,W,145423.000,A,A*45

$GPGSA,A,3,26,10,07,18,21,27,08,16,,,,,1.23,0.96,0.78*00

$GPGSV,4,1,13,27,77,088,25,08,62,304,23,10,56,098,19,18,38,060,15*7D

$GPGSV,4,2,13,16,37,177,18,11,22,267,,21,15,066,15,07,13,283,17*7C

$GPGSV,4,3,13,26,11,167,18,01,11,246,,30,10,316,,15,04,031,18*7D

$GPGSV,4,4,13,32,01,128,*40

$GPRMC,145423.000,A,4709.3552,N,00138.2932,W,0.68,222.08,180717,,,A*7E

$GPVTG,222.08,T,,M,0.68,N,1.26,K,A*3C

$GPGGA,145424.000,4709.3545,N,00138.2935,W,1,08,0.96,54.4,M,48.7,M,,*4F

$GPGLL,4709.3545,N,00138.2935,W,145424.000,A,A*43

$GPGSA,A,3,26,10,07,18,21,27,08,16,,,,,1.23,0.96,0.78*00

$GPGSV,4,1,13,27,77,088,24,08,62,304,23,10,56,098,18,18,38,060,15*7D

$GPGSV,4,2,13,16,37,177,18,11,22,267,19,21,15,066,15,07,13,283,17*74

$GPGSV,4,3,13,26,11,167,18,01,11,246,,30,10,316,,15,04,031,18*7D

$GPGSV,4,4,13,32,01,128,*40

$GPRMC,145424.000,A,4709.3545,N,00138.2935,W,0.71,220.36,180717,,,A*7F

$GPVTG,220.36,T,,M,0.71,N,1.32,K,A*3E

$GPGGA,145425.000,4709.3542,N,00138.2936,W,1,08,0.96,54.4,M,48.7,M,,*4A

$GPGLL,4709.3542,N,00138.2936,W,145425.000,A,A*46

$GPGSA,A,3,26,10,07,18,21,27,08,16,,,,,1.23,0.96,0.78*00

$GPGSV,4,1,13,27,77,088,25,08,62,304,23,10,56,098,18,18,38,060,16*7F

$GPGSV,4,2,13,16,37,177,18,11,22,267,19,21,15,066,15,07,13,283,17*74

$GPGSV,4,3,13,26,11,167,18,01,11,246,,30,10,316,,15,04,031,18*7D

$GPGSV,4,4,13,32,01,128,*40

$GPRMC,145425.000,A,4709.3542,N,00138.2936,W,0.71,217.12,180717,,,A*78

$GPVTG,217.12,T,,M,0.71,N,1.32,K,A*3C

$GPGGA,145426.000,4709.3537,N,00138.2940,W,1,08,0.96,54.4,M,48.7,M,,*4A

$GPGLL,4709.3537,N,00138.2940,W,145426.000,A,A*46

$GPGSA,A,3,26,10,07,18,21,27,08,16,,,,,1.24,0.96,0.78*07

$GPGSV,4,1,13,27,77,088,24,08,62,304,23,10,56,098,18,18,38,060,16*7E

$GPGSV,4,2,13,16,37,177,18,11,22,267,18,21,15,066,15,07,13,283,16*74

$GPGSV,4,3,13,26,11,167,18,01,11,246,,30,10,316,,15,04,031,18*7D

$GPGSV,4,4,13,32,01,128,*40

$GPRMC,145426.000,A,4709.3537,N,00138.2940,W,0.76,218.43,180717,,,A*74

$GPVTG,218.43,T,,M,0.76,N,1.41,K,A*34

$GPGGA,145427.000,4709.3533,N,00138.2952,W,1,08,0.96,54.3,M,48.7,M,,*4B

$GPGLL,4709.3533,N,00138.2952,W,145427.000,A,A*40

$GPGSA,A,3,26,10,07,18,21,27,08,16,,,,,1.23,0.96,0.78*00

$GPGSV,4,1,13,27,77,088,23,08,62,304,23,10,56,098,18,18,38,060,16*79

$GPGSV,4,2,13,16,37,177,18,11,22,267,19,21,15,066,15,07,13,283,16*75

$GPGSV,4,3,13,26,11,167,18,01,11,246,,30,10,316,,15,04,031,18*7D

$GPGSV,4,4,13,32,01,128,*40

$GPRMC,145427.000,A,4709.3533,N,00138.2952,W,0.83,223.57,180717,,,A*75

$GPVTG,223.57,T,,M,0.83,N,1.54,K,A*37

$GPGGA,145428.000,4709.3531,N,00138.2949,W,1,08,0.96,54.3,M,48.7,M,,*4C

$GPGLL,4709.3531,N,00138.2949,W,145428.000,A,A*47

$GPGSA,A,3,26,10,07,18,21,27,08,16,,,,,1.24,0.96,0.78*07

$GPGSV,4,1,13,27,77,088,24,08,62,304,23,10,56,098,18,18,38,060,16*7E

$GPGSV,4,2,13,16,37,177,18,11,22,267,18,21,15,066,15,07,13,283,16*74

$GPGSV,4,3,13,26,11,167,18,01,11,246,,30,10,316,,15,04,031,18*7D

$GPGSV,4,4,13,32,01,128,*40

$GPRMC,145428.000,A,4709.3531,N,00138.2949,W,0.74,222.06,180717,,,A*7F

$GPVTG,222.06,T,,M,0.74,N,1.38,K,A*30

$GPGGA,145429.000,4709.3526,N,00138.2947,W,1,08,0.96,54.3,M,48.7,M,,*45

$GPGLL,4709.3526,N,00138.2947,W,145429.000,A,A*4E

$GPGSA,A,3,26,10,07,18,21,27,08,16,,,,,1.23,0.96,0.78*00

$GPGSV,4,1,13,27,77,088,24,08,62,304,23,10,56,098,18,18,38,060,16*7E

$GPGSV,4,2,13,16,37,177,18,11,22,267,18,21,15,066,15,07,13,283,16*74

$GPGSV,4,3,13,26,11,167,18,01,11,246,,30,10,316,,15,04,031,18*7D

$GPGSV,4,4,13,32,01,128,*40

$GPRMC,145429.000,A,4709.3526,N,00138.2947,W,0.71,216.93,180717,,,A*78

$GPVTG,216.93,T,,M,0.71,N,1.32,K,A*34

$GPGGA,145430.000,4709.3523,N,00138.2942,W,1,08,0.96,54.3,M,48.7,M,,*4D

$GPGLL,4709.3523,N,00138.2942,W,145430.000,A,A*46

$GPGSA,A,3,26,10,07,18,21,27,08,16,,,,,1.23,0.96,0.78*00

$GPGSV,4,1,13,27,77,088,24,08,62,304,23,10,56,098,18,18,38,060,16*7E

$GPGSV,4,2,13,16,37,177,19,11,22,267,18,21,15,066,15,07,13,283,16*75

$GPGSV,4,3,13,26,11,167,18,01,11,246,,30,10,316,,15,04,031,18*7D

$GPGSV,4,4,13,32,01,128,*40

$GPRMC,145430.000,A,4709.3523,N,00138.2942,W,0.63,209.01,180717,,,A*76

$GPVTG,209.01,T,,M,0.63,N,1.17,K,A*35

$GPGGA,145431.000,4709.3519,N,00138.2939,W,1,08,0.96,54.2,M,48.7,M,,*48

$GPGLL,4709.3519,N,00138.2939,W,145431.000,A,A*42

$GPGSA,A,3,26,10,07,18,21,27,08,16,,,,,1.24,0.96,0.78*07

$GPGSV,4,1,13,27,77,088,24,08,62,304,23,10,56,098,18,18,38,060,16*7E

$GPGSV,4,2,13,16,37,177,19,11,22,267,18,21,15,066,15,07,13,283,16*75

$GPGSV,4,3,13,26,11,167,18,01,11,247,,30,10,316,,15,04,031,18*7C

$GPGSV,4,4,13,32,01,128,*40

$GPRMC,145431.000,A,4709.3519,N,00138.2939,W,0.62,200.79,180717,,,A*75

$GPVTG,200.79,T,,M,0.62,N,1.15,K,A*30

$GPGGA,145432.000,4709.3514,N,00138.2936,W,1,08,0.96,54.2,M,48.7,M,,*49

$GPGLL,4709.3514,N,00138.2936,W,145432.000,A,A*43

$GPGSA,A,3,26,10,07,18,21,27,08,16,,,,,1.24,0.96,0.78*07

$GPGSV,4,1,13,27,77,088,24,08,62,304,23,10,56,098,18,18,38,060,16*7E

$GPGSV,4,2,13,16,37,177,19,11,22,267,18,21,15,066,16,07,13,283,16*76

$GPGSV,4,3,13,26,11,167,18,01,11,247,,30,10,316,,15,04,031,18*7C

$GPGSV,4,4,13,32,01,128,*40

$GPRMC,145432.000,A,4709.3514,N,00138.2936,W,0.64,197.87,180717,,,A*7E

$GPVTG,197.87,T,,M,0.64,N,1.18,K,A*37

$GPGGA,145433.000,4709.3510,N,00138.2932,W,1,08,0.96,54.2,M,48.7,M,,*48

$GPGLL,4709.3510,N,00138.2932,W,145433.000,A,A*42

$GPGSA,A,3,26,10,07,18,21,27,08,16,,,,,1.23,0.96,0.78*00

$GPGSV,4,1,13,27,77,088,24,08,62,304,23,10,56,098,18,18,38,060,16*7E

$GPGSV,4,2,13,16,37,177,19,11,22,267,19,21,15,066,15,07,13,283,16*74

$GPGSV,4,3,13,26,11,167,18,01,11,247,,30,10,316,,15,04,031,18*7C

$GPGSV,4,4,13,32,01,128,*40

$GPRMC,145433.000,A,4709.3510,N,00138.2932,W,0.64,192.35,180717,,,A*73

$GPVTG,192.35,T,,M,0.64,N,1.19,K,A*3A

$GPGGA,145434.000,4709.3507,N,00138.2929,W,1,08,0.96,54.2,M,48.7,M,,*43

$GPGLL,4709.3507,N,00138.2929,W,145434.000,A,A*49

$GPGSA,A,3,26,10,07,18,21,27,08,16,,,,,1.23,0.96,0.78*00

$GPGSV,4,1,13,27,77,088,24,08,62,304,23,10,56,098,18,18,38,060,16*7E

$GPGSV,4,2,13,16,37,177,19,11,22,267,19,21,15,066,14,07,13,283,16*75

$GPGSV,4,3,13,26,11,167,18,01,11,247,,30,10,316,,15,04,031,18*7C

$GPGSV,4,4,13,32,01,128,*40

$GPRMC,145434.000,A,4709.3507,N,00138.2929,W,0.64,187.93,180717,,,A*70

$GPVTG,187.93,T,,M,0.64,N,1.18,K,A*33

$GPGGA,145435.000,4709.3504,N,00138.2924,W,1,08,0.96,54.2,M,48.7,M,,*4C

$GPGLL,4709.3504,N,00138.2924,W,145435.000,A,A*46

$GPGSA,A,3,26,10,07,18,21,27,08,16,,,,,1.23,0.96,0.78*00

$GPGSV,4,1,13,27,77,088,24,08,62,304,23,10,56,098,18,18,38,060,16*7E

$GPGSV,4,2,13,16,37,177,19,11,22,267,19,21,15,066,17,07,13,283,16*76

$GPGSV,4,3,13,26,11,167,18,01,11,247,,30,10,316,,15,04,031,18*7C

$GPGSV,4,4,13,32,01,128,*40

$GPRMC,145435.000,A,4709.3504,N,00138.2924,W,0.63,181.06,180717,,,A*72

$GPVTG,181.06,T,,M,0.63,N,1.17,K,A*31

$GPGGA,145436.000,4709.3501,N,00138.2921,W,1,08,0.96,54.2,M,48.7,M,,*4F

$GPGLL,4709.3501,N,00138.2921,W,145436.000,A,A*45

$GPGSA,A,3,26,10,07,18,21,27,08,16,,,,,1.23,0.96,0.78*00

$GPGSV,4,1,13,27,77,088,24,08,62,304,23,10,56,098,17,18,38,060,16*71

$GPGSV,4,2,13,16,37,177,19,11,22,267,19,21,15,066,17,07,13,283,16*76

$GPGSV,4,3,13,26,11,167,18,01,11,247,,30,10,316,,15,04,031,18*7C

$GPGSV,4,4,13,32,01,128,*40

$GPRMC,145436.000,A,4709.3501,N,00138.2921,W,0.64,179.12,180717,,,A*74

$GPVTG,179.12,T,,M,0.64,N,1.18,K,A*3B

$GPGGA,145437.000,4709.3499,N,00138.2915,W,1,08,0.96,54.2,M,48.7,M,,*49

$GPGLL,4709.3499,N,00138.2915,W,145437.000,A,A*43

$GPGSA,A,3,26,10,07,18,21,27,08,16,,,,,1.23,0.96,0.78*00

$GPGSV,4,1,13,27,77,088,24,08,62,304,22,10,56,098,17,18,38,060,16*70

$GPGSV,4,2,13,16,37,177,19,11,22,267,19,21,15,066,17,07,13,282,16*77

$GPGSV,4,3,13,26,11,167,18,01,11,247,,30,10,316,,15,04,031,18*7C

$GPGSV,4,4,13,32,01,128,*40

$GPRMC,145437.000,A,4709.3499,N,00138.2915,W,0.58,169.71,180717,,,A*79

$GPVTG,169.71,T,,M,0.58,N,1.08,K,A*31

$GPGGA,145438.000,4709.3497,N,00138.2913,W,1,08,0.96,54.2,M,48.7,M,,*4E

$GPGLL,4709.3497,N,00138.2913,W,145438.000,A,A*44

$GPGSA,A,3,26,10,07,18,21,27,08,16,,,,,1.23,0.96,0.78*00

$GPGSV,4,1,13,27,77,088,24,08,62,304,21,10,56,098,17,18,38,060,16*73

$GPGSV,4,2,13,16,37,177,19,11,22,267,19,21,15,066,17,07,13,282,16*77

$GPGSV,4,3,13,26,11,167,18,01,11,247,,30,10,316,,15,04,031,18*7C

$GPGSV,4,4,13,32,01,128,*40

$GPRMC,145438.000,A,4709.3497,N,00138.2913,W,0.56,166.10,180717,,,A*78

$GPVTG,166.10,T,,M,0.56,N,1.03,K,A*3C

$GPGGA,145439.000,4709.3495,N,00138.2920,W,1,08,0.96,54.1,M,48.7,M,,*4E

$GPGLL,4709.3495,N,00138.2920,W,145439.000,A,A*47

$GPGSA,A,3,26,10,07,18,21,27,08,16,,,,,1.23,0.96,0.78*00

$GPGSV,4,1,13,27,77,088,24,08,62,304,21,10,56,098,17,18,38,060,16*73

$GPGSV,4,2,13,16,37,177,20,11,22,267,19,21,15,066,17,07,13,282,16*7D

$GPGSV,4,3,13,26,11,167,18,01,11,247,,30,10,316,,15,04,031,18*7C

$GPGSV,4,4,13,32,01,128,*40

$GPRMC,145439.000,A,4709.3495,N,00138.2920,W,0.53,180.73,180717,,,A*73

$GPVTG,180.73,T,,M,0.53,N,0.98,K,A*37

$GPGGA,145440.000,4709.3492,N,00138.2927,W,1,08,0.96,54.0,M,48.7,M,,*41

$GPGLL,4709.3492,N,00138.2927,W,145440.000,A,A*49

$GPGSA,A,3,26,10,07,18,21,27,08,16,,,,,1.23,0.96,0.78*00

$GPGSV,4,1,13,27,77,088,24,08,62,304,22,10,56,098,18,18,38,060,16*7F

$GPGSV,4,2,13,16,37,177,21,11,22,267,19,21,15,066,17,07,13,282,16*7C

$GPGSV,4,3,13,26,11,167,18,01,11,247,,30,10,316,,15,04,031,18*7C

$GPGSV,4,4,13,32,01,128,*40

$GPRMC,145440.000,A,4709.3492,N,00138.2927,W,0.54,185.22,180717,,,A*7B

$GPVTG,185.22,T,,M,0.54,N,1.00,K,A*31

$GPGGA,145441.000,4709.3490,N,00138.2931,W,1,08,0.96,53.9,M,48.7,M,,*4B

$GPGLL,4709.3490,N,00138.2931,W,145441.000,A,A*4D

$GPGSA,A,3,26,10,07,18,21,27,08,16,,,,,1.24,0.96,0.78*07

$GPGSV,4,1,13,27,77,088,24,08,62,304,22,10,56,098,18,18,38,060,16*7F

$GPGSV,4,2,13,16,37,177,21,11,22,267,19,21,15,066,17,07,13,282,16*7C

$GPGSV,4,3,13,26,11,167,18,01,11,247,,30,10,316,,15,04,031,18*7C

$GPGSV,4,4,13,32,01,128,*40

$GPRMC,145441.000,A,4709.3490,N,00138.2931,W,0.53,188.94,180717,,,A*78

$GPVTG,188.94,T,,M,0.53,N,0.98,K,A*36

$GPGGA,145442.000,4709.3489,N,00138.2931,W,1,08,0.96,53.9,M,48.7,M,,*40

$GPGLL,4709.3489,N,00138.2931,W,145442.000,A,A*46

$GPGSA,A,3,26,10,07,18,21,27,08,16,,,,,1.23,0.96,0.78*00

$GPGSV,4,1,13,27,77,088,24,08,62,304,22,10,56,098,18,18,38,060,16*7F

$GPGSV,4,2,13,16,37,177,21,11,22,267,19,21,15,066,17,07,13,282,16*7C

$GPGSV,4,3,13,26,11,167,18,01,11,247,,30,10,316,,15,04,031,18*7C

$GPGSV,4,4,13,32,01,128,*40

$GPRMC,145442.000,A,4709.3489,N,00138.2931,W,0.49,194.48,180717,,,A*74

$GPVTG,194.48,T,,M,0.49,N,0.90,K,A*39

$GPGGA,145443.000,4709.3488,N,00138.2932,W,1,08,0.96,53.9,M,48.7,M,,*43

$GPGLL,4709.3488,N,00138.2932,W,145443.000,A,A*45

$GPGSA,A,3,26,10,07,18,21,27,08,16,,,,,1.23,0.96,0.78*00

$GPGSV,4,1,13,27,77,088,24,08,62,304,22,10,56,098,18,18,38,060,16*7F

$GPGSV,4,2,13,16,37,177,21,11,22,267,19,21,15,066,17,07,13,282,16*7C

$GPGSV,4,3,13,26,11,167,17,01,11,247,,30,10,316,,15,04,031,18*73

$GPGSV,4,4,13,32,01,128,*40

$GPRMC,145443.000,A,4709.3488,N,00138.2932,W,0.43,197.40,180717,,,A*76

$GPVTG,197.40,T,,M,0.43,N,0.79,K,A*3F

$GPGGA,145444.000,4709.3487,N,00138.2933,W,1,08,0.96,53.9,M,48.7,M,,*4A

$GPGLL,4709.3487,N,00138.2933,W,145444.000,A,A*4C

$GPGSA,A,3,26,10,07,18,21,27,08,16,,,,,1.23,0.96,0.78*00

$GPGSV,4,1,13,27,77,088,23,08,62,304,22,10,56,098,18,18,38,060,16*78

$GPGSV,4,2,13,16,37,177,20,11,22,267,18,21,15,066,17,07,13,282,16*7C

$GPGSV,4,3,13,26,11,167,17,01,11,247,,30,10,316,,15,04,031,18*73

$GPGSV,4,4,13,32,01,128,*40

$GPRMC,145444.000,A,4709.3487,N,00138.2933,W,0.38,201.25,180717,,,A*7C

$GPVTG,201.25,T,,M,0.38,N,0.70,K,A*35

$GPGGA,145445.000,4709.3486,N,00138.2933,W,1,08,0.96,53.9,M,48.7,M,,*4A

$GPGLL,4709.3486,N,00138.2933,W,145445.000,A,A*4C

$GPGSA,A,3,26,10,07,18,21,27,08,16,,,,,1.23,0.96,0.78*00

$GPGSV,4,1,13,27,77,088,23,08,62,304,21,10,56,098,18,18,38,060,16*7B

$GPGSV,4,2,13,16,37,177,20,11,22,267,18,21,15,066,17,07,13,282,17*7D

$GPGSV,4,3,13,26,11,167,17,01,11,247,,30,10,316,,15,04,030,18*72

$GPGSV,4,4,13,32,01,128,*40

$GPRMC,145445.000,A,4709.3486,N,00138.2933,W,0.35,206.54,180717,,,A*70

$GPVTG,206.54,T,,M,0.35,N,0.65,K,A*3D

$GPGGA,145446.000,4709.3485,N,00138.2934,W,1,08,0.96,53.9,M,48.7,M,,*4D

$GPGLL,4709.3485,N,00138.2934,W,145446.000,A,A*4B

$GPGSA,A,3,26,10,07,18,21,27,08,16,,,,,1.23,0.96,0.78*00

$GPGSV,4,1,13,27,77,088,23,08,62,304,21,10,56,098,18,18,38,060,16*7B

$GPGSV,4,2,13,16,36,177,20,11,22,267,18,21,15,066,17,07,13,282,17*7C

$GPGSV,4,3,13,26,11,167,17,01,11,247,,30,10,316,,15,04,030,18*72

$GPGSV,4,4,13,32,01,128,*40

$GPRMC,145446.000,A,4709.3485,N,00138.2934,W,0.36,194.68,180717,,,A*73

$GPVTG,194.68,T,,M,0.36,N,0.67,K,A*3B

$GPGGA,145447.000,4709.3484,N,00138.2934,W,1,08,0.96,53.9,M,48.7,M,,*4D

$GPGLL,4709.3484,N,00138.2934,W,145447.000,A,A*4B

$GPGSA,A,3,26,10,07,18,21,27,08,16,,,,,1.23,0.96,0.78*00

$GPGSV,4,1,13,27,77,088,23,08,62,304,21,10,56,098,18,18,38,060,16*7B

$GPGSV,4,2,13,16,36,177,20,11,22,267,18,21,15,066,17,07,13,282,16*7D

$GPGSV,4,3,13,26,11,167,17,01,11,247,,30,10,316,,15,04,030,18*72

$GPGSV,4,4,13,32,01,128,*40

$GPRMC,145447.000,A,4709.3484,N,00138.2934,W,0.32,195.86,180717,,,A*76

$GPVTG,195.86,T,,M,0.32,N,0.59,K,A*33

$GPGGA,145448.000,4709.3483,N,00138.2934,W,1,08,0.96,53.9,M,48.7,M,,*45

$GPGLL,4709.3483,N,00138.2934,W,145448.000,A,A*43

$GPGSA,A,3,26,10,07,18,21,27,08,16,,,,,1.23,0.96,0.78*00

$GPGSV,4,1,13,27,77,088,23,08,62,304,21,10,56,098,18,18,38,060,16*7B

$GPGSV,4,2,13,16,36,177,20,11,22,267,18,21,15,066,17,07,13,282,16*7D

$GPGSV,4,3,13,26,11,167,17,01,11,247,,30,10,316,,15,04,030,18*72

$GPGSV,4,4,13,32,01,128,*40

$GPRMC,145448.000,A,4709.3483,N,00138.2934,W,0.28,188.12,180717,,,A*74

$GPVTG,188.12,T,,M,0.28,N,0.52,K,A*32

$GPGGA,145449.000,4709.3482,N,00138.2934,W,1,08,0.96,53.9,M,48.7,M,,*45

$GPGLL,4709.3482,N,00138.2934,W,145449.000,A,A*43

$GPGSA,A,3,26,10,07,18,21,27,08,16,,,,,1.23,0.96,0.78*00

$GPGSV,4,1,13,27,77,088,23,08,62,304,20,10,56,098,17,18,38,060,16*75

$GPGSV,4,2,13,16,36,177,20,11,22,267,17,21,15,066,16,07,13,282,15*70

$GPGSV,4,3,13,26,11,167,17,01,11,247,,30,10,316,,15,04,030,17*7D

$GPGSV,4,4,13,32,01,128,*40

$GPRMC,145449.000,A,4709.3482,N,00138.2934,W,0.23,146.91,180717,,,A*76

$GPVTG,146.91,T,,M,0.23,N,0.42,K,A*31

$GPGGA,145450.000,4709.3482,N,00138.2933,W,1,08,0.96,53.9,M,48.7,M,,*4A

$GPGLL,4709.3482,N,00138.2933,W,145450.000,A,A*4C

$GPGSA,A,3,26,10,07,18,21,27,08,16,,,,,1.23,0.96,0.78*00

$GPGSV,4,1,13,27,77,088,22,08,62,304,19,10,56,098,16,18,38,060,16*7F

$GPGSV,4,2,13,16,36,177,20,11,22,267,17,21,15,066,16,07,13,282,15*70

$GPGSV,4,3,13,26,11,167,17,01,11,247,,30,10,316,,15,04,030,17*7D

$GPGSV,4,4,13,32,01,128,*40

$GPRMC,145450.000,A,4709.3482,N,00138.2933,W,0.28,113.65,180717,,,A*79

$GPVTG,113.65,T,,M,0.28,N,0.53,K,A*31

$GPGGA,145451.000,4709.3482,N,00138.2932,W,1,08,0.96,53.9,M,48.7,M,,*4A

$GPGLL,4709.3482,N,00138.2932,W,145451.000,A,A*4C

$GPGSA,A,3,26,10,07,18,21,27,08,16,,,,,1.23,0.96,0.78*00

$GPGSV,4,1,13,27,77,088,21,08,62,304,18,10,56,098,15,18,38,060,16*7E

$GPGSV,4,2,13,16,36,177,20,11,22,267,17,21,15,066,16,07,13,282,15*70

$GPGSV,4,3,13,26,11,167,16,01,11,247,,30,10,316,,15,04,030,17*7C

$GPGSV,4,4,13,32,01,128,*40

$GPRMC,145451.000,A,4709.3482,N,00138.2932,W,0.46,95.55,180717,,,A*4D

$GPVTG,95.55,T,,M,0.46,N,0.85,K,A*0E

$GPGGA,145452.000,4709.3482,N,00138.2930,W,1,08,0.96,53.9,M,48.7,M,,*4B

$GPGLL,4709.3482,N,00138.2930,W,145452.000,A,A*4D

$GPGSA,A,3,26,10,07,18,21,27,08,16,,,,,1.23,0.96,0.78*00

$GPGSV,4,1,13,27,77,088,21,08,62,304,17,10,56,098,14,18,38,060,16*70

$GPGSV,4,2,13,16,36,177,20,11,22,267,17,21,15,066,16,07,13,282,14*71

$GPGSV,4,3,13,26,11,167,16,01,11,247,,30,10,316,,15,04,030,17*7C

$GPGSV,4,4,13,32,01,128,*40

$GPRMC,145452.000,A,4709.3482,N,00138.2930,W,0.64,89.86,180717,,,A*4F

$GPVTG,89.86,T,,M,0.64,N,1.18,K,A*08

$GPGGA,145453.000,4709.3487,N,00138.2906,W,1,08,0.96,53.7,M,48.7,M,,*44

$GPGLL,4709.3487,N,00138.2906,W,145453.000,A,A*4C

$GPGSA,A,3,26,10,07,18,21,27,08,16,,,,,1.23,0.96,0.78*00

$GPGSV,4,1,13,27,77,088,22,08,62,304,18,10,56,098,15,18,38,060,16*7D

$GPGSV,4,2,13,16,36,177,20,11,22,267,17,21,15,066,16,07,13,282,17*72

$GPGSV,4,3,13,26,11,167,16,01,11,247,,30,10,316,,15,04,030,17*7C

$GPGSV,4,4,13,32,01,128,*40

$GPRMC,145453.000,A,4709.3487,N,00138.2906,W,0.81,85.54,180717,,,A*46

$GPVTG,85.54,T,,M,0.81,N,1.50,K,A*0C

$GPGGA,145454.000,4709.3490,N,00138.2878,W,1,08,0.96,53.5,M,48.7,M,,*4F

$GPGLL,4709.3490,N,00138.2878,W,145454.000,A,A*45

$GPGSA,A,3,26,10,07,18,21,27,08,16,,,,,1.23,0.96,0.77*0F

$GPGSV,4,1,13,27,77,088,23,08,62,304,19,10,56,098,16,18,38,060,16*7E

$GPGSV,4,2,13,16,36,177,20,11,22,267,17,21,15,066,16,07,13,282,17*72

$GPGSV,4,3,13,26,11,167,17,01,11,247,,30,10,316,,15,04,030,17*7D

$GPGSV,4,4,13,32,01,128,*40

$GPRMC,145454.000,A,4709.3490,N,00138.2878,W,1.06,83.61,180717,,,A*41

$GPVTG,83.61,T,,M,1.06,N,1.96,K,A*08

$GPGGA,145455.000,4709.3492,N,00138.2862,W,1,08,0.96,53.5,M,48.7,M,,*47

$GPGLL,4709.3492,N,00138.2862,W,145455.000,A,A*4D

$GPGSA,A,3,26,10,07,18,21,27,08,16,,,,,1.23,0.96,0.77*0F

$GPGSV,4,1,13,27,77,088,23,08,62,304,19,10,56,098,18,18,38,060,16*70

$GPGSV,4,2,13,16,36,177,20,11,22,267,17,21,15,066,16,07,13,282,17*72

$GPGSV,4,3,13,26,11,167,17,01,11,247,,30,10,316,,15,04,030,17*7D

$GPGSV,4,4,13,32,01,128,*40

$GPRMC,145455.000,A,4709.3492,N,00138.2862,W,1.15,82.73,180717,,,A*49

$GPVTG,82.73,T,,M,1.15,N,2.13,K,A*06

$GPGGA,145456.000,4709.3495,N,00138.2850,W,1,08,0.96,53.3,M,48.7,M,,*44

$GPGLL,4709.3495,N,00138.2850,W,145456.000,A,A*48

$GPGSA,A,3,26,10,07,18,21,27,08,16,,,,,1.23,0.96,0.77*0F

$GPGSV,4,1,13,27,77,088,23,08,62,304,20,10,56,098,17,18,38,060,16*75

$GPGSV,4,2,13,16,36,177,20,11,22,267,18,21,15,066,17,07,13,282,17*7C

$GPGSV,4,3,13,26,11,167,17,01,11,247,,30,10,316,,15,04,030,17*7D

$GPGSV,4,4,13,32,01,128,*40

$GPRMC,145456.000,A,4709.3495,N,00138.2850,W,1.20,82.26,180717,,,A*4A

$GPVTG,82.26,T,,M,1.20,N,2.22,K,A*02

$GPGGA,145457.000,4709.3501,N,00138.2833,W,1,08,0.96,53.2,M,48.7,M,,*4D

$GPGLL,4709.3501,N,00138.2833,W,145457.000,A,A*40

$GPGSA,A,3,26,10,07,18,21,27,08,16,,,,,1.23,0.96,0.77*0F

$GPGSV,4,1,13,27,76,089,22,08,62,304,19,10,56,098,15,18,38,060,16*7C

$GPGSV,4,2,13,16,36,177,20,11,22,267,18,21,15,066,17,07,13,282,17*7C

$GPGSV,4,3,13,26,11,167,17,01,11,247,,30,10,316,,15,04,030,17*7D

$GPGSV,4,4,13,32,01,128,*40

$GPRMC,145457.000,A,4709.3501,N,00138.2833,W,1.34,79.08,180717,,,A*4F

$GPVTG,79.08,T,,M,1.34,N,2.49,K,A*02

$GPGGA,145458.000,4709.3504,N,00138.2824,W,1,08,0.96,53.1,M,48.7,M,,*42

$GPGLL,4709.3504,N,00138.2824,W,145458.000,A,A*4C

$GPGSA,A,3,26,10,07,18,21,27,08,16,,,,,1.23,0.96,0.77*0F

$GPGSV,4,1,13,27,76,089,20,08,62,304,18,10,56,098,12,18,38,060,16*78

$GPGSV,4,2,13,16,36,177,21,11,22,267,18,21,15,066,16,07,13,282,16*7D

$GPGSV,4,3,13,26,11,167,17,01,11,247,,30,10,316,,15,04,030,16*7C

$GPGSV,4,4,13,32,01,128,*40

$GPRMC,145458.000,A,4709.3504,N,00138.2824,W,1.31,78.46,180717,,,A*4D

$GPVTG,78.46,T,,M,1.31,N,2.43,K,A*06

$GPGGA,145459.000,4709.3508,N,00138.2808,W,1,08,0.96,53.0,M,48.7,M,,*40

$GPGLL,4709.3508,N,00138.2808,W,145459.000,A,A*4F

$GPGSA,A,3,26,10,07,18,21,27,08,16,,,,,1.23,0.96,0.77*0F

$GPGSV,4,1,13,27,76,089,19,08,62,304,16,10,56,098,13,18,38,060,16*7D

$GPGSV,4,2,13,16,36,177,21,11,22,267,18,21,15,066,16,07,13,282,16*7D

$GPGSV,4,3,13,26,11,167,17,01,11,247,,30,10,316,,15,04,030,15*7F

$GPGSV,4,4,13,32,01,128,*40

$GPRMC,145459.000,A,4709.3508,N,00138.2808,W,1.32,77.11,180717,,,A*40

$GPVTG,77.11,T,,M,1.32,N,2.44,K,A*0F

$GPGGA,145500.000,4709.3511,N,00138.2790,W,1,08,0.96,53.0,M,48.7,M,,*4B

$GPGLL,4709.3511,N,00138.2790,W,145500.000,A,A*44

$GPGSA,A,3,26,10,07,18,21,27,08,16,,,,,1.23,0.96,0.77*0F

$GPGSV,4,1,13,27,76,089,18,08,62,304,16,10,56,098,15,18,38,060,16*7A

$GPGSV,4,2,13,16,36,177,22,11,22,267,18,21,15,066,16,07,13,282,16*7E

$GPGSV,4,3,13,26,11,167,17,01,11,247,,30,10,315,,15,04,030,14*7D

$GPGSV,4,4,13,32,01,128,*40

$GPRMC,145500.000,A,4709.3511,N,00138.2790,W,1.42,77.42,180717,,,A*4A

$GPVTG,77.42,T,,M,1.42,N,2.62,K,A*0A

$GPGGA,145501.000,4709.3514,N,00138.2775,W,1,08,0.96,53.0,M,48.7,M,,*44

$GPGLL,4709.3514,N,00138.2775,W,145501.000,A,A*4B

$GPGSA,A,3,26,10,07,18,21,27,08,16,,,,,1.23,0.96,0.77*0F

$GPGSV,4,1,13,27,76,089,18,08,62,304,16,10,56,098,13,18,38,060,16*7C

$GPGSV,4,2,13,16,36,177,22,11,22,267,17,21,15,066,16,07,13,282,15*72

$GPGSV,4,3,13,26,11,167,17,01,11,247,,30,10,315,,15,04,030,13*7A

$GPGSV,4,4,13,32,01,128,*40

$GPRMC,145501.000,A,4709.3514,N,00138.2775,W,1.45,77.54,180717,,,A*45

$GPVTG,77.54,T,,M,1.45,N,2.69,K,A*01

$GPGGA,145502.000,4709.3516,N,00138.2757,W,1,08,0.96,53.0,M,48.7,M,,*45

$GPGLL,4709.3516,N,00138.2757,W,145502.000,A,A*4A

$GPGSA,A,3,26,10,07,18,21,27,08,16,,,,,1.23,0.96,0.77*0F

$GPGSV,4,1,13,27,76,089,17,08,62,304,16,10,56,098,13,18,38,060,17*72

$GPGSV,4,2,13,16,36,177,22,11,22,267,17,21,15,066,16,07,13,282,15*72

$GPGSV,4,3,13,26,11,167,17,01,11,247,,30,10,315,,15,04,030,13*7A

$GPGSV,4,4,13,32,01,128,*40

$GPRMC,145502.000,A,4709.3516,N,00138.2757,W,1.55,76.67,180717,,,A*44

$GPVTG,76.67,T,,M,1.55,N,2.86,K,A*00

$GPGGA,145503.000,4709.3519,N,00138.2741,W,1,08,0.96,53.0,M,48.7,M,,*4C

$GPGLL,4709.3519,N,00138.2741,W,145503.000,A,A*43

$GPGSA,A,3,26,10,07,18,21,27,08,16,,,,,1.23,0.96,0.77*0F

$GPGSV,4,1,13,27,76,089,17,08,62,304,16,10,56,098,14,18,38,060,17*75

$GPGSV,4,2,13,16,36,177,22,11,22,267,17,21,15,066,16,07,13,282,16*71

$GPGSV,4,3,13,26,11,167,17,01,11,247,,30,10,315,,15,04,030,13*7A

$GPGSV,4,4,13,32,01,128,*40

$GPRMC,145503.000,A,4709.3519,N,00138.2741,W,1.60,75.46,180717,,,A*4B

$GPVTG,75.46,T,,M,1.60,N,2.97,K,A*06

$GPGGA,145504.000,4709.3521,N,00138.2726,W,1,08,0.96,52.9,M,48.7,M,,*49

$GPGLL,4709.3521,N,00138.2726,W,145504.000,A,A*4E

$GPGSA,A,3,26,10,07,18,21,27,08,16,,,,,1.23,0.96,0.77*0F

$GPGSV,4,1,13,27,76,089,17,08,62,304,16,10,56,098,13,18,38,060,17*72

$GPGSV,4,2,13,16,36,177,22,11,22,267,17,21,15,066,16,07,13,282,17*70

$GPGSV,4,3,13,26,11,167,17,01,11,247,,30,10,315,,15,04,030,13*7A

$GPGSV,4,4,13,32,01,128,*40

$GPRMC,145504.000,A,4709.3521,N,00138.2726,W,1.66,74.84,180717,,,A*4F

$GPVTG,74.84,T,,M,1.66,N,3.08,K,A*08

$GPGGA,145505.000,4709.3524,N,00138.2713,W,1,08,0.96,52.9,M,48.7,M,,*4B

$GPGLL,4709.3524,N,00138.2713,W,145505.000,A,A*4C

$GPGSA,A,3,26,10,07,18,21,27,08,16,,,,,1.23,0.96,0.77*0F

$GPGSV,4,1,13,27,76,089,17,08,62,304,16,10,56,098,11,18,38,060,18*7F

$GPGSV,4,2,13,16,36,177,22,11,22,267,17,21,15,066,16,07,13,282,17*70

$GPGSV,4,3,13,26,11,167,17,01,11,247,,30,10,315,,15,04,030,14*7D

$GPGSV,4,4,13,32,01,128,*40

$GPRMC,145505.000,A,4709.3524,N,00138.2713,W,1.66,74.15,180717,,,A*45

$GPVTG,74.15,T,,M,1.66,N,3.08,K,A*00

$GPGGA,145506.000,4709.3526,N,00138.2696,W,1,08,0.96,52.8,M,48.7,M,,*47

$GPGLL,4709.3526,N,00138.2696,W,145506.000,A,A*41

$GPGSA,A,3,26,10,07,18,21,27,08,16,,,,,1.23,0.96,0.77*0F

$GPGSV,4,1,13,27,76,089,17,08,62,304,16,10,56,098,11,18,38,060,18*7F

$GPGSV,4,2,13,16,36,177,22,11,22,267,17,21,15,066,16,07,13,282,15*72

$GPGSV,4,3,13,26,11,167,17,01,11,247,,30,10,315,,15,04,030,15*7C

$GPGSV,4,4,13,32,01,128,*40

$GPRMC,145506.000,A,4709.3526,N,00138.2696,W,1.75,73.96,180717,,,A*46

$GPVTG,73.96,T,,M,1.75,N,3.25,K,A*01

$GPGGA,145507.000,4709.3527,N,00138.2686,W,1,08,0.96,52.7,M,48.7,M,,*49

$GPGLL,4709.3527,N,00138.2686,W,145507.000,A,A*40

$GPGSA,A,3,26,10,07,18,21,27,08,16,,,,,1.23,0.96,0.77*0F

$GPGSV,4,1,13,27,76,089,17,08,62,304,15,10,56,098,12,18,38,060,18*7F

$GPGSV,4,2,13,16,36,177,21,11,22,267,17,21,15,066,16,07,13,282,16*72

$GPGSV,4,3,13,26,11,167,17,01,11,247,,30,10,315,,15,04,030,15*7C

$GPGSV,4,4,13,32,01,128,*40

$GPRMC,145507.000,A,4709.3527,N,00138.2686,W,1.68,74.24,180717,,,A*45

$GPVTG,74.24,T,,M,1.68,N,3.11,K,A*04

$GPGGA,145508.000,4709.3528,N,00138.2677,W,1,08,0.96,52.6,M,48.7,M,,*46

$GPGLL,4709.3528,N,00138.2677,W,145508.000,A,A*4E

$GPGSA,A,3,26,10,07,18,21,27,08,16,,,,,1.23,0.96,0.77*0F

$GPGSV,4,1,13,27,76,089,17,08,62,304,14,10,56,098,12,18,38,060,18*7E

$GPGSV,4,2,13,16,36,177,21,11,22,267,17,21,15,066,16,07,13,282,16*72

$GPGSV,4,3,13,26,11,167,17,01,11,247,,30,10,315,,15,04,030,15*7C

$GPGSV,4,4,13,32,01,128,*40

$GPRMC,145508.000,A,4709.3528,N,00138.2677,W,1.59,76.75,180717,,,A*4F

$GPVTG,76.75,T,,M,1.59,N,2.94,K,A*0C

$GPGGA,145509.000,4709.3525,N,00138.2659,W,1,08,0.96,52.5,M,48.7,M,,*45

$GPGLL,4709.3525,N,00138.2659,W,145509.000,A,A*4E

$GPGSA,A,3,26,10,07,18,21,27,08,16,,,,,1.23,0.96,0.77*0F

$GPGSV,4,1,13,27,76,089,17,08,62,304,15,10,56,098,12,18,38,060,18*7F

$GPGSV,4,2,13,16,36,177,21,11,22,267,17,21,15,066,16,07,13,282,15*71

$GPGSV,4,3,13,26,11,167,17,01,11,247,,30,10,315,,15,04,030,15*7C

$GPGSV,4,4,13,32,01,128,*40

$GPRMC,145509.000,A,4709.3525,N,00138.2659,W,1.58,81.57,180717,,,A*46

$GPVTG,81.57,T,,M,1.58,N,2.93,K,A*02

$GPGGA,145510.000,4709.3524,N,00138.2643,W,1,08,0.96,52.4,M,48.7,M,,*46

$GPGLL,4709.3524,N,00138.2643,W,145510.000,A,A*4C

$GPGSA,A,3,26,10,07,18,21,27,08,16,,,,,1.23,0.96,0.77*0F

$GPGSV,4,1,13,27,76,089,17,08,62,304,15,10,56,098,13,18,38,060,18*7E

$GPGSV,4,2,13,16,36,177,21,11,22,267,17,21,15,066,16,07,13,282,15*71

$GPGSV,4,3,13,26,11,167,17,01,11,247,,30,10,315,,15,04,030,15*7C

$GPGSV,4,4,13,32,01,128,*40

$GPRMC,145510.000,A,4709.3524,N,00138.2643,W,1.54,84.66,180717,,,A*4F

$GPVTG,84.66,T,,M,1.54,N,2.85,K,A*0E

$GPGGA,145511.000,4709.3521,N,00138.2630,W,1,08,0.96,52.2,M,48.7,M,,*40

$GPGLL,4709.3521,N,00138.2630,W,145511.000,A,A*4C

$GPGSA,A,3,26,10,07,18,21,27,08,16,,,,,1.23,0.96,0.77*0F

$GPGSV,4,1,13,27,76,089,16,08,62,304,15,10,56,098,13,18,38,060,18*7F

$GPGSV,4,2,13,16,36,177,21,11,22,267,17,21,15,066,16,07,13,282,15*71

$GPGSV,4,3,13,26,11,167,16,01,11,247,,30,10,315,,15,04,030,15*7D

$GPGSV,4,4,13,32,01,128,*40

$GPRMC,145511.000,A,4709.3521,N,00138.2630,W,1.48,89.12,180717,,,A*4C

$GPVTG,89.12,T,,M,1.48,N,2.74,K,A*03

$GPGGA,145512.000,4709.3518,N,00138.2621,W,1,08,0.96,52.0,M,48.7,M,,*4B

$GPGLL,4709.3518,N,00138.2621,W,145512.000,A,A*45

$GPGSA,A,3,26,10,07,18,21,27,08,16,,,,,1.23,0.96,0.77*0F

$GPGSV,4,1,13,27,76,089,16,08,62,304,15,10,56,098,13,18,38,060,18*7F

$GPGSV,4,2,13,16,36,177,21,11,22,267,17,21,15,066,16,07,13,282,16*72

$GPGSV,4,3,13,26,11,167,16,01,11,247,,30,10,315,,15,04,030,15*7D

$GPGSV,4,4,13,32,01,128,*40

$GPRMC,145512.000,A,4709.3518,N,00138.2621,W,1.41,91.25,180717,,,A*41

$GPVTG,91.25,T,,M,1.41,N,2.60,K,A*02

$GPGGA,145513.000,4709.3518,N,00138.2610,W,1,08,0.96,51.9,M,48.7,M,,*42

$GPGLL,4709.3518,N,00138.2610,W,145513.000,A,A*46

$GPGSA,A,3,26,10,07,18,21,27,08,16,,,,,1.23,0.96,0.77*0F

$GPGSV,4,1,13,27,76,089,16,08,62,305,16,10,56,098,13,18,38,060,18*7D

$GPGSV,4,2,13,16,36,177,21,11,22,267,17,21,15,066,16,07,13,282,16*72

$GPGSV,4,3,13,26,11,167,17,01,11,247,,30,10,315,,15,04,030,15*7C

$GPGSV,4,4,13,32,01,128,*40

$GPRMC,145513.000,A,4709.3518,N,00138.2610,W,1.37,90.63,180717,,,A*40

$GPVTG,90.63,T,,M,1.37,N,2.53,K,A*00

$GPGGA,145514.000,4709.3517,N,00138.2595,W,1,08,0.96,51.5,M,48.7,M,,*48

$GPGLL,4709.3517,N,00138.2595,W,145514.000,A,A*40

$GPGSA,A,3,26,10,07,18,21,27,08,16,,,,,1.23,0.96,0.77*0F

$GPGSV,4,1,13,27,76,089,17,08,62,305,16,10,56,098,15,18,38,060,18*7A

$GPGSV,4,2,13,16,36,177,21,11,22,267,17,21,15,066,15,07,13,282,16*71

$GPGSV,4,3,13,26,11,167,17,01,11,247,,30,10,315,,15,04,030,15*7C

$GPGSV,4,4,13,32,01,128,*40

$GPRMC,145514.000,A,4709.3517,N,00138.2595,W,1.41,90.15,180717,,,A*46

$GPVTG,90.15,T,,M,1.41,N,2.62,K,A*02

$GPGGA,145515.000,4709.3519,N,00138.2579,W,1,08,0.96,51.3,M,48.7,M,,*43

$GPGLL,4709.3519,N,00138.2579,W,145515.000,A,A*4D

$GPGSA,A,3,26,10,07,18,21,27,08,16,,,,,1.23,0.96,0.77*0F

$GPGSV,4,1,13,27,76,089,17,08,62,305,15,10,56,097,14,18,38,060,18*77

$GPGSV,4,2,13,16,36,177,21,11,22,267,17,21,15,066,17,07,13,282,16*73

$GPGSV,4,3,13,26,11,167,16,01,11,247,,30,10,315,,15,04,030,15*7D

$GPGSV,4,4,13,32,01,128,*40

$GPRMC,145515.000,A,4709.3519,N,00138.2579,W,1.47,87.75,180717,,,A*4D

$GPVTG,87.75,T,,M,1.47,N,2.73,K,A*04

$GPGGA,145516.000,4709.3519,N,00138.2566,W,1,08,0.96,51.0,M,48.7,M,,*4D

$GPGLL,4709.3519,N,00138.2566,W,145516.000,A,A*40

$GPGSA,A,3,26,10,07,18,21,27,08,16,,,,,1.23,0.96,0.77*0F

$GPGSV,4,1,13,27,76,089,17,08,62,305,15,10,56,097,15,18,38,060,18*76

$GPGSV,4,2,13,16,36,177,21,11,23,267,17,21,15,066,17,07,13,282,16*72

$GPGSV,4,3,13,26,11,167,17,01,11,247,,30,10,315,,15,04,030,15*7C

$GPGSV,4,4,13,32,01,128,*40

$GPRMC,145516.000,A,4709.3519,N,00138.2566,W,1.48,85.60,180717,,,A*49

$GPVTG,85.60,T,,M,1.48,N,2.75,K,A*0B

$GPGGA,145517.000,4709.3520,N,00138.2555,W,1,08,0.96,50.8,M,48.7,M,,*4F

$GPGLL,4709.3520,N,00138.2555,W,145517.000,A,A*4B

$GPGSA,A,3,26,10,07,18,21,27,08,16,,,,,1.23,0.96,0.77*0F

$GPGSV,4,1,13,27,76,089,17,08,62,305,15,10,56,097,12,18,38,060,18*71

$GPGSV,4,2,13,16,36,177,21,11,23,267,17,21,15,066,17,07,13,282,16*72

$GPGSV,4,3,13,26,11,167,16,01,11,247,,30,10,315,,15,04,030,15*7D

$GPGSV,4,4,13,32,01,128,*40

$GPRMC,145517.000,A,4709.3520,N,00138.2555,W,1.44,84.33,180717,,,A*49

$GPVTG,84.33,T,,M,1.44,N,2.67,K,A*03

$GPGGA,145518.000,4709.3520,N,00138.2546,W,1,08,0.96,50.5,M,48.7,M,,*4F

$GPGLL,4709.3520,N,00138.2546,W,145518.000,A,A*46

$GPGSA,A,3,26,10,07,18,21,27,08,16,,,,,1.23,0.96,0.77*0F

$GPGSV,4,1,13,27,76,089,16,08,62,305,15,10,56,097,15,18,38,060,18*77

$GPGSV,4,2,13,16,36,177,21,11,23,267,16,21,15,066,17,07,13,282,16*73

$GPGSV,4,3,13,26,11,167,16,01,11,247,,30,10,315,,15,04,030,15*7D

$GPGSV,4,4,13,32,01,128,*40

$GPRMC,145518.000,A,4709.3520,N,00138.2546,W,1.39,84.07,180717,,,A*49

$GPVTG,84.07,T,,M,1.39,N,2.57,K,A*0D

$GPGGA,145519.000,4709.3518,N,00138.2535,W,1,08,0.96,50.2,M,48.7,M,,*46

$GPGLL,4709.3518,N,00138.2535,W,145519.000,A,A*48

$GPGSA,A,3,26,10,07,18,21,27,08,16,,,,,1.23,0.96,0.77*0F

$GPGSV,4,1,13,27,76,089,16,08,62,305,16,10,56,097,14,18,38,060,18*75

$GPGSV,4,2,13,16,36,177,21,11,23,267,15,21,15,066,17,07,13,282,16*70

$GPGSV,4,3,13,26,11,167,16,01,11,247,,30,10,315,,15,04,030,15*7D

$GPGSV,4,4,13,32,01,128,*40

$GPRMC,145519.000,A,4709.3518,N,00138.2535,W,1.37,87.07,180717,,,A*4A

$GPVTG,87.07,T,,M,1.37,N,2.54,K,A*03

$GPGGA,145520.000,4709.3518,N,00138.2525,W,1,08,0.96,50.0,M,48.7,M,,*4F

$GPGLL,4709.3518,N,00138.2525,W,145520.000,A,A*43

$GPGSA,A,3,26,10,07,18,21,27,08,16,,,,,1.23,0.96,0.77*0F

$GPGSV,4,1,13,27,76,089,16,08,62,305,16,10,56,097,14,18,38,060,18*75

$GPGSV,4,2,13,16,36,177,21,11,23,267,14,21,15,066,17,07,13,282,16*71

$GPGSV,4,3,13,26,11,167,16,01,11,247,,30,10,315,,15,04,030,15*7D

$GPGSV,4,4,13,32,01,128,*40

$GPRMC,145520.000,A,4709.3518,N,00138.2525,W,1.38,87.73,180717,,,A*4D

$GPVTG,87.73,T,,M,1.38,N,2.55,K,A*0E

$GPGGA,145521.000,4709.3519,N,00138.2516,W,1,08,0.96,49.8,M,48.7,M,,*4F

$GPGLL,4709.3519,N,00138.2516,W,145521.000,A,A*43

$GPGSA,A,3,26,10,07,18,21,27,08,16,,,,,1.23,0.96,0.77*0F

$GPGSV,4,1,13,27,76,089,15,08,62,305,16,10,56,097,14,18,38,060,18*76

$GPGSV,4,2,13,16,36,177,21,11,23,267,15,21,15,066,16,07,13,282,15*72

$GPGSV,4,3,13,26,11,167,16,01,11,247,,30,10,315,,15,04,030,14*7C

$GPGSV,4,4,13,32,01,128,*40

$GPRMC,145521.000,A,4709.3519,N,00138.2516,W,1.32,86.72,180717,,,A*47

$GPVTG,86.72,T,,M,1.32,N,2.44,K,A*04

$GPGGA,145522.000,4709.3522,N,00138.2513,W,1,08,0.96,49.7,M,48.7,M,,*4E

$GPGLL,4709.3522,N,00138.2513,W,145522.000,A,A*4D

$GPGSA,A,3,26,10,07,18,21,27,08,16,,,,,1.23,0.96,0.77*0F

$GPGSV,4,1,13,27,76,089,14,08,62,305,16,10,56,097,14,18,38,060,18*77

$GPGSV,4,2,13,16,36,177,21,11,23,267,15,21,15,066,16,07,13,282,16*71

$GPGSV,4,3,13,26,11,167,16,01,11,247,,30,10,315,,15,04,030,14*7C

$GPGSV,4,4,13,32,01,128,*40

$GPRMC,145522.000,A,4709.3522,N,00138.2513,W,1.21,84.46,180717,,,A*4E

$GPVTG,84.46,T,,M,1.21,N,2.25,K,A*04

$GPGGA,145523.000,4709.3525,N,00138.2514,W,1,08,0.96,49.6,M,48.7,M,,*4E

$GPGLL,4709.3525,N,00138.2514,W,145523.000,A,A*4C

$GPGSA,A,3,26,10,07,18,21,27,08,16,,,,,1.23,0.96,0.77*0F

$GPGSV,4,1,13,27,76,089,16,08,62,305,16,10,56,097,15,18,38,060,18*74

$GPGSV,4,2,13,16,36,177,21,11,23,267,15,21,15,066,16,07,13,282,16*71

$GPGSV,4,3,13,26,11,167,16,01,11,247,,30,10,315,,15,04,030,14*7C

$GPGSV,4,4,13,32,01,128,*40

$GPRMC,145523.000,A,4709.3525,N,00138.2514,W,1.06,81.30,180717,,,A*4E

$GPVTG,81.30,T,,M,1.06,N,1.96,K,A*0E

$GPGGA,145524.000,4709.3527,N,00138.2521,W,1,08,0.96,49.4,M,48.7,M,,*4F

$GPGLL,4709.3527,N,00138.2521,W,145524.000,A,A*4F

$GPGSA,A,3,26,10,07,18,21,27,08,16,,,,,1.23,0.96,0.77*0F

$GPGSV,4,1,13,27,76,089,14,08,62,305,16,10,56,097,15,18,38,060,18*76

$GPGSV,4,2,13,16,36,177,21,11,23,267,15,21,15,066,16,07,13,282,16*71

$GPGSV,4,3,13,26,11,167,16,01,11,247,,30,10,315,,15,04,030,14*7C

$GPGSV,4,4,13,32,01,128,*40

$GPRMC,145524.000,A,4709.3527,N,00138.2521,W,0.86,78.47,180717,,,A*42

$GPVTG,78.47,T,,M,0.86,N,1.60,K,A*08

$GPGGA,145525.000,4709.3529,N,00138.2522,W,1,08,0.96,49.3,M,48.7,M,,*44

$GPGLL,4709.3529,N,00138.2522,W,145525.000,A,A*43

$GPGSA,A,3,26,10,07,18,21,27,08,16,,,,,1.23,0.96,0.77*0F

$GPGSV,4,1,13,27,76,089,16,08,62,305,16,10,56,097,15,18,38,060,18*74

$GPGSV,4,2,13,16,36,177,21,11,23,267,16,21,15,066,16,07,13,282,16*72

$GPGSV,4,3,13,26,11,167,16,01,11,247,,30,10,315,,15,04,030,14*7C

$GPGSV,4,4,13,32,01,128,*40

$GPRMC,145525.000,A,4709.3529,N,00138.2522,W,0.74,77.10,180717,,,A*4E

$GPVTG,77.10,T,,M,0.74,N,1.38,K,A*05

$GPGGA,145526.000,4709.3530,N,00138.2529,W,1,08,0.96,48.9,M,48.7,M,,*4F

$GPGLL,4709.3530,N,00138.2529,W,145526.000,A,A*43

$GPGSA,A,3,26,10,07,18,21,27,08,16,,,,,1.23,0.96,0.77*0F

$GPGSV,4,1,13,27,76,089,17,08,62,305,16,10,56,097,16,18,38,060,18*76

$GPGSV,4,2,13,16,36,177,21,11,23,267,16,21,14,066,16,07,13,282,15*70

$GPGSV,4,3,13,26,11,167,16,01,11,247,,30,10,315,,15,04,030,15*7D

$GPGSV,4,4,13,32,01,128,*40

$GPRMC,145526.000,A,4709.3530,N,00138.2529,W,0.62,79.24,180717,,,A*40

$GPVTG,79.24,T,,M,0.62,N,1.15,K,A*04

$GPGGA,145527.000,4709.3534,N,00138.2535,W,1,08,0.96,48.5,M,48.7,M,,*4B

$GPGLL,4709.3534,N,00138.2535,W,145527.000,A,A*4B

$GPGSA,A,3,26,10,07,18,21,27,08,16,,,,,1.23,0.96,0.77*0F

$GPGSV,4,1,13,27,76,089,16,08,62,305,17,10,56,097,16,18,38,060,18*76

$GPGSV,4,2,13,16,36,177,21,11,23,267,16,21,14,066,15,07,13,282,15*73

$GPGSV,4,3,13,26,11,167,16,01,11,247,,30,10,315,,15,04,030,16*7E

$GPGSV,4,4,13,32,01,128,*40

$GPRMC,145527.000,A,4709.3534,N,00138.2535,W,0.49,73.73,180717,,,A*49

$GPVTG,73.73,T,,M,0.49,N,0.90,K,A*09

$GPGGA,145528.000,4709.3536,N,00138.2542,W,1,08,0.96,48.2,M,48.7,M,,*41

$GPGLL,4709.3536,N,00138.2542,W,145528.000,A,A*46

$GPGSA,A,3,26,10,07,18,21,27,08,16,,,,,1.23,0.96,0.77*0F

$GPGSV,4,1,13,27,76,089,16,08,62,305,17,10,56,097,16,18,38,060,18*76

$GPGSV,4,2,13,16,36,177,21,11,23,267,16,21,14,066,15,07,13,282,15*73

$GPGSV,4,3,13,26,11,167,16,01,11,247,,30,10,315,,15,04,030,15*7D

$GPGSV,4,4,13,32,01,128,*40

$GPRMC,145528.000,A,4709.3536,N,00138.2542,W,0.34,69.18,180717,,,A*48

$GPVTG,69.18,T,,M,0.34,N,0.63,K,A*09

$GPGGA,145529.000,4709.3539,N,00138.2548,W,1,08,0.96,48.0,M,48.7,M,,*47

$GPGLL,4709.3539,N,00138.2548,W,145529.000,A,A*42

$GPGSA,A,3,26,10,07,18,21,27,08,16,,,,,1.23,0.96,0.77*0F

$GPGSV,4,1,13,27,76,089,16,08,62,305,17,10,56,097,16,18,38,060,18*76

$GPGSV,4,2,13,16,36,177,21,11,23,267,16,21,14,066,15,07,13,282,15*73

$GPGSV,4,3,13,26,11,167,16,01,11,247,,30,10,315,,15,04,030,16*7E

$GPGSV,4,4,13,32,01,128,*40

$GPRMC,145529.000,A,4709.3539,N,00138.2548,W,0.26,62.59,180717,,,A*41

$GPVTG,62.59,T,,M,0.26,N,0.48,K,A*0D

$GPGGA,145530.000,4709.3542,N,00138.2555,W,1,08,0.96,47.3,M,48.7,M,,*43

$GPGLL,4709.3542,N,00138.2555,W,145530.000,A,A*4A

$GPGSA,A,3,26,10,07,18,21,27,08,16,,,,,1.23,0.96,0.77*0F

$GPGSV,4,1,13,27,76,089,16,08,62,305,17,10,56,097,17,18,38,060,18*77

$GPGSV,4,2,13,16,36,177,21,11,23,267,15,21,14,066,15,07,13,282,15*70

$GPGSV,4,3,13,26,11,167,16,01,11,247,,30,10,315,,15,04,030,16*7E

$GPGSV,4,4,13,32,01,128,*40

$GPRMC,145530.000,