,,,,,1.22,0.96,0.76*0F

$GPGSV,4,1,13,27,74,095,16,08,64,305,19,10,56,093,15,18,36,058,18*73

$GPGSV,4,2,13,16,34,177,18,11,24,268,12,21,13,067,14,01,13,248,*74

$GPGSV,4,3,13,07,12,280,15,30,10,313,,26,08,167,14,15,04,028,14*73

$GPGSV,4,4,13,32,03,126,*4C

$GPRMC,150025.000,A,4709.3674,N,00138.2803,W,0.21,291.16,180717,,,A*76

$GPVTG,291.16,T,,M,0.21,N,0.40,K,A*37

$GPGGA,150026.000,4709.3674,N,00138.2804,W,1,08,0.96,0.9,M,48.7,M,,*73

$GPGLL,4709.3674,N,00138.2804,W,150026.000,A,A*43

$GPGSA,A,3,07,26,10,21,18,27,08,16,,,,,1.22,0.96,0.76*0F

$GPGSV,4,1,13,27,74,095,16,08,64,305,19,10,56,093,15,18,36,058,18*73

$GPGSV,4,2,13,16,34,177,18,11,24,268,11,21,13,067,13,01,13,248,*70

$GPGSV,4,3,13,07,12,280,13,30,10,313,,26,08,167,12,15,04,028,14*73

$GPGSV,4,4,13,32,03,126,*4C

$GPRMC,150026.000,A,4709.3674,N,00138.2804,W,0.24,292.75,180717,,,A*71

$GPVTG,292.75,T,,M,0.24,N,0.45,K,A*31

$GPGGA,150027.000,4709.3674,N,00138.2805,W,1,08,0.96,0.9,M,48.7,M,,*73

$GPGLL,4709.3674,N,00138.2805,W,150027.000,A,A*43

$GPGSA,A,3,07,26,10,21,18,27,08,16,,,,,1.22,0.96,0.76*0F

$GPGSV,4,1,13,27,74,095,15,08,64,305,19,10,56,093,15,18,36,058,18*70

$GPGSV,4,2,13,16,34,177,18,11,24,268,12,21,13,067,12,01,13,248,*72

$GPGSV,4,3,13,07,12,280,14,30,10,313,,26,08,167,14,15,04,028,14*72

$GPGSV,4,4,13,32,03,126,*4C

$GPRMC,150027.000,A,4709.3674,N,00138.2805,W,0.24,281.38,180717,,,A*7A

$GPVTG,281.38,T,,M,0.24,N,0.44,K,A*3B

$GPGGA,150028.000,4709.3674,N,00138.2806,W,1,08,0.96,0.9,M,48.7,M,,*7F

$GPGLL,4709.3674,N,00138.2806,W,150028.000,A,A*4F

$GPGSA,A,3,07,26,10,21,18,27,08,16,,,,,1.22,0.96,0.76*0F

$GPGSV,4,1,13,27,74,095,17,08,64,306,19,10,56,093,15,18,36,058,18*71

$GPGSV,4,2,13,16,34,177,18,11,24,268,12,21,13,067,13,01,13,248,*73

$GPGSV,4,3,13,07,12,280,14,30,10,313,,26,08,167,12,15,04,028,14*74

$GPGSV,4,4,13,32,03,126,*4C

$GPRMC,150028.000,A,4709.3674,N,00138.2806,W,0.23,274.94,180717,,,A*7D

$GPVTG,274.94,T,,M,0.23,N,0.43,K,A*37

$GPGGA,150029.000,4709.3674,N,00138.2807,W,1,08,0.96,0.9,M,48.7,M,,*7F

$GPGLL,4709.3674,N,00138.2807,W,150029.000,A,A*4F

$GPGSA,A,3,07,26,10,21,18,27,08,16,,,,,1.22,0.96,0.76*0F

$GPGSV,4,1,13,27,74,095,16,08,64,306,19,10,56,093,14,18,36,058,17*7E

$GPGSV,4,2,13,16,34,177,18,11,24,268,12,21,13,067,12,01,13,248,*72

$GPGSV,4,3,13,07,12,280,15,30,10,313,,26,08,167,13,15,04,028,14*74

$GPGSV,4,4,13,32,03,126,*4C

$GPRMC,150029.000,A,4709.3674,N,00138.2807,W,0.23,272.67,180717,,,A*77

$GPVTG,272.67,T,,M,0.23,N,0.43,K,A*3D

$GPGGA,150030.000,4709.3674,N,00138.2808,W,1,08,0.96,0.9,M,48.7,M,,*78

$GPGLL,4709.3674,N,00138.2808,W,150030.000,A,A*48

$GPGSA,A,3,07,26,10,21,18,27,08,16,,,,,1.22,0.96,0.76*0F

$GPGSV,4,1,13,27,74,095,15,08,64,306,19,10,56,093,15,18,36,058,17*7C

$GPGSV,4,2,13,16,34,177,18,11,24,268,12,21,13,067,13,01,13,248,*73

$GPGSV,4,3,13,07,12,280,17,30,10,313,,26,08,167,11,15,04,028,14*74

$GPGSV,4,4,13,32,03,126,*4C

$GPRMC,150030.000,A,4709.3674,N,00138.2808,W,0.20,262.52,180717,,,A*74

$GPVTG,262.52,T,,M,0.20,N,0.37,K,A*3A

$GPGGA,150031.000,4709.3674,N,00138.2809,W,1,08,0.96,0.9,M,48.7,M,,*78

$GPGLL,4709.3674,N,00138.2809,W,150031.000,A,A*48

$GPGSA,A,3,07,26,10,21,18,27,08,16,,,,,1.22,0.96,0.76*0F

$GPGSV,4,1,13,27,74,095,17,08,64,306,20,10,56,093,14,18,36,058,17*75

$GPGSV,4,2,13,16,34,177,18,11,25,269,12,21,13,067,15,01,13,248,*75

$GPGSV,4,3,13,07,12,280,15,30,10,313,,26,08,167,15,15,04,028,14*72

$GPGSV,4,4,13,32,03,126,*4C

$GPRMC,150031.000,A,4709.3674,N,00138.2809,W,0.23,271.23,180717,,,A*73

$GPVTG,271.23,T,,M,0.23,N,0.42,K,A*3F

$GPGGA,150032.000,4709.3674,N,00138.2809,W,1,08,0.96,0.9,M,48.7,M,,*7B

$GPGLL,4709.3674,N,00138.2809,W,150032.000,A,A*4B

$GPGSA,A,3,07,26,10,21,18,27,08,16,,,,,1.22,0.96,0.76*0F

$GPGSV,4,1,13,27,74,095,17,08,64,306,20,10,56,093,14,18,36,058,17*75

$GPGSV,4,2,13,16,34,177,19,11,25,269,,21,13,067,14,01,13,248,*76

$GPGSV,4,3,13,07,12,280,16,30,10,313,,26,08,167,15,15,04,028,14*71

$GPGSV,4,4,13,32,03,126,*4C

$GPRMC,150032.000,A,4709.3674,N,00138.2809,W,0.18,277.14,180717,,,A*7A

$GPVTG,277.14,T,,M,0.18,N,0.34,K,A*34

$GPGGA,150033.000,4709.3674,N,00138.2810,W,1,08,0.96,0.9,M,48.7,M,,*72

$GPGLL,4709.3674,N,00138.2810,W,150033.000,A,A*42

$GPGSA,A,3,07,26,10,21,18,27,08,16,,,,,1.22,0.96,0.76*0F

$GPGSV,4,1,13,27,74,095,17,08,64,306,21,10,56,093,14,18,36,058,17*74

$GPGSV,4,2,13,16,34,177,19,11,25,269,,21,13,067,14,01,13,248,*76

$GPGSV,4,3,13,07,12,280,16,30,10,313,,26,08,167,16,15,04,028,13*75

$GPGSV,4,4,13,32,03,126,*4C

$GPRMC,150033.000,A,4709.3674,N,00138.2810,W,0.09,254.58,180717,,,A*7A

$GPVTG,254.58,T,,M,0.09,N,0.17,K,A*3C

$GPGGA,150034.000,4709.3674,N,00138.2810,W,1,08,0.96,0.9,M,48.7,M,,*75

$GPGLL,4709.3674,N,00138.2810,W,150034.000,A,A*45

$GPGSA,A,3,07,26,10,21,18,27,08,16,,,,,1.22,0.96,0.76*0F

$GPGSV,4,1,13,27,74,095,17,08,64,306,21,10,56,093,15,18,36,058,17*75

$GPGSV,4,2,13,16,34,177,18,11,25,269,,21,13,067,13,01,13,248,*70

$GPGSV,4,3,13,07,12,280,15,30,10,313,,26,08,167,13,15,04,028,13*73

$GPGSV,4,4,13,32,03,126,*4C

$GPRMC,150034.000,A,4709.3674,N,00138.2810,W,0.07,210.59,180717,,,A*72

$GPVTG,210.59,T,,M,0.07,N,0.12,K,A*36

$GPGGA,150035.000,4709.3674,N,00138.2810,W,1,08,0.96,0.9,M,48.7,M,,*74

$GPGLL,4709.3674,N,00138.2810,W,150035.000,A,A*44

$GPGSA,A,3,07,26,10,21,18,27,08,16,,,,,1.22,0.96,0.76*0F

$GPGSV,4,1,13,27,74,095,17,08,64,306,21,10,56,093,16,18,36,058,17*76

$GPGSV,4,2,13,16,34,177,18,11,25,269,,21,13,067,14,01,13,248,*77

$GPGSV,4,3,13,07,12,280,15,30,10,313,,26,08,167,11,15,04,028,13*71

$GPGSV,4,4,13,32,03,126,*4C

$GPRMC,150035.000,A,4709.3674,N,00138.2810,W,0.10,171.10,180717,,,A*7C

$GPVTG,171.10,T,,M,0.10,N,0.19,K,A*32

$GPGGA,150036.000,4709.3674,N,00138.2810,W,1,08,0.96,0.9,M,48.7,M,,*77

$GPGLL,4709.3674,N,00138.2810,W,150036.000,A,A*47

$GPGSA,A,3,07,26,10,21,18,27,08,16,,,,,1.22,0.96,0.76*0F

$GPGSV,4,1,13,27,74,095,17,08,64,306,21,10,56,093,16,18,36,058,16*77

$GPGSV,4,2,13,16,34,177,18,11,25,269,,21,13,067,14,01,13,248,*77

$GPGSV,4,3,13,07,12,280,15,30,10,313,,26,08,167,13,15,04,028,13*73

$GPGSV,4,4,13,32,03,126,*4C

$GPRMC,150036.000,A,4709.3674,N,00138.2810,W,0.16,138.26,180717,,,A*71

$GPVTG,138.26,T,,M,0.16,N,0.30,K,A*37

$GPGGA,150037.000,4709.3673,N,00138.2810,W,1,08,0.96,0.9,M,48.7,M,,*71

$GPGLL,4709.3673,N,00138.2810,W,150037.000,A,A*41

$GPGSA,A,3,07,26,10,21,18,27,08,16,,,,,1.22,0.96,0.76*0F

$GPGSV,4,1,13,27,74,095,17,08,64,306,21,10,56,093,16,18,36,058,16*77

$GPGSV,4,2,13,16,34,177,18,11,25,269,,21,13,067,13,01,13,248,*70

$GPGSV,4,3,13,07,12,280,16,30,10,313,,26,08,167,13,15,04,028,13*70

$GPGSV,4,4,13,32,03,126,*4C

$GPRMC,150037.000,A,4709.3673,N,00138.2810,W,0.15,124.02,180717,,,A*7F

$GPVTG,124.02,T,,M,0.15,N,0.27,K,A*39

$GPGGA,150038.000,4709.3673,N,00138.2809,W,1,08,0.96,0.9,M,48.7,M,,*76

$GPGLL,4709.3673,N,00138.2809,W,150038.000,A,A*46

$GPGSA,A,3,07,26,10,21,18,27,08,16,,,,,1.22,0.96,0.76*0F

$GPGSV,4,1,13,27,74,095,17,08,64,306,20,10,56,093,16,18,36,058,16*76

$GPGSV,4,2,13,16,34,177,18,11,25,269,,21,13,067,13,01,13,248,*70

$GPGSV,4,3,13,07,12,280,16,30,10,313,,26,08,167,11,15,04,028,14*75

$GPGSV,4,4,13,32,03,126,*4C

$GPRMC,150038.000,A,4709.3673,N,00138.2809,W,0.20,93.50,180717,,,A*44

$GPVTG,93.50,T,,M,0.20,N,0.37,K,A*04

$GPGGA,150039.000,4709.3673,N,00138.2808,W,1,08,0.96,0.9,M,48.7,M,,*76

$GPGLL,4709.3673,N,00138.2808,W,150039.000,A,A*46

$GPGSA,A,3,07,26,10,21,18,27,08,16,,,,,1.22,0.96,0.76*0F

$GPGSV,4,1,13,27,74,095,17,08,64,306,20,10,56,093,16,18,36,058,16*76

$GPGSV,4,2,13,16,34,177,19,11,25,269,,21,13,067,13,01,13,248,*71

$GPGSV,4,3,13,07,12,280,15,30,10,313,,26,08,167,11,15,04,028,13*71

$GPGSV,4,4,13,32,03,126,*4C

$GPRMC,150039.000,A,4709.3673,N,00138.2808,W,0.26,82.56,180717,,,A*44

$GPVTG,82.56,T,,M,0.26,N,0.48,K,A*0C

$GPGGA,150040.000,4709.3673,N,00138.2807,W,1,08,0.96,0.9,M,48.7,M,,*77

$GPGLL,4709.3673,N,00138.2807,W,150040.000,A,A*47

$GPGSA,A,3,07,26,10,21,18,27,08,16,,,,,1.22,0.96,0.76*0F

$GPGSV,4,1,13,27,74,095,17,08,64,306,20,10,56,093,15,18,36,058,16*75

$GPGSV,4,2,13,16,34,177,19,11,25,269,,21,13,067,14,01,13,248,*76

$GPGSV,4,3,13,07,12,280,14,30,10,313,,26,08,167,14,15,04,028,13*75

$GPGSV,4,4,13,32,03,126,*4C

$GPRMC,150040.000,A,4709.3673,N,00138.2807,W,0.33,86.42,180717,,,A*40

$GPVTG,86.42,T,,M,0.33,N,0.62,K,A*01

$GPGGA,150041.000,4709.3673,N,00138.2806,W,1,08,0.96,0.9,M,48.7,M,,*77

$GPGLL,4709.3673,N,00138.2806,W,150041.000,A,A*47

$GPGSA,A,3,07,26,10,21,18,27,08,16,,,,,1.22,0.96,0.76*0F

$GPGSV,4,1,13,27,74,095,17,08,64,306,21,10,56,093,16,18,36,058,16*77

$GPGSV,4,2,13,16,34,177,19,11,25,269,,21,13,067,12,01,13,248,*70

$GPGSV,4,3,13,07,12,280,13,30,10,313,,26,08,167,14,15,04,028,13*72

$GPGSV,4,4,13,32,03,126,*4C

$GPRMC,150041.000,A,4709.3673,N,00138.2806,W,0.27,103.71,180717,,,A*79

$GPVTG,103.71,T,,M,0.27,N,0.50,K,A*39

$GPGGA,150042.000,4709.3673,N,00138.2805,W,1,08,0.96,0.9,M,48.7,M,,*77

$GPGLL,4709.3673,N,00138.2805,W,150042.000,A,A*47

$GPGSA,A,3,07,26,10,21,18,27,08,16,,,,,1.22,0.96,0.76*0F

$GPGSV,4,1,13,27,74,095,17,08,64,306,21,10,56,093,16,18,36,058,16*77

$GPGSV,4,2,13,16,34,177,19,11,25,269,,21,13,067,14,01,13,248,*76

$GPGSV,4,3,13,07,12,280,15,30,10,313,,26,08,167,14,15,04,028,14*73

$GPGSV,4,4,13,32,03,126,*4C

$GPRMC,150042.000,A,4709.3673,N,00138.2805,W,0.22,123.48,180717,,,A*74

$GPVTG,123.48,T,,M,0.22,N,0.41,K,A*34

$GPGGA,150043.000,4709.3673,N,00138.2805,W,1,08,0.96,0.9,M,48.7,M,,*76

$GPGLL,4709.3673,N,00138.2805,W,150043.000,A,A*46

$GPGSA,A,3,07,26,10,21,18,27,08,16,,,,,1.22,0.96,0.76*0F

$GPGSV,4,1,13,27,74,095,17,08,64,306,21,10,56,093,16,18,36,058,16*77

$GPGSV,4,2,13,16,34,177,19,11,25,269,,21,13,067,14,01,13,248,*76

$GPGSV,4,3,13,07,12,280,14,30,10,313,,26,08,167,13,15,04,028,14*75

$GPGSV,4,4,13,32,03,126,*4C

$GPRMC,150043.000,A,4709.3673,N,00138.2805,W,0.21,156.79,180717,,,A*76

$GPVTG,156.79,T,,M,0.21,N,0.38,K,A*39

$GPGGA,150044.000,4709.3672,N,00138.2804,W,1,08,0.96,0.9,M,48.7,M,,*71

$GPGLL,4709.3672,N,00138.2804,W,150044.000,A,A*41

$GPGSA,A,3,07,26,10,21,18,27,08,16,,,,,1.22,0.96,0.76*0F

$GPGSV,4,1,13,27,74,095,17,08,64,306,21,10,56,093,16,18,36,058,16*77

$GPGSV,4,2,13,16,34,177,19,11,25,269,,21,13,067,14,01,13,248,*76

$GPGSV,4,3,13,07,12,280,14,30,10,313,,26,08,167,12,15,04,028,14*74

$GPGSV,4,4,13,32,03,126,*4C

$GPRMC,150044.000,A,4709.3672,N,00138.2804,W,0.19,168.87,180717,,,A*76

$GPVTG,168.87,T,,M,0.19,N,0.36,K,A*30

$GPGGA,150045.000,4709.3672,N,00138.2804,W,1,08,0.96,0.9,M,48.7,M,,*70

$GPGLL,4709.3672,N,00138.2804,W,150045.000,A,A*40

$GPGSA,A,3,07,26,10,21,18,27,08,16,,,,,1.22,0.96,0.76*0F

$GPGSV,4,1,13,27,74,095,18,08,64,306,21,10,56,093,15,18,36,058,15*78

$GPGSV,4,2,13,16,34,177,18,11,25,269,,21,13,067,14,01,13,248,*77

$GPGSV,4,3,13,07,12,280,15,30,10,313,,26,08,167,14,15,04,028,14*73

$GPGSV,4,4,13,32,03,126,*4C

$GPRMC,150045.000,A,4709.3672,N,00138.2804,W,0.17,177.31,180717,,,A*7A

$GPVTG,177.31,T,,M,0.17,N,0.32,K,A*39

$GPGGA,150046.000,4709.3671,N,00138.2804,W,1,08,0.96,0.9,M,48.7,M,,*70

$GPGLL,4709.3671,N,00138.2804,W,150046.000,A,A*40

$GPGSA,A,3,07,26,10,21,18,27,08,16,,,,,1.22,0.96,0.76*0F

$GPGSV,4,1,13,27,74,095,18,08,64,306,22,10,56,093,15,18,36,058,16*78

$GPGSV,4,2,13,16,34,177,18,11,25,269,,21,13,067,13,01,13,248,*70

$GPGSV,4,3,13,07,12,280,16,30,10,313,,26,08,167,15,15,04,028,15*70

$GPGSV,4,4,13,32,03,126,*4C

$GPRMC,150046.000,A,4709.3671,N,00138.2804,W,0.16,185.24,180717,,,A*72

$GPVTG,185.24,T,,M,0.16,N,0.30,K,A*33

$GPGGA,150047.000,4709.3671,N,00138.2804,W,1,08,0.96,0.9,M,48.7,M,,*71

$GPGLL,4709.3671,N,00138.2804,W,150047.000,A,A*41

$GPGSA,A,3,07,26,10,21,18,27,08,16,,,,,1.22,0.96,0.76*0F

$GPGSV,4,1,13,27,74,096,18,08,64,306,22,10,56,093,16,18,36,058,16*78

$GPGSV,4,2,13,16,34,177,18,11,25,269,,21,13,067,16,01,13,248,*75

$GPGSV,4,3,13,07,12,280,16,30,10,313,,26,08,167,14,15,04,028,15*71

$GPGSV,4,4,13,32,03,126,*4C

$GPRMC,150047.000,A,4709.3671,N,00138.2804,W,0.22,192.86,180717,,,A*7A

$GPVTG,192.86,T,,M,0.22,N,0.40,K,A*3D

$GPGGA,150048.000,4709.3670,N,00138.2805,W,1,08,0.96,0.9,M,48.7,M,,*7E

$GPGLL,4709.3670,N,00138.2805,W,150048.000,A,A*4E

$GPGSA,A,3,07,26,10,21,18,27,08,16,,,,,1.22,0.96,0.76*0F

$GPGSV,4,1,13,27,74,096,18,08,64,306,22,10,56,093,13,18,36,058,15*7E

$GPGSV,4,2,13,16,34,177,18,11,25,269,,21,13,067,14,01,13,248,*77

$GPGSV,4,3,13,07,12,280,15,30,10,313,,26,08,167,13,15,04,028,14*74

$GPGSV,4,4,13,32,03,126,*4C

$GPRMC,150048.000,A,4709.3670,N,00138.2805,W,0.18,199.63,180717,,,A*7C

$GPVTG,199.63,T,,M,0.18,N,0.34,K,A*37

$GPGGA,150049.000,4709.3670,N,00138.2805,W,1,08,0.96,0.9,M,48.7,M,,*7F

$GPGLL,4709.3670,N,00138.2805,W,150049.000,A,A*4F

$GPGSA,A,3,07,26,10,21,18,27,08,16,,,,,1.22,0.96,0.76*0F

$GPGSV,4,1,13,27,74,096,17,08,64,306,21,10,56,093,14,18,36,058,15*75

$GPGSV,4,2,13,16,34,177,18,11,25,269,,21,13,067,13,01,13,248,*70

$GPGSV,4,3,13,07,12,280,15,30,10,313,,26,08,167,13,15,04,028,14*74

$GPGSV,4,4,13,32,03,126,*4C

$GPRMC,150049.000,A,4709.3670,N,00138.2805,W,0.21,202.35,180717,,,A*75

$GPVTG,202.35,T,,M,0.21,N,0.38,K,A*33

$GPGGA,150050.000,4709.3669,N,00138.2805,W,1,08,0.96,0.9,M,48.7,M,,*7F

$GPGLL,4709.3669,N,00138.2805,W,150050.000,A,A*4F

$GPGSA,A,3,07,26,10,21,18,27,08,16,,,,,1.22,0.96,0.76*0F

$GPGSV,4,1,13,27,74,096,17,08,64,306,21,10,56,093,15,18,36,058,15*74

$GPGSV,4,2,13,16,34,177,18,11,25,269,,21,13,067,13,01,13,248,*70

$GPGSV,4,3,13,07,12,280,14,30,10,313,,26,08,167,13,15,04,028,13*72

$GPGSV,4,4,13,32,03,126,*4C

$GPRMC,150050.000,A,4709.3669,N,00138.2805,W,0.23,187.81,180717,,,A*76

$GPVTG,187.81,T,,M,0.23,N,0.42,K,A*3D

$GPGGA,150051.000,4709.3669,N,00138.2805,W,1,07,1.09,0.9,M,48.7,M,,*76

$GPGLL,4709.3669,N,00138.2805,W,150051.000,A,A*4E

$GPGSA,A,3,07,26,10,18,27,08,16,,,,,,1.38,1.09,0.84*0D

$GPGSV,4,1,13,27,74,096,17,08,64,306,21,10,56,093,14,18,36,058,15*75

$GPGSV,4,2,13,16,34,177,18,11,25,269,,21,13,067,,01,13,248,*72

$GPGSV,4,3,13,07,12,280,13,30,10,313,,26,08,167,12,15,04,028,12*75

$GPGSV,4,4,13,32,03,126,*4C

$GPRMC,150051.000,A,4709.3669,N,00138.2805,W,0.27,177.06,180717,,,A*73

$GPVTG,177.06,T,,M,0.27,N,0.50,K,A*3A

$GPGGA,150052.000,4709.3668,N,00138.2805,W,1,07,1.09,0.9,M,48.7,M,,*74

$GPGLL,4709.3668,N,00138.2805,W,150052.000,A,A*4C

$GPGSA,A,3,07,26,10,18,27,08,16,,,,,,1.38,1.09,0.84*0D

$GPGSV,4,1,13,27,74,096,17,08,64,306,21,10,56,093,14,18,36,058,12*72

$GPGSV,4,2,13,16,34,177,18,11,25,269,,21,13,067,,01,13,248,*72

$GPGSV,4,3,13,07,12,280,14,30,10,313,,26,08,167,12,15,04,028,12*72

$GPGSV,4,4,13,32,03,126,*4C

$GPRMC,150052.000,A,4709.3668,N,00138.2805,W,0.24,180.81,180717,,,A*75

$GPVTG,180.81,T,,M,0.24,N,0.45,K,A*3A

$GPGGA,150053.000,4709.3667,N,00138.2805,W,1,07,1.09,0.9,M,48.7,M,,*7A

$GPGLL,4709.3667,N,00138.2805,W,150053.000,A,A*42

$GPGSA,A,3,07,26,10,18,27,08,16,,,,,,1.38,1.09,0.84*0D

$GPGSV,4,1,13,27,74,096,17,08,64,306,21,10,56,093,12,18,36,058,12*74

$GPGSV,4,2,13,16,34,177,18,11,25,269,,21,13,067,,01,13,248,*72

$GPGSV,4,3,13,07,12,280,16,30,10,313,,26,08,167,14,15,04,028,11*75

$GPGSV,4,4,13,32,03,126,*4C

$GPRMC,150053.000,A,4709.3667,N,00138.2805,W,0.20,186.15,180717,,,A*74

$GPVTG,186.15,T,,M,0.20,N,0.37,K,A*30

$GPGGA,150054.000,4709.3667,N,00138.2806,W,1,07,1.09,0.9,M,48.7,M,,*7E

$GPGLL,4709.3667,N,00138.2806,W,150054.000,A,A*46

$GPGSA,A,3,07,26,10,18,27,08,16,,,,,,1.38,1.09,0.84*0D

$GPGSV,4,1,13,27,74,096,17,08,64,306,21,10,56,093,12,18,36,058,13*75

$GPGSV,4,2,13,16,34,177,18,11,25,269,,21,13,067,,01,13,248,*72

$GPGSV,4,3,13,07,12,280,14,30,10,313,,26,08,167,12,15,04,028,11*71

$GPGSV,4,4,13,32,03,126,*4C

$GPRMC,150054.000,A,4709.3667,N,00138.2806,W,0.23,210.23,180717,,,A*7A

$GPVTG,210.23,T,,M,0.23,N,0.43,K,A*39

$GPGGA,150055.000,4709.3666,N,00138.2806,W,1,07,1.09,0.9,M,48.7,M,,*7E

$GPGLL,4709.3666,N,00138.2806,W,150055.000,A,A*46

$GPGSA,A,3,07,26,10,18,27,08,16,,,,,,1.38,1.09,0.84*0D

$GPGSV,4,1,13,27,74,096,17,08,64,306,21,10,56,093,12,18,36,058,14*72

$GPGSV,4,2,13,16,34,177,18,11,25,269,,21,13,067,,01,13,248,*72

$GPGSV,4,3,13,07,12,280,15,30,10,313,,26,08,167,13,15,04,028,12*72

$GPGSV,4,4,13,32,03,126,*4C

$GPRMC,150055.000,A,4709.3666,N,00138.2806,W,0.27,236.14,180717,,,A*7E

$GPVTG,236.14,T,,M,0.27,N,0.50,K,A*3F

$GPGGA,150056.000,4709.3666,N,00138.2807,W,1,07,1.09,0.9,M,48.7,M,,*7C

$GPGLL,4709.3666,N,00138.2807,W,150056.000,A,A*44

$GPGSA,A,3,07,26,10,18,27,08,16,,,,,,1.38,1.09,0.84*0D

$GPGSV,4,1,13,27,74,096,17,08,64,306,21,10,56,093,11,18,36,058,14*71

$GPGSV,4,2,13,16,34,177,18,11,25,269,,21,13,067,,01,13,248,*72

$GPGSV,4,3,13,07,12,280,14,30,10,313,,26,08,167,14,15,04,028,13*75

$GPGSV,4,4,13,32,03,126,*4C

$GPRMC,150056.000,A,4709.3666,N,00138.2807,W,0.35,245.96,180717,,,A*71

$GPVTG,245.96,T,,M,0.35,N,0.65,K,A*34

$GPGGA,150057.000,4709.3666,N,00138.2809,W,1,07,1.09,0.9,M,48.7,M,,*73

$GPGLL,4709.3666,N,00138.2809,W,150057.000,A,A*4B

$GPGSA,A,3,07,26,10,18,27,08,16,,,,,,1.38,1.09,0.84*0D

$GPGSV,4,1,13,27,74,096,17,08,64,306,22,10,56,093,11,18,36,058,14*72

$GPGSV,4,2,13,16,34,177,18,11,25,269,,21,13,067,,01,13,248,*72

$GPGSV,4,3,13,07,12,280,13,30,10,313,,26,08,167,13,15,04,028,14*72

$GPGSV,4,4,13,32,03,126,*4C

$GPRMC,150057.000,A,4709.3666,N,00138.2809,W,0.53,251.13,180717,,,A*76

$GPVTG,251.13,T,,M,0.53,N,0.99,K,A*3F

$GPGGA,150058.000,4709.3665,N,00138.2812,W,1,07,1.09,0.9,M,48.7,M,,*75

$GPGLL,4709.3665,N,00138.2812,W,150058.000,A,A*4D

$GPGSA,A,3,07,26,10,18,27,08,16,,,,,,1.38,1.09,0.84*0D

$GPGSV,4,1,13,27,74,096,17,08,64,306,22,10,56,093,10,18,36,058,14*73

$GPGSV,4,2,13,16,34,177,18,11,25,269,,21,13,067,,01,13,248,*72

$GPGSV,4,3,13,07,12,280,13,30,10,313,,26,08,167,13,15,04,028,13*75

$GPGSV,4,4,13,32,03,126,*4C

$GPRMC,150058.000,A,4709.3665,N,00138.2812,W,0.68,256.86,180717,,,A*73

$GPVTG,256.86,T,,M,0.68,N,1.26,K,A*39

$GPGGA,150059.000,4709.3663,N,00138.2837,W,1,07,1.09,0.9,M,48.7,M,,*75

$GPGLL,4709.3663,N,00138.2837,W,150059.000,A,A*4D

$GPGSA,A,3,07,26,10,18,27,08,16,,,,,,1.38,1.09,0.84*0D

$GPGSV,4,1,13,27,74,096,17,08,64,306,22,10,56,093,09,18,36,058,14*7B

$GPGSV,4,2,13,16,34,177,18,11,25,269,,21,13,067,,01,13,248,*72

$GPGSV,4,3,13,07,12,280,15,30,10,313,,26,08,167,11,15,04,028,13*71

$GPGSV,4,4,13,32,03,126,*4C

$GPRMC,150059.000,A,4709.3663,N,00138.2837,W,0.85,259.99,180717,,,A*71

$GPVTG,259.99,T,,M,0.85,N,1.57,K,A*3D

$GPGGA,150100.000,4709.3662,N,00138.2855,W,1,07,1.09,0.9,M,48.7,M,,*7D

$GPGLL,4709.3662,N,00138.2855,W,150100.000,A,A*45

$GPGSA,A,3,07,26,10,18,27,08,16,,,,,,1.38,1.09,0.84*0D

$GPGSV,4,1,13,27,74,096,17,08,64,306,22,10,56,093,09,18,36,058,14*7B

$GPGSV,4,2,13,16,34,177,18,11,25,269,,21,13,067,,01,13,248,*72

$GPGSV,4,3,13,07,12,280,14,30,10,313,,26,08,167,12,15,04,028,13*73

$GPGSV,4,4,13,32,03,126,*4C

$GPRMC,150100.000,A,4709.3662,N,00138.2855,W,0.91,261.47,180717,,,A*74

$GPVTG,261.47,T,,M,0.91,N,1.69,K,A*3D

$GPGGA,150101.000,4709.3661,N,00138.2871,W,1,07,1.09,0.9,M,48.7,M,,*79

$GPGLL,4709.3661,N,00138.2871,W,150101.000,A,A*41

$GPGSA,A,3,07,26,10,18,27,08,16,,,,,,1.38,1.09,0.84*0D

$GPGSV,4,1,13,27,74,096,17,08,64,306,22,10,56,093,10,18,36,058,14*73

$GPGSV,4,2,13,16,34,177,18,11,25,269,,21,13,067,,01,13,248,*72

$GPGSV,4,3,13,07,12,280,11,30,10,313,,26,08,167,11,15,04,028,13*75

$GPGSV,4,4,13,32,03,126,*4C

$GPRMC,150101.000,A,4709.3661,N,00138.2871,W,0.96,262.48,180717,,,A*7B

$GPVTG,262.48,T,,M,0.96,N,1.77,K,A*39

$GPGGA,150102.000,4709.3662,N,00138.2876,W,1,07,1.09,0.9,M,48.7,M,,*7E

$GPGLL,4709.3662,N,00138.2876,W,150102.000,A,A*46

$GPGSA,A,3,07,26,10,18,27,08,16,,,,,,1.38,1.09,0.84*0D

$GPGSV,4,1,13,27,74,096,17,08,64,306,22,10,56,093,10,18,36,058,14*73

$GPGSV,4,2,13,16,34,177,18,11,25,269,,21,13,067,,01,13,248,*72

$GPGSV,4,3,13,07,12,280,12,30,10,313,,26,08,167,15,15,04,028,13*72

$GPGSV,4,4,13,32,03,126,*4C

$GPRMC,150102.000,A,4709.3662,N,00138.2876,W,0.92,263.97,180717,,,A*7B

$GPVTG,263.97,T,,M,0.92,N,1.70,K,A*39

$GPGGA,150103.000,4709.3662,N,00138.2887,W,1,07,1.09,0.9,M,48.7,M,,*71

$GPGLL,4709.3662,N,00138.2887,W,150103.000,A,A*49

$GPGSA,A,3,07,26,10,18,27,08,16,,,,,,1.38,1.09,0.84*0D

$GPGSV,4,1,13,27,74,096,17,08,65,306,23,10,56,093,11,18,36,058,14*72

$GPGSV,4,2,13,16,34,177,18,11,25,269,,21,13,067,,01,13,248,*72

$GPGSV,4,3,13,07,12,280,16,30,10,313,,26,08,167,11,15,04,028,14*75

$GPGSV,4,4,13,32,03,126,*4C

$GPRMC,150103.000,A,4709.3662,N,00138.2887,W,0.94,265.87,180717,,,A*75

$GPVTG,265.87,T,,M,0.94,N,1.75,K,A*3D

$GPGGA,150104.000,4709.3662,N,00138.2897,W,1,07,1.09,0.9,M,48.7,M,,*77

$GPGLL,4709.3662,N,00138.2897,W,150104.000,A,A*4F

$GPGSA,A,3,07,26,10,18,27,08,16,,,,,,1.38,1.09,0.84*0D

$GPGSV,4,1,13,27,74,096,17,08,65,306,23,10,56,093,11,18,36,058,14*72

$GPGSV,4,2,13,16,34,177,18,11,25,269,,21,13,067,,01,13,248,*72

$GPGSV,4,3,13,07,12,280,15,30,10,313,,26,08,167,11,15,04,028,14*76

$GPGSV,4,4,13,32,03,126,*4C

$GPRMC,150104.000,A,4709.3662,N,00138.2897,W,0.96,265.13,180717,,,A*7C

$GPVTG,265.13,T,,M,0.96,N,1.79,K,A*3E

$GPGGA,150105.000,4709.3661,N,00138.2908,W,1,07,1.09,0.9,M,48.7,M,,*72

$GPGLL,4709.3661,N,00138.2908,W,150105.000,A,A*4A

$GPGSA,A,3,07,26,10,18,27,08,16,,,,,,1.38,1.09,0.84*0D

$GPGSV,4,1,13,27,74,096,17,08,65,306,22,10,56,092,12,18,36,058,14*71

$GPGSV,4,2,13,16,34,177,18,11,25,269,,21,13,067,,01,13,248,*72

$GPGSV,4,3,13,07,12,280,14,30,10,313,,26,08,167,13,15,04,028,14*75

$GPGSV,4,4,13,32,03,126,*4C

$GPRMC,150105.000,A,4709.3661,N,00138.2908,W,1.00,264.31,180717,,,A*76

$GPVTG,264.31,T,,M,1.00,N,1.85,K,A*32

$GPGGA,150106.000,4709.3661,N,00138.2927,W,1,07,1.09,0.9,M,48.7,M,,*7C

$GPGLL,4709.3661,N,00138.2927,W,150106.000,A,A*44

$GPGSA,A,3,07,26,10,18,27,08,16,,,,,,1.38,1.09,0.84*0D

$GPGSV,4,1,13,27,74,096,17,08,65,306,22,10,56,092,12,18,36,058,14*71

$GPGSV,4,2,13,16,34,177,18,11,25,269,,21,13,067,,01,13,248,*72

$GPGSV,4,3,13,07,12,280,16,30,10,313,,26,08,167,14,15,04,028,14*70

$GPGSV,4,4,13,32,03,126,*4C

$GPRMC,150106.000,A,4709.3661,N,00138.2927,W,1.11,265.35,180717,,,A*7D

$GPVTG,265.35,T,,M,1.11,N,2.06,K,A*3F

$GPGGA,150107.000,4709.3661,N,00138.2932,W,1,07,1.09,0.9,M,48.7,M,,*79

$GPGLL,4709.3661,N,00138.2932,W,150107.000,A,A*41

$GPGSA,A,3,07,26,10,18,27,08,16,,,,,,1.38,1.09,0.84*0D

$GPGSV,4,1,13,27,74,096,17,08,65,306,22,10,56,092,13,18,36,058,14*70

$GPGSV,4,2,13,16,34,177,18,11,25,269,,21,13,067,,01,13,248,*72

$GPGSV,4,3,13,07,12,280,15,30,10,313,,26,08,167,13,15,04,028,14*74

$GPGSV,4,4,13,32,03,126,*4C

$GPRMC,150107.000,A,4709.3661,N,00138.2932,W,1.08,266.34,180717,,,A*72

$GPVTG,266.34,T,,M,1.08,N,1.99,K,A*30

$GPGGA,150108.000,4709.3661,N,00138.2933,W,1,07,1.09,0.9,M,48.7,M,,*77

$GPGLL,4709.3661,N,00138.2933,W,150108.000,A,A*4F

$GPGSA,A,3,07,26,10,18,27,08,16,,,,,,1.38,1.09,0.84*0D

$GPGSV,4,1,13,27,74,096,17,08,65,306,22,10,56,092,14,18,36,058,14*77

$GPGSV,4,2,13,16,34,177,18,11,25,269,,21,13,067,,01,13,248,*72

$GPGSV,4,3,13,07,12,280,15,30,10,313,,26,08,167,13,15,04,028,14*74

$GPGSV,4,4,13,32,03,126,*4C

$GPRMC,150108.000,A,4709.3661,N,00138.2933,W,0.96,266.20,180717,,,A*7F

$GPVTG,266.20,T,,M,0.96,N,1.78,K,A*3C

$GPGGA,150109.000,4709.3654,N,00138.2932,W,1,07,1.09,0.9,M,48.7,M,,*71

$GPGLL,4709.3654,N,00138.2932,W,150109.000,A,A*49

$GPGSA,A,3,07,26,10,18,27,08,16,,,,,,1.38,1.09,0.84*0D

$GPGSV,4,1,13,27,74,096,17,08,65,306,22,10,56,092,15,18,36,058,14*76

$GPGSV,4,2,13,16,34,177,18,11,25,269,,21,13,067,,01,13,248,*72

$GPGSV,4,3,13,07,12,280,15,30,10,313,,26,08,167,12,15,04,028,14*75

$GPGSV,4,4,13,32,03,126,*4C

$GPRMC,150109.000,A,4709.3654,N,00138.2932,W,0.85,257.92,180717,,,A*70

$GPVTG,257.92,T,,M,0.85,N,1.57,K,A*38

$GPGGA,150110.000,4709.3649,N,00138.2933,W,1,07,1.09,0.9,M,48.7,M,,*74

$GPGLL,4709.3649,N,00138.2933,W,150110.000,A,A*4C

$GPGSA,A,3,07,26,10,18,27,08,16,,,,,,1.38,1.09,0.84*0D

$GPGSV,4,1,13,27,74,096,17,08,65,306,22,10,56,092,15,18,36,058,14*76

$GPGSV,4,2,13,16,34,177,18,11,25,269,,21,13,067,,01,13,248,*72

$GPGSV,4,3,13,07,12,280,15,30,10,313,,26,08,167,14,15,04,028,14*73

$GPGSV,4,4,13,32,03,126,*4C

$GPRMC,150110.000,A,4709.3649,N,00138.2933,W,0.79,250.33,180717,,,A*7A

$GPVTG,250.33,T,,M,0.79,N,1.46,K,A*37

$GPGGA,150111.000,4709.3644,N,00138.2935,W,1,07,1.09,0.9,M,48.7,M,,*7E

$GPGLL,4709.3644,N,00138.2935,W,150111.000,A,A*46

$GPGSA,A,3,07,26,10,18,27,08,16,,,,,,1.38,1.09,0.84*0D

$GPGSV,4,1,13,27,74,096,17,08,65,306,22,10,56,092,15,18,36,058,13*71

$GPGSV,4,2,13,16,33,177,18,11,25,269,,21,13,067,,01,13,248,*75

$GPGSV,4,3,13,07,12,280,15,30,10,313,,26,08,167,14,15,04,028,13*74

$GPGSV,4,4,13,32,03,126,*4C

$GPRMC,150111.000,A,4709.3644,N,00138.2935,W,0.76,246.62,180717,,,A*7C

$GPVTG,246.62,T,,M,0.76,N,1.41,K,A*3C

$GPGGA,150112.000,4709.3644,N,00138.2932,W,1,07,1.09,0.9,M,48.7,M,,*7A

$GPGLL,4709.3644,N,00138.2932,W,150112.000,A,A*42

$GPGSA,A,3,07,26,10,18,27,08,16,,,,,,1.38,1.09,0.84*0D

$GPGSV,4,1,13,27,74,096,17,08,65,306,22,10,56,092,15,18,36,058,12*70

$GPGSV,4,2,13,16,33,177,18,11,25,269,,21,13,067,,01,13,248,*75

$GPGSV,4,3,13,07,12,280,15,30,10,313,,26,08,167,14,15,04,028,13*74

$GPGSV,4,4,13,32,03,126,*4C

$GPRMC,150112.000,A,4709.3644,N,00138.2932,W,0.62,241.97,180717,,,A*70

$GPVTG,241.97,T,,M,0.62,N,1.15,K,A*35

$GPGGA,150113.000,4709.3644,N,00138.2933,W,1,07,1.09,0.9,M,48.7,M,,*7A

$GPGLL,4709.3644,N,00138.2933,W,150113.000,A,A*42

$GPGSA,A,3,07,26,10,18,27,08,16,,,,,,1.38,1.09,0.84*0D

$GPGSV,4,1,13,27,74,096,17,08,65,306,22,10,56,092,15,18,36,058,12*70

$GPGSV,4,2,13,16,33,177,17,11,25,269,,21,13,067,,01,13,248,*7A

$GPGSV,4,3,13,07,12,280,15,30,10,313,,26,08,167,12,15,04,028,13*72

$GPGSV,4,4,13,32,03,126,*4C

$GPRMC,150113.000,A,4709.3644,N,00138.2933,W,0.56,244.48,180717,,,A*70

$GPVTG,244.48,T,,M,0.56,N,1.04,K,A*35

$GPGGA,150114.000,4709.3644,N,00138.2935,W,1,07,1.09,0.9,M,48.7,M,,*7B

$GPGLL,4709.3644,N,00138.2935,W,150114.000,A,A*43

$GPGSA,A,3,07,26,10,18,27,08,16,,,,,,1.38,1.09,0.84*0D

$GPGSV,4,1,13,27,74,096,17,08,65,306,22,10,56,092,15,18,36,058,12*70

$GPGSV,4,2,13,16,33,177,17,11,25,269,,21,13,067,,01,13,248,*7A

$GPGSV,4,3,13,07,12,280,14,30,10,313,,26,08,167,12,15,04,028,14*74

$GPGSV,4,4,13,32,03,126,*4C

$GPRMC,150114.000,A,4709.3644,N,00138.2935,W,0.54,250.25,180717,,,A*7D

$GPVTG,250.25,T,,M,0.54,N,1.00,K,A*3D

$GPGGA,150115.000,4709.3645,N,00138.2936,W,1,07,1.09,0.9,M,48.7,M,,*78

$GPGLL,4709.3645,N,00138.2936,W,150115.000,A,A*40

$GPGSA,A,3,07,26,10,18,27,08,16,,,,,,1.38,1.09,0.84*0D

$GPGSV,4,1,13,27,74,096,17,08,65,306,22,10,56,092,14,18,36,058,12*71

$GPGSV,4,2,13,16,33,177,17,11,25,269,,21,13,067,,01,13,248,*7A

$GPGSV,4,3,13,07,12,280,15,30,10,313,,26,08,167,12,15,04,028,14*75

$GPGSV,4,4,13,32,03,126,*4C

$GPRMC,150115.000,A,4709.3645,N,00138.2936,W,0.49,253.94,180717,,,A*7B

$GPVTG,253.94,T,,M,0.49,N,0.91,K,A*31

$GPGGA,150116.000,4709.3644,N,00138.2938,W,1,07,1.09,0.9,M,48.7,M,,*74

$GPGLL,4709.3644,N,00138.2938,W,150116.000,A,A*4C

$GPGSA,A,3,07,26,10,18,27,08,16,,,,,,1.38,1.09,0.84*0D

$GPGSV,4,1,13,27,74,096,17,08,65,306,23,10,56,092,14,18,36,058,12*70

$GPGSV,4,2,13,16,33,177,17,11,25,269,,01,13,248,,21,12,067,*7B

$GPGSV,4,3,13,07,12,280,15,30,10,313,,26,08,167,14,15,04,028,14*73

$GPGSV,4,4,13,32,03,126,*4C

$GPRMC,150116.000,A,4709.3644,N,00138.2938,W,0.47,252.97,180717,,,A*7B

$GPVTG,252.97,T,,M,0.47,N,0.87,K,A*3A

$GPGGA,150117.000,4709.3644,N,00138.2940,W,1,07,1.09,0.9,M,48.7,M,,*7A

$GPGLL,4709.3644,N,00138.2940,W,150117.000,A,A*42

$GPGSA,A,3,07,26,10,18,27,08,16,,,,,,1.38,1.09,0.84*0D

$GPGSV,4,1,13,27,74,096,17,08,65,306,23,10,56,092,14,18,36,058,12*70

$GPGSV,4,2,13,16,33,177,17,11,25,269,,01,13,248,,21,12,067,*7B

$GPGSV,4,3,13,07,12,280,15,30,10,313,,26,08,167,14,15,04,028,15*72

$GPGSV,4,4,13,32,03,126,*4C

$GPRMC,150117.000,A,4709.3644,N,00138.2940,W,0.52,245.11,180717,,,A*79

$GPVTG,245.11,T,,M,0.52,N,0.96,K,A*36

$GPGGA,150118.000,4709.3643,N,00138.2942,W,1,07,1.09,0.9,M,48.7,M,,*70

$GPGLL,4709.3643,N,00138.2942,W,150118.000,A,A*48

$GPGSA,A,3,07,26,10,18,27,08,16,,,,,,1.38,1.09,0.84*0D

$GPGSV,4,1,13,27,74,096,17,08,65,306,23,10,56,092,14,18,36,058,12*70

$GPGSV,4,2,13,16,33,177,17,11,25,269,,01,13,248,,21,12,067,*7B

$GPGSV,4,3,13,07,12,280,15,30,10,313,,26,08,167,16,15,04,028,15*70

$GPGSV,4,4,13,32,03,126,*4C

$GPRMC,150118.000,A,4709.3643,N,00138.2942,W,0.59,240.18,180717,,,A*74

$GPVTG,240.18,T,,M,0.59,N,1.08,K,A*37

$GPGGA,150119.000,4709.3637,N,00138.2955,W,1,07,1.09,0.9,M,48.7,M,,*74

$GPGLL,4709.3637,N,00138.2955,W,150119.000,A,A*4C

$GPGSA,A,3,07,26,10,18,27,08,16,,,,,,1.38,1.09,0.84*0D

$GPGSV,4,1,13,27,74,096,17,08,65,306,23,10,56,092,15,18,36,058,12*71

$GPGSV,4,2,13,16,33,177,17,11,25,269,,01,13,248,,21,12,067,*7B

$GPGSV,4,3,13,07,12,280,15,30,10,313,,26,08,167,14,15,04,028,15*72

$GPGSV,4,4,13,32,03,126,*4C

$GPRMC,150119.000,A,4709.3637,N,00138.2955,W,0.67,239.74,180717,,,A*79

$GPVTG,239.74,T,,M,0.67,N,1.24,K,A*30

$GPGGA,150120.000,4709.3632,N,00138.2968,W,1,07,1.09,0.9,M,48.7,M,,*75

$GPGLL,4709.3632,N,00138.2968,W,150120.000,A,A*4D

$GPGSA,A,3,07,26,10,18,27,08,16,,,,,,1.38,1.09,0.84*0D

$GPGSV,4,1,13,27,74,096,17,08,65,306,23,10,56,092,16,18,36,058,13*73

$GPGSV,4,2,13,16,33,177,17,11,25,269,,01,13,248,,21,12,067,*7B

$GPGSV,4,3,13,07,12,280,15,30,10,313,,26,08,167,15,15,04,028,15*73

$GPGSV,4,4,13,32,03,126,*4C

$GPRMC,150120.000,A,4709.3632,N,00138.2968,W,0.74,239.54,180717,,,A*78

$GPVTG,239.54,T,,M,0.74,N,1.37,K,A*32

$GPGGA,150121.000,4709.3627,N,00138.2980,W,1,07,1.09,0.9,M,48.7,M,,*76

$GPGLL,4709.3627,N,00138.2980,W,150121.000,A,A*4E

$GPGSA,A,3,07,26,10,18,27,08,16,,,,,,1.38,1.09,0.84*0D

$GPGSV,4,1,13,27,74,096,17,08,65,306,23,10,56,092,16,18,36,058,13*73

$GPGSV,4,2,13,16,33,177,17,11,25,269,,01,13,248,,21,12,067,*7B

$GPGSV,4,3,13,07,12,280,15,30,10,313,,26,08,167,14,15,04,028,15*72

$GPGSV,4,4,13,32,03,126,*4C

$GPRMC,150121.000,A,4709.3627,N,00138.2980,W,0.81,240.55,180717,,,A*7E

$GPVTG,240.55,T,,M,0.81,N,1.49,K,A*3E

$GPGGA,150122.000,4709.3613,N,00138.2999,W,1,07,1.09,1.0,M,48.7,M,,*72

$GPGLL,4709.3613,N,00138.2999,W,150122.000,A,A*42

$GPGSA,A,3,07,26,10,18,27,08,16,,,,,,1.38,1.09,0.84*0D

$GPGSV,4,1,13,27,74,097,18,08,65,306,23,10,56,092,16,18,36,058,13*7D

$GPGSV,4,2,13,16,33,177,17,11,25,269,,01,13,248,,21,12,067,*7B

$GPGSV,4,3,13,07,12,280,15,30,10,313,,26,08,167,13,15,04,028,15*75

$GPGSV,4,4,13,32,03,126,*4C

$GPRMC,150122.000,A,4709.3613,N,00138.2999,W,0.98,237.14,180717,,,A*7F

$GPVTG,237.14,T,,M,0.98,N,1.82,K,A*34

$GPGGA,150123.000,4709.3607,N,00138.3005,W,1,07,1.09,1.0,M,48.7,M,,*7B

$GPGLL,4709.3607,N,00138.3005,W,150123.000,A,A*4B

$GPGSA,A,3,07,26,10,18,27,08,16,,,,,,1.38,1.09,0.84*0D

$GPGSV,4,1,13,27,74,097,18,08,65,306,23,10,56,092,17,18,36,058,12*7D

$GPGSV,4,2,13,16,33,177,17,11,25,269,,01,13,248,,21,12,067,*7B

$GPGSV,4,3,13,07,12,280,15,30,10,313,,26,08,167,12,15,04,028,15*74

$GPGSV,4,4,13,32,03,126,*4C

$GPRMC,150123.000,A,4709.3607,N,00138.3005,W,1.02,235.20,180717,,,A*71

$GPVTG,235.20,T,,M,1.02,N,1.88,K,A*39

$GPGGA,150124.000,4709.3602,N,00138.3012,W,1,07,1.09,1.0,M,48.7,M,,*7F

$GPGLL,4709.3602,N,00138.3012,W,150124.000,A,A*4F

$GPGSA,A,3,07,26,10,18,27,08,16,,,,,,1.38,1.09,0.84*0D

$GPGSV,4,1,13,27,74,097,18,08,65,306,23,10,56,092,17,18,36,058,12*7D

$GPGSV,4,2,13,16,33,177,16,11,25,269,,01,13,248,,21,12,067,*7A

$GPGSV,4,3,13,07,12,280,15,30,10,313,,26,08,167,13,15,04,028,15*75

$GPGSV,4,4,13,32,03,126,*4C

$GPRMC,150124.000,A,4709.3602,N,00138.3012,W,1.06,234.24,180717,,,A*74

$GPVTG,234.24,T,,M,1.06,N,1.96,K,A*37

$GPGGA,150125.000,4709.3600,N,00138.3013,W,1,07,1.09,1.0,M,48.7,M,,*7D

$GPGLL,4709.3600,N,00138.3013,W,150125.000,A,A*4D

$GPGSA,A,3,07,26,10,18,27,08,16,,,,,,1.38,1.09,0.84*0D

$GPGSV,4,1,13,27,74,097,18,08,65,306,23,10,56,092,17,18,36,058,11*7E

$GPGSV,4,2,13,16,33,177,16,11,25,269,,01,13,248,,21,12,067,*7A

$GPGSV,4,3,13,07,12,280,16,30,10,313,,26,08,167,14,15,04,028,15*71

$GPGSV,4,4,13,32,03,126,*4C

$GPRMC,150125.000,A,4709.3600,N,00138.3013,W,0.97,228.04,180717,,,A*70

$GPVTG,228.04,T,,M,0.97,N,1.79,K,A*30

$GPGGA,150126.000,4709.3597,N,00138.3016,W,1,07,1.09,1.0,M,48.7,M,,*76

$GPGLL,4709.3597,N,00138.3016,W,150126.000,A,A*46

$GPGSA,A,3,07,26,10,18,27,08,16,,,,,,1.38,1.09,0.84*0D

$GPGSV,4,1,13,27,74,097,18,08,65,306,23,10,56,092,17,18,36,058,11*7E

$GPGSV,4,2,13,16,33,177,16,11,25,269,,01,13,248,,21,12,067,*7A

$GPGSV,4,3,13,07,12,280,16,30,10,313,,26,08,167,15,15,04,028,15*70

$GPGSV,4,4,13,32,03,126,*4C

$GPRMC,150126.000,A,4709.3597,N,00138.3016,W,0.92,222.06,180717,,,A*76

$GPVTG,222.06,T,,M,0.92,N,1.71,K,A*35

$GPGGA,150127.000,4709.3589,N,00138.3022,W,1,07,1.09,1.0,M,48.7,M,,*7F

$GPGLL,4709.3589,N,00138.3022,W,150127.000,A,A*4F

$GPGSA,A,3,07,26,10,18,27,08,16,,,,,,1.38,1.09,0.84*0D

$GPGSV,4,1,13,27,74,097,18,08,65,306,23,10,56,092,17,18,36,058,11*7E

$GPGSV,4,2,13,16,33,177,16,11,25,269,,01,13,248,,21,12,067,*7A

$GPGSV,4,3,13,07,12,280,16,30,10,313,,26,08,167,13,15,04,028,15*76

$GPGSV,4,4,13,32,03,126,*4C

$GPRMC,150127.000,A,4709.3589,N,00138.3022,W,0.98,218.10,180717,,,A*7B

$GPVTG,218.10,T,,M,0.98,N,1.81,K,A*3E

$GPGGA,150128.000,4709.3577,N,00138.3027,W,1,07,1.09,1.0,M,48.7,M,,*74

$GPGLL,4709.3577,N,00138.3027,W,150128.000,A,A*44

$GPGSA,A,3,07,26,10,18,27,08,16,,,,,,1.38,1.09,0.84*0D

$GPGSV,4,1,13,27,74,097,18,08,65,306,23,10,56,092,17,18,36,058,10*7F

$GPGSV,4,2,13,16,33,177,16,11,25,269,,01,13,248,,21,12,067,*7A

$GPGSV,4,3,13,07,12,280,16,30,10,313,,26,08,167,13,15,04,028,15*76

$GPGSV,4,4,13,32,03,126,*4C

$GPRMC,150128.000,A,4709.3577,N,00138.3027,W,1.07,213.97,180717,,,A*73

$GPVTG,213.97,T,,M,1.07,N,1.98,K,A*35

$GPGGA,150129.000,4709.3570,N,00138.3032,W,1,07,1.09,1.0,M,48.7,M,,*76

$GPGLL,4709.3570,N,00138.3032,W,150129.000,A,A*46

$GPGSA,A,3,07,26,10,18,27,08,16,,,,,,1.38,1.09,0.84*0D

$GPGSV,4,1,13,27,74,097,18,08,65,306,23,10,56,092,17,18,36,058,09*77

$GPGSV,4,2,13,16,33,177,16,11,25,269,,01,13,248,,21,12,067,*7A

$GPGSV,4,3,13,07,12,280,16,30,10,313,,26,08,167,12,15,04,028,15*77

$GPGSV,4,4,13,32,03,126,*4C

$GPRMC,150129.000,A,4709.3570,N,00138.3032,W,1.08,216.19,180717,,,A*7D

$GPVTG,216.19,T,,M,1.08,N,2.00,K,A*3B

$GPGGA,150130.000,4709.3564,N,00138.3033,W,1,07,1.09,1.0,M,48.7,M,,*7A

$GPGLL,4709.3564,N,00138.3033,W,150130.000,A,A*4A

$GPGSA,A,3,07,26,10,18,27,08,16,,,,,,1.38,1.09,0.84*0D

$GPGSV,4,1,13,27,74,097,18,08,65,306,23,10,56,092,17,18,36,058,09*77

$GPGSV,4,2,13,16,33,177,16,11,25,269,,01,13,248,,21,12,067,*7A

$GPGSV,4,3,13,07,12,280,16,30,10,313,,26,08,167,11,15,04,028,15*74

$GPGSV,4,4,13,32,03,126,*4C

$GPRMC,150130.000,A,4709.3564,N,00138.3033,W,1.07,213.95,180717,,,A*7F

$GPVTG,213.95,T,,M,1.07,N,1.98,K,A*37

$GPGGA,150131.000,4709.3560,N,00138.3027,W,1,07,1.09,1.0,M,48.7,M,,*7A

$GPGLL,4709.3560,N,00138.3027,W,150131.000,A,A*4A

$GPGSA,A,3,07,26,10,18,27,08,16,,,,,,1.38,1.09,0.84*0D

$GPGSV,4,1,13,27,74,097,19,08,65,306,23,10,56,092,17,18,36,058,09*76

$GPGSV,4,2,13,16,33,177,16,11,25,269,,01,13,248,,21,12,067,*7A

$GPGSV,4,3,13,07,12,280,16,30,10,313,,26,08,167,13,15,04,028,15*76

$GPGSV,4,4,13,32,03,126,*4C

$GPRMC,150131.000,A,4709.3560,N,00138.3027,W,1.02,207.08,180717,,,A*7B

$GPVTG,207.08,T,,M,1.02,N,1.90,K,A*3B

$GPGGA,150132.000,4709.3554,N,00138.3025,W,1,07,1.09,1.0,M,48.7,M,,*7C

$GPGLL,4709.3554,N,00138.3025,W,150132.000,A,A*4C

$GPGSA,A,3,07,26,10,18,27,08,16,,,,,,1.38,1.09,0.84*0D

$GPGSV,4,1,13,27,74,097,19,08,65,306,23,10,56,092,18,18,36,058,09*79

$GPGSV,4,2,13,16,33,177,16,11,25,269,,01,13,248,,21,12,067,*7A

$GPGSV,4,3,13,07,12,280,15,30,10,313,,26,08,167,15,15,04,028,16*70

$GPGSV,4,4,13,32,03,126,*4C

$GPRMC,150132.000,A,4709.3554,N,00138.3025,W,1.05,203.57,180717,,,A*74

$GPVTG,203.57,T,,M,1.05,N,1.95,K,A*37

$GPGGA,150133.000,4709.3551,N,00138.3023,W,1,07,1.09,1.0,M,48.7,M,,*7E

$GPGLL,4709.3551,N,00138.3023,W,150133.000,A,A*4E

$GPGSA,A,3,07,26,10,18,27,08,16,,,,,,1.38,1.09,0.84*0D

$GPGSV,4,1,13,27,74,097,19,08,65,306,22,10,56,092,18,18,36,058,09*78

$GPGSV,4,2,13,16,33,177,16,11,25,269,,01,13,248,,21,12,067,*7A

$GPGSV,4,3,13,07,12,280,15,30,10,313,,26,08,167,14,15,04,028,15*72

$GPGSV,4,4,13,32,03,126,*4C

$GPRMC,150133.000,A,4709.3551,N,00138.3023,W,1.05,201.06,180717,,,A*70

$GPVTG,201.06,T,,M,1.05,N,1.94,K,A*30

$GPGGA,150134.000,4709.3546,N,00138.3024,W,1,07,1.09,1.1,M,48.7,M,,*79

$GPGLL,4709.3546,N,00138.3024,W,150134.000,A,A*48

$GPGSA,A,3,07,26,10,18,27,08,16,,,,,,1.38,1.09,0.84*0D

$GPGSV,4,1,13,27,74,097,19,08,65,306,21,10,56,092,18,18,36,058,09*7B

$GPGSV,4,2,13,16,33,177,16,11,25,269,,01,13,248,,21,12,067,*7A

$GPGSV,4,3,13,07,12,280,15,30,10,313,,26,08,167,13,15,04,028,15*75

$GPGSV,4,4,13,32,03,126,*4C

$GPRMC,150134.000,A,4709.3546,N,00138.3024,W,1.09,200.30,180717,,,A*7E

$GPVTG,200.30,T,,M,1.09,N,2.02,K,A*34

$GPGGA,150135.000,4709.3540,N,00138.3024,W,1,07,1.09,1.1,M,48.7,M,,*7E

$GPGLL,4709.3540,N,00138.3024,W,150135.000,A,A*4F

$GPGSA,A,3,07,26,10,18,27,08,16,,,,,,1.38,1.09,0.84*0D

$GPGSV,4,1,13,27,74,097,19,08,65,306,21,10,56,092,18,18,36,058,09*7B

$GPGSV,4,2,13,16,33,177,16,11,25,269,,01,13,248,,21,12,067,*7A

$GPGSV,4,3,13,07,12,280,14,30,10,313,,26,08,167,14,15,04,028,15*73

$GPGSV,4,4,13,32,03,126,*4C

$GPRMC,150135.000,A,4709.3540,N,00138.3024,W,1.15,198.91,180717,,,A*7D

$GPVTG,198.91,T,,M,1.15,N,2.13,K,A*30

$GPGGA,150136.000,4709.3536,N,00138.3019,W,1,07,1.09,1.1,M,48.7,M,,*72

$GPGLL,4709.3536,N,00138.3019,W,150136.000,A,A*43

$GPGSA,A,3,07,26,10,18,27,08,16,,,,,,1.38,1.09,0.84*0D

$GPGSV,4,1,13,27,74,097,19,08,65,306,22,10,56,092,18,18,36,058,09*78

$GPGSV,4,2,13,16,33,177,16,11,25,269,,01,13,248,,21,12,067,*7A

$GPGSV,4,3,13,07,12,280,15,30,10,313,,26,08,167,14,15,04,028,15*72

$GPGSV,4,4,13,32,03,126,*4C

$GPRMC,150136.000,A,4709.3536,N,00138.3019,W,1.15,196.21,180717,,,A*74

$GPVTG,196.21,T,,M,1.15,N,2.14,K,A*32

$GPGGA,150137.000,4709.3531,N,00138.3016,W,1,07,1.09,1.1,M,48.7,M,,*7B

$GPGLL,4709.3531,N,00138.3016,W,150137.000,A,A*4A

$GPGSA,A,3,07,26,10,18,27,08,16,,,,,,1.38,1.09,0.84*0D

$GPGSV,4,1,13,27,74,097,19,08,65,306,22,10,56,092,18,18,36,058,10*70

$GPGSV,4,2,13,16,33,177,16,11,25,269,,01,13,248,,21,12,067,*7A

$GPGSV,4,3,13,07,12,280,14,30,10,313,,26,08,167,14,15,04,028,15*73

$GPGSV,4,4,13,32,03,126,*4C

$GPRMC,150137.000,A,4709.3531,N,00138.3016,W,1.16,195.21,180717,,,A*7D

$GPVTG,195.21,T,,M,1.16,N,2.15,K,A*33

$GPGGA,150138.000,4709.3523,N,00138.3012,W,1,07,1.09,1.2,M,48.7,M,,*70

$GPGLL,4709.3523,N,00138.3012,W,150138.000,A,A*42

$GPGSA,A,3,07,26,10,18,27,08,16,,,,,,1.38,1.09,0.84*0D

$GPGSV,4,1,13,27,74,097,20,08,65,306,22,10,56,092,18,18,36,058,10*7A

$GPGSV,4,2,13,16,33,177,13,11,25,269,,01,13,248,,21,12,067,*7F

$GPGSV,4,3,13,07,12,280,15,30,10,313,,26,08,167,12,15,04,028,14*75

$GPGSV,4,4,13,32,03,126,*4C

$GPRMC,150138.000,A,4709.3523,N,00138.3012,W,1.22,196.60,180717,,,A*74

$GPVTG,196.60,T,,M,1.22,N,2.27,K,A*33

$GPGGA,150139.000,4709.3515,N,00138.3004,W,1,07,1.09,1.4,M,48.7,M,,*75

$GPGLL,4709.3515,N,00138.3004,W,150139.000,A,A*41

$GPGSA,A,3,07,26,10,18,27,08,16,,,,,,1.38,1.09,0.84*0D

$GPGSV,4,1,13,27,74,097,20,08,65,306,22,10,56,092,18,18,36,058,10*7A

$GPGSV,4,2,13,16,33,177,14,11,25,269,,01,13,248,,21,12,067,*78

$GPGSV,4,3,13,07,12,280,15,30,10,313,,26,08,167,12,15,04,028,15*74

$GPGSV,4,4,13,32,03,126,*4C

$GPRMC,150139.000,A,4709.3515,N,00138.3004,W,1.26,193.90,180717,,,A*79

$GPVTG,193.90,T,,M,1.26,N,2.33,K,A*38

$GPGGA,150140.000,4709.3511,N,00138.3003,W,1,06,1.27,1.4,M,48.7,M,,*75

$GPGLL,4709.3511,N,00138.3003,W,150140.000,A,A*4C

$GPGSA,A,3,07,10,18,27,08,16,,,,,,,1.54,1.27,0.88*03

$GPGSV,4,1,13,27,74,097,20,08,65,306,22,10,56,092,18,18,36,058,10*7A

$GPGSV,4,2,13,16,33,177,13,11,25,269,,01,13,248,,21,12,067,*7F

$GPGSV,4,3,13,07,12,280,15,30,10,313,,26,08,167,,15,04,028,16*74

$GPGSV,4,4,13,32,03,126,*4C

$GPRMC,150140.000,A,4709.3511,N,00138.3003,W,1.26,193.33,180717,,,A*7D

$GPVTG,193.33,T,,M,1.26,N,2.33,K,A*31

$GPGGA,150141.000,4709.3506,N,00138.3003,W,1,06,1.27,1.5,M,48.7,M,,*73

$GPGLL,4709.3506,N,00138.3003,W,150141.000,A,A*4B

$GPGSA,A,3,07,10,18,27,08,16,,,,,,,1.54,1.27,0.88*03

$GPGSV,4,1,13,27,74,097,20,08,65,306,22,10,56,092,18,18,36,058,10*7A

$GPGSV,4,2,13,16,33,177,14,11,25,269,,01,13,248,,21,12,067,*78

$GPGSV,4,3,13,07,12,280,15,30,10,313,,26,08,167,,15,04,028,16*74

$GPGSV,4,4,13,32,03,126,*4C

$GPRMC,150141.000,A,4709.3506,N,00138.3003,W,1.26,192.50,180717,,,A*7E

$GPVTG,192.50,T,,M,1.26,N,2.33,K,A*35

$GPGGA,150142.000,4709.3501,N,00138.3003,W,1,06,1.27,1.5,M,48.7,M,,*77

$GPGLL,4709.3501,N,00138.3003,W,150142.000,A,A*4F

$GPGSA,A,3,07,10,18,27,08,16,,,,,,,1.54,1.27,0.88*03

$GPGSV,4,1,13,27,74,097,20,08,65,306,22,10,56,092,18,18,36,058,10*7A

$GPGSV,4,2,13,16,33,177,13,11,25,269,,01,13,248,,21,12,067,*7F

$GPGSV,4,3,13,07,12,280,15,30,10,313,,26,08,167,,15,04,028,16*74

$GPGSV,4,4,13,32,03,126,*4C

$GPRMC,150142.000,A,4709.3501,N,00138.3003,W,1.28,193.46,180717,,,A*72

$GPVTG,193.46,T,,M,1.28,N,2.37,K,A*39

$GPGGA,150143.000,4709.3496,N,00138.3002,W,1,06,1.27,1.6,M,48.7,M,,*7B

$GPGLL,4709.3496,N,00138.3002,W,150143.000,A,A*40

$GPGSA,A,3,07,10,18,27,08,16,,,,,,,1.54,1.27,0.88*03

$GPGSV,4,1,13,27,74,097,20,08,65,306,22,10,56,092,19,18,36,058,10*7B

$GPGSV,4,2,13,16,33,177,12,11,25,269,,01,13,248,,21,12,067,*7E

$GPGSV,4,3,13,07,12,280,16,30,10,313,,26,08,167,,15,04,028,16*77

$GPGSV,4,4,13,32,03,126,*4C

$GPRMC,150143.000,A,4709.3496,N,00138.3002,W,1.29,191.74,180717,,,A*7F

$GPVTG,191.74,T,,M,1.29,N,2.39,K,A*35

$GPGGA,150144.000,4709.3490,N,00138.2999,W,1,06,1.27,1.6,M,48.7,M,,*70

$GPGLL,4709.3490,N,00138.2999,W,150144.000,A,A*4B

$GPGSA,A,3,07,10,18,27,08,16,,,,,,,1.54,1.27,0.88*03

$GPGSV,4,1,13,27,74,097,20,08,65,306,22,10,56,092,19,18,36,058,11*7A

$GPGSV,4,2,13,16,33,177,12,11,25,269,,01,13,248,,21,12,067,*7E

$GPGSV,4,3,13,07,12,280,15,30,10,313,,26,08,167,,15,04,028,16*74

$GPGSV,4,4,13,32,03,126,*4C

$GPRMC,150144.000,A,4709.3490,N,00138.2999,W,1.31,188.58,180717,,,A*7B

$GPVTG,188.58,T,,M,1.31,N,2.43,K,A*37

$GPGGA,150145.000,4709.3483,N,00138.2999,W,1,06,1.27,1.6,M,48.7,M,,*73

$GPGLL,4709.3483,N,00138.2999,W,150145.000,A,A*48

$GPGSA,A,3,07,10,18,27,08,16,,,,,,,1.54,1.27,0.88*03

$GPGSV,4,1,13,27,74,097,20,08,65,306,22,10,56,092,19,18,36,058,11*7A

$GPGSV,4,2,13,16,33,177,12,11,25,269,,01,13,248,,21,12,067,*7E

$GPGSV,4,3,13,07,12,280,15,30,10,313,,26,08,167,,15,04,028,15*77

$GPGSV,4,4,13,32,03,126,*4C

$GPRMC,150145.000,A,4709.3483,N,00138.2999,W,1.32,187.36,180717,,,A*7C

$GPVTG,187.36,T,,M,1.32,N,2.45,K,A*35

$GPGGA,150146.000,4709.3477,N,00138.2998,W,1,06,1.27,1.7,M,48.7,M,,*7B

$GPGLL,4709.3477,N,00138.2998,W,150146.000,A,A*41

$GPGSA,A,3,07,10,18,27,08,16,,,,,,,1.54,1.27,0.88*03

$GPGSV,4,1,13,27,74,097,20,08,65,306,22,10,56,092,19,18,36,058,11*7A

$GPGSV,4,2,13,16,33,177,12,11,25,269,,01,13,248,,21,12,067,*7E

$GPGSV,4,3,13,07,12,280,15,30,10,313,,26,08,167,,15,04,028,15*77

$GPGSV,4,4,13,32,03,126,*4C

$GPRMC,150146.000,A,4709.3477,N,00138.2998,W,1.31,188.32,180717,,,A*7D

$GPVTG,188.32,T,,M,1.31,N,2.43,K,A*3B

$GPGGA,150147.000,4709.3475,N,00138.2998,W,1,06,1.27,1.7,M,48.7,M,,*78

$GPGLL,4709.3475,N,00138.2998,W,150147.000,A,A*42

$GPGSA,A,3,07,10,18,27,08,16,,,,,,,1.54,1.27,0.88*03

$GPGSV,4,1,13,27,74,097,20,08,65,306,21,10,56,092,19,18,36,058,11*79

$GPGSV,4,2,13,16,33,177,13,11,25,269,,01,13,248,,21,12,067,*7F

$GPGSV,4,3,13,07,12,280,15,30,10,313,,26,08,167,,15,04,028,15*77

$GPGSV,4,4,13,32,03,126,*4C

$GPRMC,150147.000,A,4709.3475,N,00138.2998,W,1.24,188.90,180717,,,A*72

$GPVTG,188.90,T,,M,1.24,N,2.30,K,A*33

$GPGGA,150148.000,4709.3473,N,00138.2996,W,1,06,1.27,1.7,M,48.7,M,,*7F

$GPGLL,4709.3473,N,00138.2996,W,150148.000,A,A*45

$GPGSA,A,3,07,10,18,27,08,16,,,,,,,1.54,1.27,0.88*03

$GPGSV,4,1,13,27,74,097,20,08,65,306,21,10,56,092,19,18,36,058,11*79

$GPGSV,4,2,13,16,33,177,13,11,25,269,,01,13,248,,21,12,067,*7F

$GPGSV,4,3,13,07,12,280,15,30,10,313,,26,08,167,,15,04,028,15*77

$GPGSV,4,4,13,32,03,126,*4C

$GPRMC,150148.000,A,4709.3473,N,00138.2996,W,1.19,189.32,180717,,,A*72

$GPVTG,189.32,T,,M,1.19,N,2.20,K,A*35

$GPGGA,150149.000,4709.3471,N,00138.2992,W,1,06,1.27,1.7,M,48.7,M,,*78

$GPGLL,4709.3471,N,00138.2992,W,150149.000,A,A*42

$GPGSA,A,3,07,10,18,27,08,16,,,,,,,1.54,1.27,0.88*03

$GPGSV,4,1,13,27,74,097,20,08,65,306,21,10,56,092,19,18,36,058,11*79

$GPGSV,4,2,13,16,33,177,14,11,25,269,,01,13,248,,21,12,067,*78

$GPGSV,4,3,13,07,12,280,15,30,10,313,,26,08,167,,15,04,028,15*77

$GPGSV,4,4,13,32,03,126,*4C

$GPRMC,150149.000,A,4709.3471,N,00138.2992,W,1.13,187.44,180717,,,A*70

$GPVTG,187.44,T,,M,1.13,N,2.09,K,A*3B

$GPGGA,150150.000,4709.3469,N,00138.2988,W,1,06,1.27,1.6,M,48.7,M,,*73

$GPGLL,4709.3469,N,00138.2988,W,150150.000,A,A*48

$GPGSA,A,3,07,10,18,27,08,16,,,,,,,1.54,1.27,0.88*03

$GPGSV,4,1,13,27,74,097,20,08,65,306,21,10,56,092,19,18,36,058,11*79

$GPGSV,4,2,13,16,33,177,15,11,25,269,,01,13,248,,21,12,067,*79

$GPGSV,4,3,13,07,12,280,16,30,10,313,,26,08,167,,15,04,028,15*74

$GPGSV,4,4,13,32,03,126,*4C

$GPRMC,150150.000,A,4709.3469,N,00138.2988,W,1.07,186.30,180717,,,A*7D

$GPVTG,186.30,T,,M,1.07,N,1.99,K,A*36

$GPGGA,150151.000,4709.3470,N,00138.2981,W,1,06,1.27,1.6,M,48.7,M,,*73

$GPGLL,4709.3470,N,00138.2981,W,150151.000,A,A*48

$GPGSA,A,3,07,10,18,27,08,16,,,,,,,1.54,1.27,0.88*03

$GPGSV,4,1,13,27,74,097,20,08,65,306,21,10,56,092,19,18,36,058,11*79

$GPGSV,4,2,13,16,33,177,16,11,25,269,,01,13,248,,21,12,067,*7A

$GPGSV,4,3,13,07,12,280,16,30,10,313,,26,08,167,,15,04,028,15*74

$GPGSV,4,4,13,32,03,126,*4C

$GPRMC,150151.000,A,4709.3470,N,00138.2981,W,0.94,181.14,180717,,,A*77

$GPVTG,181.14,T,,M,0.94,N,1.75,K,A*3E

$GPGGA,150152.000,4709.3471,N,00138.2979,W,1,06,1.27,1.6,M,48.7,M,,*76

$GPGLL,4709.3471,N,00138.2979,W,150152.000,A,A*4D

$GPGSA,A,3,07,10,18,27,08,16,,,,,,,1.54,1.27,0.88*03

$GPGSV,4,1,14,27,74,097,20,08,65,306,21,10,56,092,19,18,36,058,11*7E

$GPGSV,4,2,14,16,33,177,16,11,25,269,,01,13,248,,21,12,067,*7D

$GPGSV,4,3,14,07,12,280,16,30,10,313,,26,08,167,,15,04,028,15*73

$GPGSV,4,4,14,32,03,126,,22,01,203,*7B

$GPRMC,150152.000,A,4709.3471,N,00138.2979,W,0.84,179.52,180717,,,A*76

$GPVTG,179.52,T,,M,0.84,N,1.56,K,A*3B

$GPGGA,150153.000,4709.3470,N,00138.2978,W,1,06,1.27,1.6,M,48.7,M,,*77

$GPGLL,4709.3470,N,00138.2978,W,150153.000,A,A*4C

$GPGSA,A,3,07,10,18,27,08,16,,,,,,,1.54,1.27,0.88*03

$GPGSV,4,1,14,27,74,097,20,08,65,306,21,10,56,092,20,18,36,058,11*74

$GPGSV,4,2,14,16,33,177,16,11,25,269,,01,13,248,,21,12,067,*7D

$GPGSV,4,3,14,07,12,280,16,30,10,313,,26,08,167,,15,04,028,16*70

$GPGSV,4,4,14,32,03,126,,22,01,203,*7B

$GPRMC,150153.000,A,4709.3470,N,00138.2978,W,0.76,179.96,180717,,,A*72

$GPVTG,179.96,T,,M,0.76,N,1.41,K,A*38

$GPGGA,150154.000,4709.3471,N,00138.2974,W,1,06,1.27,1.6,M,48.7,M,,*7D

$GPGLL,4709.3471,N,00138.2974,W,150154.000,A,A*46

$GPGSA,A,3,07,10,18,27,08,16,,,,,,,1.54,1.27,0.88*03

$GPGSV,4,1,14,27,74,097,20,08,65,306,21,10,56,092,20,18,36,058,11*74

$GPGSV,4,2,14,16,33,177,16,11,25,269,,01,13,248,,21,12,067,*7D

$GPGSV,4,3,14,07,12,280,16,30,10,313,,26,08,167,,15,04,028,17*71

$GPGSV,4,4,14,32,03,126,,22,01,203,*7B

$GPRMC,150154.000,A,4709.3471,N,00138.2974,W,0.64,178.49,180717,,,A*78

$GPVTG,178.49,T,,M,0.64,N,1.19,K,A*35

$GPGGA,150155.000,4709.3471,N,00138.2970,W,1,06,1.27,1.6,M,48.7,M,,*78

$GPGLL,4709.3471,N,00138.2970,W,150155.000,A,A*43

$GPGSA,A,3,07,10,18,27,08,16,,,,,,,1.54,1.27,0.88*03

$GPGSV,4,1,14,27,74,097,20,08,65,306,20,10,56,092,19,18,36,058,11*7F

$GPGSV,4,2,14,16,33,177,16,11,25,269,,01,13,248,,21,12,067,*7D

$GPGSV,4,3,14,07,12,280,16,30,10,313,,26,08,167,,15,04,028,17*71

$GPGSV,4,4,14,32,03,126,,22,01,203,*7B

$GPRMC,150155.000,A,4709.3471,N,00138.2970,W,0.59,175.00,180717,,,A*73

$GPVTG,175.00,T,,M,0.59,N,1.09,K,A*3A

$GPGGA,150156.000,4709.3469,N,00138.2965,W,1,06,1.27,1.6,M,48.7,M,,*76

$GPGLL,4709.3469,N,00138.2965,W,150156.000,A,A*4D

$GPGSA,A,3,07,10,18,27,08,16,,,,,,,1.54,1.27,0.88*03

$GPGSV,4,1,14,27,74,097,20,08,65,306,20,10,56,092,19,18,36,058,11*7F

$GPGSV,4,2,14,16,33,177,15,11,25,269,,01,13,248,,21,12,067,*7E

$GPGSV,4,3,14,07,12,280,16,30,10,313,,26,08,167,,15,04,028,16*70

$GPGSV,4,4,14,32,03,126,,22,01,203,*7B

$GPRMC,150156.000,A,4709.3469,N,00138.2965,W,0.57,169.32,180717,,,A*7F

$GPVTG,169.32,T,,M,0.57,N,1.06,K,A*37

$GPGGA,150157.000,4709.3467,N,00138.2958,W,1,06,1.27,1.6,M,48.7,M,,*77

$GPGLL,4709.3467,N,00138.2958,W,150157.000,A,A*4C

$GPGSA,A,3,07,10,18,27,08,16,,,,,,,1.54,1.27,0.88*03

$GPGSV,4,1,14,27,74,097,20,08,65,306,21,10,56,092,19,18,36,058,11*7E

$GPGSV,4,2,14,16,33,177,15,11,25,269,,01,13,248,,21,12,067,*7E

$GPGSV,4,3,14,07,12,280,16,30,10,313,,26,08,167,,15,04,028,16*70

$GPGSV,4,4,14,32,03,126,,22,01,203,*7B

$GPRMC,150157.000,A,4709.3467,N,00138.2958,W,0.58,165.15,180717,,,A*78

$GPVTG,165.15,T,,M,0.58,N,1.08,K,A*3F

$GPGGA,150158.000,4709.3467,N,00138.2953,W,1,06,1.27,1.6,M,48.7,M,,*73

$GPGLL,4709.3467,N,00138.2953,W,150158.000,A,A*48

$GPGSA,A,3,07,10,18,27,08,16,,,,,,,1.54,1.27,0.88*03

$GPGSV,4,1,14,27,74,097,20,08,65,306,21,10,56,092,19,18,36,058,11*7E

$GPGSV,4,2,14,16,33,177,15,11,25,269,,01,13,248,,21,12,067,*7E

$GPGSV,4,3,14,07,12,280,16,30,10,313,,26,08,167,,15,04,028,16*70

$GPGSV,4,4,14,32,03,126,,22,01,203,*7B

$GPRMC,150158.000,A,4709.3467,N,00138.2953,W,0.54,164.74,180717,,,A*76

$GPVTG,164.74,T,,M,0.54,N,0.99,K,A*3C

$GPGGA,150159.000,4709.3466,N,00138.2949,W,1,06,1.27,1.6,M,48.7,M,,*78

$GPGLL,4709.3466,N,00138.2949,W,150159.000,A,A*43

$GPGSA,A,3,07,10,18,27,08,16,,,,,,,1.54,1.27,0.88*03

$GPGSV,4,1,14,27,74,097,20,08,65,306,21,10,56,092,19,18,36,058,11*7E

$GPGSV,4,2,14,16,33,177,15,11,25,269,,01,13,248,,21,12,067,*7E

$GPGSV,4,3,14,07,12,280,16,30,10,313,,26,08,167,,15,04,028,16*70

$GPGSV,4,4,14,32,03,126,,22,01,203,*7B

$GPRMC,150159.000,A,4709.3466,N,00138.2949,W,0.50,166.43,180717,,,A*7F

$GPVTG,166.43,T,,M,0.50,N,0.92,K,A*35

$GPGGA,150200.000,4709.3465,N,00138.2946,W,1,06,1.27,1.6,M,48.7,M,,*7B

$GPGLL,4709.3465,N,00138.2946,W,150200.000,A,A*40

$GPGSA,A,3,07,10,18,27,08,16,,,,,,,1.54,1.27,0.88*03

$GPGSV,4,1,14,27,74,097,20,08,65,306,20,10,56,092,19,18,36,058,11*7F

$GPGSV,4,2,14,16,33,177,15,11,25,269,,01,13,248,,21,12,067,*7E

$GPGSV,4,3,14,07,12,280,16,30,10,313,,26,08,167,,15,04,028,16*70

$GPGSV,4,4,14,32,03,126,,22,01,203,*7B

$GPRMC,150200.000,A,4709.3465,N,00138.2946,W,0.45,169.88,180717,,,A*70

$GPVTG,169.88,T,,M,0.45,N,0.84,K,A*3E

$GPGGA,150201.000,4709.3465,N,00138.2943,W,1,06,1.27,1.6,M,48.7,M,,*7F

$GPGLL,4709.3465,N,00138.2943,W,150201.000,A,A*44

$GPGSA,A,3,07,10,18,27,08,16,,,,,,,1.54,1.27,0.88*03

$GPGSV,4,1,14,27,74,097,20,08,65,306,20,10,56,092,18,18,36,058,12*7D

$GPGSV,4,2,14,16,33,177,15,11,25,269,,01,13,248,,21,12,067,*7E

$GPGSV,4,3,14,07,12,280,16,30,10,313,,26,08,167,,15,04,028,16*70

$GPGSV,4,4,14,32,03,126,,22,01,203,*7B

$GPRMC,150201.000,A,4709.3465,N,00138.2943,W,0.40,169.34,180717,,,A*76

$GPVTG,169.34,T,,M,0.40,N,0.74,K,A*33

$GPGGA,150202.000,4709.3464,N,00138.2942,W,1,06,1.27,1.6,M,48.7,M,,*7C

$GPGLL,4709.3464,N,00138.2942,W,150202.000,A,A*47

$GPGSA,A,3,07,10,18,27,08,16,,,,,,,1.54,1.27,0.88*03

$GPGSV,4,1,14,27,74,097,20,08,65,306,20,10,56,092,18,18,36,058,12*7D

$GPGSV,4,2,14,16,33,177,15,11,25,269,,01,13,248,,21,12,067,*7E

$GPGSV,4,3,14,07,12,280,16,30,10,313,,26,08,167,,15,04,028,16*70

$GPGSV,4,4,14,32,03,126,,22,01,203,*7B

$GPRMC,150202.000,A,4709.3464,N,00138.2942,W,0.35,167.88,180717,,,A*7E

$GPVTG,167.88,T,,M,0.35,N,0.65,K,A*38

$GPGGA,150203.000,4709.3463,N,00138.2942,W,1,06,1.27,1.6,M,48.7,M,,*7A

$GPGLL,4709.3463,N,00138.2942,W,150203.000,A,A*41

$GPGSA,A,3,07,10,18,27,08,16,,,,,,,1.54,1.27,0.88*03
