
$GPGGA,144337.000,4709.3783,N,00138.2915,W,1,08,0.97,61.4,M,48.7,M,,*46

$GPGLL,4709.3783,N,00138.2915,W,144337.000,A,A*4D

$GPGSA,A,3,26,10,07,18,21,27,08,16,,,,,1.26,0.97,0.80*03

$GPGSV,3,1,12,27,80,067,24,08,57,302,18,10,55,107,16,16,42,177,18*79

$GPGSV,3,2,12,18,41,065,20,21,19,064,17,11,18,264,,26,16,167,17*75

$GPGSV,3,3,12,07,15,287,16,30,10,320,,01,07,244,,15,05,035,*73

$GPRMC,144337.000,A,4709.3783,N,00138.2915,W,0.62,310.05,180717,,,A*71

$GPVTG,310.05,T,,M,0.62,N,1.15,K,A*3B

$PMTK001,300,3*33

$PMTK001,220,3*30

$PMTK001,314,3*36

$PMTK001,301,3*32

$GPGGA,144338.000,4709.3785,N,00138.2914,W,1,08,0.97,61.4,M,48.7,M,,*4E

$GPGLL,4709.3785,N,00138.2914,W,144338.000,A,A*45

$GPGSA,A,3,26,10,07,18,21,27,08,16,,,,,1.26,0.97,0.80*03

$GPGSV,3,1,12,27,80,067,24,08,57,302,18,10,55,107,15,16,42,177,18*7A

$GPGSV,3,2,12,18,41,065,20,21,19,064,16,11,18,264,,26,16,167,17*74

$GPGSV,3,3,12,07,15,287,16,30,10,320,,01,07,244,,15,05,035,*73

$GPRMC,144338.000,A,4709.3785,N,00138.2914,W,0.58,315.60,180717,,,A*76

$GPVTG,315.60,T,,M,0.58,N,1.08,K,A*38

$GPGGA,144339.000,4709.3789,N,00138.2919,W,1,08,0.97,61.3,M,48.7,M,,*49

$GPGLL,4709.3789,N,00138.2919,W,144339.000,A,A*45

$GPGSA,A,3,26,10,07,18,21,27,08,16,,,,,1.26,0.97,0.80*03

$GPGSV,3,1,12,27,80,067,24,08,57,302,19,10,55,107,15,16,42,177,18*7B

$GPGSV,3,2,12,18,41,065,20,21,19,064,14,11,18,264,,26,16,167,17*76

$GPGSV,3,3,12,07,15,287,16,30,10,320,,01,07,244,,15,05,035,*73

$GPRMC,144339.000,A,4709.3789,N,00138.2919,W,0.64,316.30,180717,,,A*7F

$GPVTG,316.30,T,,M,0.64,N,1.18,K,A*30

$GPGGA,144340.000,4709.3791,N,00138.2916,W,1,08,0.97,61.3,M,48.7,M,,*41

$GPGLL,4709.3791,N,00138.2916,W,144340.000,A,A*4D

$GPGSA,A,3,26,10,07,18,21,27,08,16,,,,,1.26,0.97,0.80*03

$GPGSV,3,1,12,27,80,067,24,08,57,302,19,10,55,107,15,16,42,177,18*7B

$GPGSV,3,2,12,18,41,065,20,21,19,064,15,11,18,264,,26,16,167,17*77

$GPGSV,3,3,12,07,15,287,16,30,10,320,,01,07,244,,15,05,034,*72

$GPRMC,144340.000,A,4709.3791,N,00138.2916,W,0.60,321.06,180717,,,A*72

$GPVTG,321.06,T,,M,0.60,N,1.12,K,A*3F

$GPGGA,144341.000,4709.3793,N,00138.2915,W,1,08,0.97,61.3,M,48.7,M,,*41

$GPGLL,4709.3793,N,00138.2915,W,144341.000,A,A*4D

$GPGSA,A,3,26,10,07,18,21,27,08,16,,,,,1.26,0.97,0.80*03

$GPGSV,3,1,12,27,80,067,24,08,57,302,19,10,55,107,15,16,42,177,18*7B

$GPGSV,3,2,12,18,41,065,20,21,19,064,16,11,18,264,,26,16,167,17*74

$GPGSV,3,3,12,07,15,287,16,30,10,320,,01,07,244,,15,05,034,*72

$GPRMC,144341.000,A,4709.3793,N,00138.2915,W,0.59,323.95,180717,,,A*70

$GPVTG,323.95,T,,M,0.59,N,1.10,K,A*3F

$GPGGA,144342.000,4709.3793,N,00138.2912,W,1,08,0.97,61.3,M,48.7,M,,*45

$GPGLL,4709.3793,N,00138.2912,W,144342.000,A,A*49

$GPGSA,A,3,26,10,07,18,21,27,08,16,,,,,1.26,0.97,0.80*03

$GPGSV,3,1,12,27,80,067,24,08,57,302,19,10,55,107,15,16,42,177,18*7B

$GPGSV,3,2,12,18,41,065,20,21,19,064,16,11,18,264,,26,16,167,17*74

$GPGSV,3,3,12,07,15,287,16,30,10,320,,01,07,244,,15,05,034,*72

$GPRMC,144342.000,A,4709.3793,N,00138.2912,W,0.53,324.93,180717,,,A*7F

$GPVTG,324.93,T,,M,0.53,N,0.98,K,A*35

$GPGGA,144343.000,4709.3793,N,00138.2910,W,1,08,0.97,61.3,M,48.7,M,,*46

$GPGLL,4709.3793,N,00138.2910,W,144343.000,A,A*4A

$GPGSA,A,3,26,10,07,18,21,27,08,16,,,,,1.26,0.97,0.80*03

$GPGSV,3,1,12,27,80,067,24,08,57,302,19,10,55,107,15,16,42,177,17*74

$GPGSV,3,2,12,18,41,065,20,21,19,064,14,11,18,264,,26,16,167,17*76

$GPGSV,3,3,12,07,15,287,16,30,10,320,,01,07,244,,15,05,034,*72

$GPRMC,144343.000,A,4709.3793,N,00138.2910,W,0.48,324.00,180717,,,A*7C

$GPVTG,324.00,T,,M,0.48,N,0.89,K,A*35

$GPGGA,144344.000,4709.3793,N,00138.2906,W,1,08,0.97,61.3,M,48.7,M,,*46

$GPGLL,4709.3793,N,00138.2906,W,144344.000,A,A*4A

$GPGSA,A,3,26,10,07,18,21,27,08,16,,,,,1.26,0.97,0.80*03

$GPGSV,3,1,12,27,80,067,24,08,57,302,19,10,55,107,15,16,42,177,17*74

$GPGSV,3,2,12,18,41,065,20,21,19,064,16,11,18,264,,26,16,167,17*74

$GPGSV,3,3,12,07,15,287,16,30,10,320,,01,07,244,,15,05,034,*72

$GPRMC,144344.000,A,4709.3793,N,00138.2906,W,0.40,326.09,180717,,,A*7F

$GPVTG,326.09,T,,M,0.40,N,0.73,K,A*33

$GPGGA,144345.000,4709.3795,N,00138.2909,W,1,08,0.97,61.3,M,48.7,M,,*4E

$GPGLL,4709.3795,N,00138.2909,W,144345.000,A,A*42

$GPGSA,A,3,26,10,07,18,21,27,08,16,,,,,1.26,0.97,0.80*03

$GPGSV,3,1,12,27,80,067,24,08,57,302,20,10,55,912,W,144349.000,A,A*48

$GPGSA,A,3,26,10,07,18,21,27,08,16,,,,,1.26,0.97,0.80*03

$GPGSV,3,1,12,27,80,067,23,08,57,302,20,10,55,107,16,16,42,177,17*7A

$GPGSV,3,2,12,18,41,065,20,21,19,064,15,11,18,264,,26,16,167,17*77

$GPGSV,3,3,12,07,15,287,16,30,10,320,,01,07,244,,15,05,034,*72

$GPRMC,144349.000,A,4709.3799,N,00138.2912,W,0.43,339.55,180717,,,A*79

$GPVTG,339.55,T,,M,0.43,N,0.80,K,A*3B

$GPGGA,144350.000,4709.3800,N,00138.2913,W,1,08,0.97,61.2,M,48.7,M,,*43

$GPGLL,4709.3800,N,00138.2913,W,144350.000,A,A*4E

$GPGSA,A,3,26,10,07,18,21,27,08,16,,,,,1.26,0.97,0.80*03

$GPGSV,3,1,12,27,80,067,22,08,57,302,20,10,55,107,16,16,42,177,17*7B

$GPGSV,3,2,12,18,41,065,20,21,19,064,14,11,18,264,,26,16,167,17*76

$GPGSV,3,3,12,07,15,287,16,30,10,320,,01,07,244,,15,05,034,*72

$GPRMC,144350.000,A,4709.3800,N,00138.2913,W,0.40,356.37,180717,,,A*71

$GPVTG,356.37,T,,M,0.40,N,0.74,K,A*3E

$GPGGA,144351.000,4709.3802,N,00138.2913,W,1,08,0.97,61.2,M,48.7,M,,*40

$GPGLL,4709.3802,N,00138.2913,W,144351.000,A,A*4D

$GPGSA,A,3,26,10,07,18,21,27,08,16,,,,,1.26,0.97,0.80*03

$GPGSV,3,1,12,27,80,067,22,08,57,302,20,10,55,107,16,16,42,177,17*7B

$GPGSV,3,2,12,18,41,065,20,21,19,064,14,11,18,264,,07,15,287,16*7A

$GPGSV,3,3,12,26,15,167,17,30,10,320,,01,07,244,,15,05,034,*7D

$GPRMC,144351.000,A,4709.3802,N,00138.2913,W,0.38,8.27,180717,,,A*74

$GPVTG,8.27,T,,M,0.38,N,0.71,K,A*3D

$GPGGA,144352.000,4709.3803,N,00138.2913,W,1,08,0.97,61.3,M,48.7,M,,*43

$GPGLL,4709.3803,N,00138.2913,W,144352.000,A,A*4F

$GPGSA,A,3,26,10,07,18,21,27,08,16,,,,,1.66,0.97,1.34*09

$GPGSV,3,1,12,27,80,069,22,08,57,302,20,10,55,107,16,16,42,177,18*7A

$GPGSV,3,2,12,18,41,065,20,21,19,064,13,11,18,264,,07,15,287,16*7D

$GPGSV,3,3,12,26,15,167,18,30,10,320,,01,07,244,,15,05,034,*72

$GPRMC,144352.000,A,4709.3803,N,00138.2913,W,0.41,18.49,180717,,,A*41

$GPVTG,18.49,T,,M,0.41,N,0.77,K,A*0C

$GPGGA,144353.000,4709.3804,N,00138.2912,W,1,08,0.97,61.3,M,48.7,M,,*44

$GPGLL,4709.3804,N,00138.2912,W,144353.000,A,A*48

$GPGSA,A,3,26,10,07,18,21,27,08,16,,,,,1.26,0.97,0.80*03

$GPGSV,3,1,12,27,80,069,22,08,57,302,20,10,55,107,16,16,42,177,18*7A

$GPGSV,3,2,12,18,41,065,20,21,19,064,16,11,18,264,,07,15,287,16*78

$GPGSV,3,3,12,26,15,167,18,30,10,320,,01,07,244,,15,05,034,*72

$GPRMC,144353.000,A,4709.3804,N,00138.2912,W,0.47,24.31,180717,,,A*40

$GPVTG,24.31,T,,M,0.47,N,0.86,K,A*04

$GPGGA,144354.000,4709.3805,N,00138.2911,W,1,08,0.97,61.3,M,48.7,M,,*41

$GPGLL,4709.3805,N,00138.2911,W,144354.000,A,A*4D

$GPGSA,A,3,26,10,07,18,21,27,08,16,,,,,1.26,0.97,0.80*03

$GPGSV,3,1,12,27,80,069,22,08,57,302,20,10,55,107,16,16,42,177,18*7A

$GPGSV,3,2,12,18,41,065,20,21,19,064,16,11,18,264,,07,15,287,16*78

$GPGSV,3,3,12,26,15,167,18,30,10,320,,01,07,244,,15,05,034,*72

$GPRMC,144354.000,A,4709.3805,N,00138.2911,W,0.47,37.27,180717,,,A*40

$GPVTG,37.27,T,,M,0.47,N,0.87,K,A*00

$GPGGA,144355.000,4709.3806,N,00138.2910,W,1,08,0.97,61.3,M,48.7,M,,*42

$GPGLL,4709.3806,N,00138.2910,W,144355.000,A,A*4E

$GPGSA,A,3,26,10,07,18,21,27,08,16,,,,,1.26,0.97,0.80*03

$GPGSV,3,1,12,27,80,069,22,08,57,302,19,10,55,107,16,16,42,177,18*70

$GPGSV,3,2,12,18,41,065,20,21,19,064,13,11,18,264,,07,15,287,16*7D

$GPGSV,3,3,12,26,15,167,18,30,10,320,,01,07,244,,15,05,034,*72

$GPRMC,144355.000,A,4709.3806,N,00138.2910,W,0.41,40.61,180717,,,A*47

$GPVTG,40.61,T,,M,0.41,N,0.75,K,A*09

$GPGGA,144356.000,4709.3807,N,00138.2909,W,1,08,0.97,61.3,M,48.7,M,,*48

$GPGLL,4709.3807,N,00138.2909,W,144356.000,A,A*44

$GPGSA,A,3,26,10,07,18,21,27,08,16,,,,,1.26,0.97,0.80*03

$GPGSV,3,1,12,27,80,069,22,08,57,302,19,10,55,107,16,16,42,177,18*70

$GPGSV,3,2,12,18,41,065,20,21,19,064,12,11,18,264,,07,15,287,16*7C

$GPGSV,3,3,12,26,15,167,18,30,10,320,,01,07,244,,15,05,034,*72

$GPRMC,144356.000,A,4709.3807,N,00138.2909,W,0.39,48.94,180717,,,A*40

$GPVTG,48.94,T,,M,0.39,N,0.72,K,A*03

$GPGGA,144357.000,4709.3807,N,00138.2907,W,1,08,0.97,61.2,M,48.7,M,,*46

$GPGLL,4709.3807,N,00138.2907,W,144357.000,A,A*4B

$GPGSA,A,3,26,10,07,18,21,27,08,16,,,,,1.26,0.97,0.80*03

$GPGSV,3,1,12,27,80,069,22,08,57,302,20,10,55,107,16,16,42,177,18*7A

$GPGSV,3,2,12,18,41,065,20,21,19,064,12,11,18,264,,07,15,287,16*7C

$GPGSV,3,3,12,26,15,167,18,30,10,320,,01,07,244,,15,05,034,*72

$GPRMC,144357.000,A,4709.3807,N,00138.2907,W,0.34,50.18,180717,,,A*4F

$GPVTG,50.18,T,,M,0.34,N,0.63,K,A*03

$GPGGA,144358.000,4709.3808,N,00138.2906,W,1,08,0.97,61.2,M,48.7,M,,*47

$GPGLL,4709.3808,N,00138.2906,W,144358.000,A,A*4A

$GPGSA,A,3,26,10,07,18,21,27,08,16,,,,,1.26,0.97,0.80*03

$GPGSV,3,1,12,27,80,069,21,08,57,302,20,10,55,107,16,16,42,177,18*79

$GPGSV,3,2,12,18,41,065,20,21,19,064,13,11,18,264,,07,15,287,16*7D

$GPGSV,3,3,12,26,15,167,18,30,10,320,,01,07,244,,15,05,034,*72

$GPRMC,144358.000,A,4709.3808,N,00138.2906,W,0.36,45.95,180717,,,A*4D

$GPVTG,45.95,T,,M,0.36,N,0.66,K,A*05

$GPGGA,144359.000,4709.3809,N,00138.2905,W,1,08,0.97,61.2,M,48.7,M,,*44

$GPGLL,4709.3809,N,00138.2905,W,144359.000,A,A*49

$GPGSA,A,3,26,10,07,18,21,27,08,16,,,,,1.26,0.97,0.80*03

$GPGSV,3,1,12,27,80,069,21,08,57,302,20,10,55,107,16,16,42,177,19*78

$GPGSV,3,2,12,18,41,065,20,21,19,064,14,11,18,264,,07,15,287,16*7A

$GPGSV,3,3,12,26,15,167,18,30,10,320,,01,07,244,,15,05,034,*72

$GPRMC,144359.000,A,4709.3809,N,00138.2905,W,0.33,36.16,180717,,,A*44

$GPVTG,36.16,T,,M,0.33,N,0.61,K,A*08

$GPGGA,144400.000,4709.3810,N,00138.2905,W,1,08,0.97,61.2,M,48.7,M,,*47

$GPGLL,4709.3810,N,00138.2905,W,144400.000,A,A*4A

$GPGSA,A,3,26,10,07,18,21,27,08,16,,,,,1.26,0.97,0.80*03

$GPGSV,3,1,12,27,80,069,21,08,57,302,20,10,55,107,16,16,42,177,19*78

$GPGSV,3,2,12,18,41,065,20,21,19,064,14,11,18,264,,07,15,287,16*7A

$GPGSV,3,3,12,26,15,167,18,30,10,320,,01,07,244,,15,05,034,*72

$GPRMC,144400.000,A,4709.3810,N,00138.2905,W,0.38,24.75,180717,,,A*4A

$GPVTG,24.75,T,,M,0.38,N,0.71,K,A*04

$GPGGA,144401.000,4709.3811,N,00138.2904,W,1,08,0.97,61.2,M,48.7,M,,*46

$GPGLL,4709.3811,N,00138.2904,W,144401.000,A,A*4B

$GPGSA,A,3,26,10,07,18,21,27,08,16,,,,,1.26,0.97,0.80*03

$GPGSV,3,1,12,27,80,069,21,08,57,302,21,10,55,107,17,16,42,177,19*78

$GPGSV,3,2,12,18,41,065,20,21,19,064,15,11,18,264,,07,15,287,15*78

$GPGSV,3,3,12,26,15,167,18,30,10,320,,01,07,244,,15,05,034,*72

$GPRMC,144401.000,A,4709.3811,N,00138.2904,W,0.39,31.76,180717,,,A*4D

$GPVTG,31.76,T,,M,0.39,N,0.73,K,A*00

$GPGGA,144402.000,4709.3812,N,00138.2903,W,1,08,0.97,61.2,M,48.7,M,,*41

$GPGLL,4709.3812,N,00138.2903,W,144402.000,A,A*4C

$GPGSA,A,3,26,10,07,18,21,27,08,16,,,,,1.26,0.97,0.80*03

$GPGSV,3,1,12,27,80,069,21,08,57,302,20,10,55,107,17,16,42,177,19*79

$GPGSV,3,2,12,18,41,065,20,21,19,064,15,11,18,264,,07,15,287,15*78

$GPGSV,3,3,12,26,15,167,18,30,10,320,,01,07,244,,15,05,034,*72

$GPRMC,144402.000,A,4709.3812,N,00138.2903,W,0.43,36.77,180717,,,A*41

$GPVTG,36.77,T,,M,0.43,N,0.80,K,A*07

$GPGGA,144403.000,4709.3813,N,00138.2902,W,1,08,0.97,61.2,M,48.7,M,,*40

$GPGLL,4709.3813,N,00138.2902,W,144403.000,A,A*4D

$GPGSA,A,3,26,10,07,18,21,27,08,16,,,,,1.26,0.97,0.80*03

$GPGSV,3,1,12,27,80,069,21,08,57,302,20,10,55,107,17,16,42,177,19*79

$GPGSV,3,2,12,18,41,065,20,21,19,064,14,11,18,264,,07,15,287,15*79

$GPGSV,3,3,12,26,15,167,18,30,10,320,,01,07,244,,15,05,034,*72

$GPRMC,144403.000,A,4709.3813,N,00138.2902,W,0.47,30.55,180717,,,A*42

$GPVTG,30.55,T,,M,0.47,N,0.86,K,A*03

$GPGGA,144404.000,4709.3814,N,00138.2901,W,1,08,0.97,61.2,M,48.7,M,,*43

$GPGLL,4709.3814,N,00138.2901,W,144404.000,A,A*4E

$GPGSA,A,3,26,10,07,18,21,27,08,16,,,,,1.26,0.97,0.80*03

$GPGSV,3,1,12,27,80,069,21,08,57,302,20,10,55,107,17,16,42,177,19*79

$GPGSV,3,2,12,18,41,065,19,21,19,064,14,11,18,264,,07,15,287,15*73

$GPGSV,3,3,12,26,15,167,18,30,10,320,,01,07,244,,15,05,034,*72

$GPRMC,144404.000,A,4709.3814,N,00138.2901,W,0.51,28.17,180717,,,A*49

$GPVTG,28.17,T,,M,0.51,N,0.94,K,A*08

$GPGGA,144405.000,4709.3815,N,00138.2900,W,1,08,0.97,61.2,M,48.7,M,,*42

$GPGLL,4709.3815,N,00138.2900,W,144405.000,A,A*4F

$GPGSA,A,3,26,10,07,18,21,27,08,16,,,,,1.26,0.97,0.80*03

$GPGSV,3,1,12,27,80,069,20,08,57,302,20,10,55,107,17,16,42,177,19*78

$GPGSV,3,2,12,18,41,065,19,21,19,064,13,11,18,264,,07,15,287,16*77

$GPGSV,3,3,12,26,15,167,18,30,10,320,,01,07,244,,15,05,034,*72

$GPRMC,144405.000,A,4709.3815,N,00138.2900,W,0.53,16.53,180717,,,A*47

$GPVTG,16.53,T,,M,0.53,N,0.99,K,A*0A

$GPGGA,144406.000,4709.3817,N,00138.2900,W,1,08,0.97,61.2,M,48.7,M,,*43

$GPGLL,4709.3817,N,00138.2900,W,144406.000,A,A*4E

$GPGSA,A,3,26,10,07,18,21,27,08,16,,,,,1.26,0.97,0.80*03

$GPGSV,3,1,12,27,80,069,19,08,57,302,20,10,55,107,17,16,42,177,18*73

$GPGSV,3,2,12,18,41,065,19,21,19,064,14,11,18,264,,07,15,287,16*70

$GPGSV,3,3,12,26,15,167,17,30,10,320,,01,07,244,,15,05,034,*7D

$GPRMC,144406.000,A,4709.3817,N,00138.2900,W,0.56,14.83,180717,,,A*4C

$GPVTG,14.83,T,,M,0.56,N,1.04,K,A*05

$GPGGA,144407.000,4709.3818,N,00138.2899,W,1,08,0.97,61.2,M,48.7,M,,*4C

$GPGLL,4709.3818,N,00138.2899,W,144407.000,A,A*41

$GPGSA,A,3,26,10,07,18,21,27,08,16,,,,,1.66,0.97,1.34*09

$GPGSV,3,1,12,27,80,069,18,08,57,302,20,10,55,107,17,16,42,177,18*72

$GPGSV,3,2,12,18,41,065,19,21,19,064,16,11,18,264,,07,15,287,16*72

$GPGSV,3,3,12,26,15,167,17,30,10,320,,01,07,244,,15,05,034,*7D

$GPRMC,144407.000,A,4709.3818,N,00138.2899,W,0.56,12.28,180717,,,A*44

$GPVTG,12.28,T,,M,0.56,N,1.05,K,A*03

$GPGGA,144408.000,4709.3820,N,00138.2899,W,1,08,0.97,61.2,M,48.7,M,,*48

$GPGLL,4709.3820,N,00138.2899,W,144408.000,A,A*45

$GPGSA,A,3,26,10,07,18,21,27,08,16,,,,,1.66,0.97,1.34*09

$GPGSV,3,1,12,27,80,069,18,08,57,302,20,10,55,107,17,16,42,177,18*72

$GPGSV,3,2,12,18,41,065,19,21,19,064,14,11,18,264,,07,15,287,16*70

$GPGSV,3,3,12,26,15,167,17,30,10,320,,01,07,244,,15,05,034,*7D

$GPRMC,144408.000,A,4709.3820,N,00138.2899,W,0.57,7.71,180717,,,A*79

$GPVTG,7.71,T,,M,0.57,N,1.05,K,A*3A

$GPGGA,144409.000,4709.3821,N,00138.2898,W,1,08,0.97,61.2,M,48.7,M,,*49

$GPGLL,4709.3821,N,00138.2898,W,144409.000,A,A*44

$GPGSA,A,3,26,10,07,18,21,27,08,16,,,,,1.66,0.97,1.34*09

$GPGSV,3,1,12,27,80,069,18,08,57,302,20,10,55,107,17,16,42,177,18*72

$GPGSV,3,2,12,18,41,065,19,21,19,064,14,11,18,264,,07,15,287,16*70

$GPGSV,3,3,12,26,15,167,17,30,10,320,,01,07,244,,15,05,034,*7D

$GPRMC,144409.000,A,4709.3821,N,00138.2898,W,0.59,7.97,180717,,,A*7E

$GPVTG,7.97,T,,M,0.59,N,1.09,K,A*30

$GPGGA,144410.000,4709.3826,N,00138.2893,W,1,08,0.97,61.2,M,48.7,M,,*4D

$GPGLL,4709.3826,N,00138.2893,W,144410.000,A,A*40

$GPGSA,A,3,26,10,07,18,21,27,08,16,,,,,1.66,0.97,1.34*09

$GPGSV,3,1,12,27,80,069,18,08,57,302,20,10,55,107,17,16,42,177,18*72

$GPGSV,3,2,12,18,41,065,19,21,19,064,11,11,18,264,,07,15,287,16*75

$GPGSV,3,3,12,26,15,167,17,30,10,320,,01,07,244,,15,05,034,*7D

$GPRMC,144410.000,A,4709.3826,N,00138.2893,W,0.64,6.71,180717,,,A*7D

$GPVTG,6.71,T,,M,0.64,N,1.18,K,A*37

$GPGGA,144411.000,4709.3829,N,00138.2896,W,1,08,0.97,61.0,M,48.7,M,,*44

$GPGLL,4709.3829,N,00138.2896,W,144411.000,A,A*4B

$GPGSA,A,3,26,10,07,18,21,27,08,16,,,,,1.66,0.97,1.34*09

$GPGSV,3,1,12,27,80,069,18,08,57,302,20,10,55,107,17,16,42,177,18*72

$GPGSV,3,2,12,18,41,065,19,21,19,064,14,11,19,264,,07,15,287,16*71

$GPGSV,3,3,12,26,15,167,17,30,10,320,,01,07,244,,15,05,034,*7D

$GPRMC,144411.000,A,4709.3829,N,00138.2896,W,0.60,3.05,180717,,,A*74

$GPVTG,3.05,T,,M,0.60,N,1.12,K,A*3F

$GPGGA,144412.000,4709.3828,N,00138.2888,W,1,08,0.97,60.9,M,48.7,M,,*41

$GPGLL,4709.3828,N,00138.2888,W,144412.000,A,A*46

$GPGSA,A,3,26,10,07,18,21,27,08,16,,,,,1.65,0.97,1.34*0A

$GPGSV,3,1,12,27,80,069,18,08,57,302,20,10,55,107,17,16,42,177,18*72

$GPGSV,3,2,12,18,41,065,19,21,19,064,15,11,19,264,,07,15,287,16*70

$GPGSV,3,3,12,26,15,167,17,30,10,320,,01,07,244,,15,05,034,*7D

$GPRMC,144412.000,A,4709.3828,N,00138.2888,W,0.55,10.52,180717,,,A*4F

$GPVTG,10.52,T,,M,0.55,N,1.01,K,A*0B

$GPGGA,144413.000,4709.3826,N,00138.2880,W,1,08,0.97,60.9,M,48.7,M,,*46

$GPGLL,4709.3826,N,00138.2880,W,144413.000,A,A*41

$GPGSA,A,3,26,10,07,18,21,27,08,16,,,,,1.65,0.97,1.34*0A

$GPGSV,3,1,12,27,80,069,18,08,57,302,20,10,55,107,17,16,42,177,18*72

$GPGSV,3,2,12,18,41,065,19,21,19,064,16,11,19,264,,07,15,287,16*73

$GPGSV,3,3,12,26,15,167,17,30,10,320,,01,07,244,,15,05,034,*7D

$GPRMC,144413.000,A,4709.3826,N,00138.2880,W,0.51,27.69,180717,,,A*40

$GPVTG,27.69,T,,M,0.51,N,0.95,K,A*0F

$GPGGA,144414.000,4709.3825,N,00138.2871,W,1,08,0.97,60.9,M,48.7,M,,*4C

$GPGLL,4709.3825,N,00138.2871,W,144414.000,A,A*4B

$GPGSA,A,3,26,10,07,18,21,27,08,16,,,,,1.26,0.97,0.80*03

$GPGSV,3,1,12,27,80,069,18,08,57,302,20,10,55,107,17,16,42,177,18*72

$GPGSV,3,2,12,18,41,065,19,21,19,064,14,11,19,264,,07,15,287,16*71

$GPGSV,3,3,12,26,15,167,17,30,10,320,,01,07,244,,15,05,034,*7D

$GPRMC,144414.000,A,4709.3825,N,00138.2871,W,0.51,41.36,180717,,,A*40

$GPVTG,41.36,T,,M,0.51,N,0.94,K,A*04

$GPGGA,144415.000,4709.3825,N,00138.2864,W,1,08,0.97,60.8,M,48.7,M,,*48

$GPGLL,4709.3825,N,00138.2864,W,144415.000,A,A*4E

$GPGSA,A,3,26,10,07,18,21,27,08,16,,,,,1.26,0.97,0.80*03

$GPGSV,3,1,12,27,80,069,18,08,57,302,20,10,55,107,18,16,42,177,18*7D

$GPGSV,3,2,12,18,41,065,19,21,19,064,15,11,19,264,,07,15,287,16*70

$GPGSV,3,3,12,26,15,167,17,30,10,320,,01,07,244,,15,05,034,*7D

$GPRMC,144415.000,A,4709.3825,N,00138.2864,W,0.52,46.44,180717,,,A*44

$GPVTG,46.44,T,,M,0.52,N,0.97,K,A*06

$GPGGA,144416.000,4709.3826,N,00138.2862,W,1,08,0.97,60.8,M,48.7,M,,*4E

$GPGLL,4709.3826,N,00138.2862,W,144416.000,A,A*48

$GPGSA,A,3,26,10,07,18,21,27,08,16,,,,,1.26,0.97,0.80*03

$GPGSV,3,1,12,27,80,069,18,08,57,302,20,10,55,107,18,16,42,177,17*72

$GPGSV,3,2,12,18,41,065,19,21,19,064,14,11,19,264,,07,15,287,16*71

$GPGSV,3,3,12,26,15,167,17,30,10,320,,01,07,244,,15,05,034,*7D

$GPRMC,144416.000,A,4709.3826,N,00138.2862,W,0.52,51.25,180717,,,A*43

$GPVTG,51.25,T,,M,0.52,N,0.96,K,A*06

$GPGGA,144417.000,4709.3827,N,00138.2860,W,1,08,0.97,60.8,M,48.7,M,,*4C

$GPGLL,4709.3827,N,00138.2860,W,144417.000,A,A*4A

$GPGSA,A,3,26,10,07,18,21,27,08,16,,,,,1.26,0.97,0.80*03

$GPGSV,3,1,12,27,80,069,18,08,57,302,19,10,55,107,18,16,42,177,17*78

$GPGSV,3,2,12,18,41,065,19,21,19,064,14,11,19,264,,07,15,287,16*71

$GPGSV,3,3,12,26,15,167,17,30,10,320,,01,07,244,,15,05,034,*7D

$GPRMC,144417.000,A,4709.3827,N,00138.2860,W,0.54,62.86,180717,,,A*4E

$GPVTG,62.86,T,,M,0.54,N,1.00,K,A*07

$GPGGA,144418.000,4709.3828,N,00138.2858,W,1,08,0.97,60.8,M,48.7,M,,*47

$GPGLL,4709.3828,N,00138.2858,W,144418.000,A,A*41

$GPGSA,A,3,26,10,07,18,21,27,08,16,,,,,1.26,0.97,0.80*03

$GPGSV,3,1,12,27,80,069,18,08,57,302,19,10,55,107,18,16,42,177,17*78

$GPGSV,3,2,12,18,40,064,19,21,19,064,15,11,19,264,,07,15,287,16*70

$GPGSV,3,3,12,26,15,167,17,30,10,320,,01,07,244,,15,05,034,*7D

$GPRMC,144418.000,A,4709.3828,N,00138.2858,W,0.58,71.62,180717,,,A*41

$GPVTG,71.62,T,,M,0.58,N,1.07,K,A*04

$GPGGA,144419.000,4709.3828,N,00138.2856,W,1,08,0.97,60.8,M,48.7,M,,*48

$GPGLL,4709.3828,N,00138.2856,W,144419.000,A,A*4E

$GPGSA,A,3,26,10,07,18,21,27,08,16,,,,,1.26,0.97,0.80*03

$GPGSV,3,1,12,27,80,069,18,08,57,302,19,10,55,107,18,16,42,177,17*78

$GPGSV,3,2,12,18,40,064,19,21,19,064,14,11,19,264,,07,15,287,16*71

$GPGSV,3,3,12,26,15,167,17,30,10,320,,01,07,244,,15,05,034,*7D

$GPRMC,144419.000,A,4709.3828,N,00138.2856,W,0.58,71.81,180717,,,A*43

$GPVTG,71.81,T,,M,0.58,N,1.07,K,A*09

$GPGGA,144420.000,4709.3829,N,00138.2853,W,1,08,0.97,60.8,M,48.7,M,,*46

$GPGLL,4709.3829,N,00138.2853,W,144420.000,A,A*40

$GPGSA,A,3,26,10,07,18,21,27,08,16,,,,,1.26,0.97,0.80*03

$GPGSV,3,1,12,27,80,069,18,08,57,302,19,10,55,107,18,16,42,177,17*78

$GPGSV,3,2,12,18,40,064,19,21,19,064,14,11,19,264,,07,15,287,16*71

$GPGSV,3,3,12,26,15,167,17,30,10,320,,01,07,244,,15,05,034,*7D

$GPRMC,144420.000,A,4709.3829,N,00138.2853,W,0.59,71.41,180717,,,A*40

$GPVTG,71.41,T,,M,0.59,N,1.09,K,A*0A

$GPGGA,144421.000,4709.3828,N,00138.2845,W,1,08,0.97,60.6,M,48.7,M,,*4F

$GPGLL,4709.3828,N,00138.2845,W,144421.000,A,A*47

$GPGSA,A,3,26,10,07,18,21,27,08,16,,,,,1.26,0.97,0.80*03

$GPGSV,3,1,12,27,80,069,18,08,57,302,19,10,55,107,18,16,42,177,17*78

$GPGSV,3,2,12,18,40,064,20,11,19,264,,21,18,064,15,07,15,287,16*7B

$GPGSV,3,3,12,26,15,167,17,30,10,320,,01,07,244,,15,05,034,*7D

$GPRMC,144421.000,A,4709.3828,N,00138.2845,W,0.63,72.98,180717,,,A*49

$GPVTG,72.98,T,,M,0.63,N,1.16,K,A*0A

$GPGGA,144422.000,4709.3830,N,00138.2839,W,1,08,0.97,60.4,M,48.7,M,,*4C

$GPGLL,4709.3830,N,00138.2839,W,144422.000,A,A*46

$GPGSA,A,3,26,10,07,18,21,27,08,16,,,,,1.26,0.97,0.80*03

$GPGSV,3,1,12,27,80,069,18,08,57,302,19,10,55,107,18,16,42,177,17*78

$GPGSV,3,2,12,18,40,064,19,11,19,264,,21,18,064,15,07,15,287,16*71

$GPGSV,3,3,12,26,15,167,17,30,10,320,,01,07,244,,15,05,034,*7D

$GPRMC,144422.000,A,4709.3830,N,00138.2839,W,0.64,65.40,180717,,,A*4C

$GPVTG,65.40,T,,M,0.64,N,1.19,K,A*01

$GPGGA,144423.000,4709.3831,N,00138.2838,W,1,08,0.97,60.4,M,48.7,M,,*4D

$GPGLL,4709.3831,N,00138.2838,W,144423.000,A,A*47

$GPGSA,A,3,26,10,07,18,21,27,08,16,,,,,1.26,0.97,0.80*03

$GPGSV,3,1,12,27,80,069,18,08,57,302,19,10,55,107,19,16,42,177,18*76

$GPGSV,3,2,12,18,40,064,19,11,19,264,,21,18,064,15,07,15,287,16*71

$GPGSV,3,3,12,26,15,167,17,30,10,320,,01,07,244,,15,05,034,*7D

$GPRMC,144423.000,A,4709.3831,N,00138.2838,W,0.66,62.29,180717,,,A*47

$GPVTG,62.29,T,,M,0.66,N,1.22,K,A*03

$GPGGA,144424.000,4709.3832,N,00138.2837,W,1,08,0.97,60.4,M,48.7,M,,*46

$GPGLL,4709.3832,N,00138.2837,W,144424.000,A,A*4C

$GPGSA,A,3,26,10,07,18,21,27,08,16,,,,,1.26,0.97,0.80*03

$GPGSV,3,1,12,27,80,069,18,08,57,302,19,10,55,107,19,16,42,177,18*76

$GPGSV,3,2,12,18,40,064,19,11,19,264,,21,18,064,16,07,15,287,16*72

$GPGSV,3,3,12,26,15,167,17,30,10,320,,01,07,244,,15,05,034,*7D

$GPRMC,144424.000,A,4709.3832,N,00138.2837,W,0.66,62.28,180717,,,A*4D

$GPVTG,62.28,T,,M,0.66,N,1.22,K,A*02

$GPGGA,144425.000,4709.3830,N,00138.2831,W,1,08,0.97,60.4,M,48.7,M,,*43

$GPGLL,4709.3830,N,00138.2831,W,144425.000,A,A*49

$GPGSA,A,3,26,10,07,18,21,27,08,16,,,,,1.26,0.97,0.80*03

$GPGSV,3,1,12,27,80,069,18,08,57,302,19,10,55,107,19,16,42,177,18*76

$GPGSV,3,2,12,18,40,064,19,11,19,264,,21,18,064,15,07,15,287,16*71

$GPGSV,3,3,12,26,15,167,17,30,10,320,,01,07,244,,15,05,034,*7D

$GPRMC,144425.000,A,4709.3830,N,00138.2831,W,0.67,65.82,180717,,,A*4E

$GPVTG,65.82,T,,M,0.67,N,1.25,K,A*03

$GPGGA,144426.000,4709.3832,N,00138.2826,W,1,08,0.97,60.4,M,48.7,M,,*44

$GPGLL,4709.3832,N,00138.2826,W,144426.000,A,A*4E

$GPGSA,A,3,26,10,07,18,21,27,08,16,,,,,1.26,0.97,0.80*03

$GPGSV,3,1,12,27,80,069,18,08,57,302,19,10,55,107,19,16,42,177,17*79

$GPGSV,3,2,12,18,40,064,19,11,19,264,,21,18,064,14,07,15,287,16*70

$GPGSV,3,3,12,26,15,167,17,30,10,320,,01,07,244,,15,05,034,*7D

$GPRMC,144426.000,A,4709.3832,N,00138.2826,W,0.69,61.06,180717,,,A*4F

$GPVTG,61.06,T,,M,0.69,N,1.27,K,A*07

$GPGGA,144427.000,4709.3833,N,00138.2829,W,1,08,0.97,60.3,M,48.7,M,,*4C

$GPGLL,4709.3833,N,00138.2829,W,144427.000,A,A*41

$GPGSA,A,3,26,10,07,18,21,27,08,16,,,,,1.26,0.97,0.80*03

$GPGSV,3,1,12,27,80,070,18,08,57,302,19,10,55,107,19,16,42,177,17*71

$GPGSV,3,2,12,18,40,064,19,11,19,264,,21,18,064,15,07,15,287,16*71

$GPGSV,3,3,12,26,15,167,17,30,10,320,,01,07,244,,15,05,034,*7D

$GPRMC,144427.000,A,4709.3833,N,00138.2829,W,0.60,57.59,180717,,,A*46

$GPVTG,57.59,T,,M,0.60,N,1.11,K,A*04

$GPGGA,144428.000,4709.3834,N,00138.2833,W,1,08,0.97,60.3,M,48.7,M,,*4F

$GPGLL,4709.3834,N,00138.2833,W,144428.000,A,A*42

$GPGSA,A,3,26,10,07,18,21,27,08,16,,,,,1.26,0.97,0.80*03

$GPGSV,3,1,12,27,80,070,18,08,57,302,19,10,55,107,19,16,42,177,17*71

$GPGSV,3,2,12,18,40,064,18,11,19,264,,21,18,064,15,07,15,287,16*70

$GPGSV,3,3,12,26,15,167,17,30,10,320,,01,07,244,,15,05,034,*7D

$GPRMC,144428.000,A,4709.3834,N,00138.2833,W,0.48,49.33,180717,,,A*4C

$GPVTG,49.33,T,,M,0.48,N,0.89,K,A*0D

$GPGGA,144429.000,4709.3833,N,00138.2831,W,1,08,0.97,60.3,M,48.7,M,,*4B

$GPGLL,4709.3833,N,00138.2831,W,144429.000,A,A*46

$GPGSA,A,3,26,10,07,18,21,27,08,16,,,,,1.26,0.97,0.80*03

$GPGSV,3,1,12,27,80,070,18,08,57,302,19,10,55,107,19,16,42,177,17*71

$GPGSV,3,2,12,18,40,064,18,11,19,264,,21,18,064,16,07,15,287,16*73

$GPGSV,3,3,12,26,15,167,17,30,10,320,,01,07,244,,15,05,034,*7D

$GPRMC,144429.000,A,4709.3833,N,00138.2831,W,0.41,50.66,180717,,,A*49

$GPVTG,50.66,T,,M,0.41,N,0.76,K,A*0C

$GPGGA,144430.000,4709.3833,N,00138.2833,W,1,08,0.97,60.3,M,48.7,M,,*41

$GPGLL,4709.3833,N,00138.2833,W,144430.000,A,A*4C

$GPGSA,A,3,26,10,07,18,21,27,08,16,,,,,1.26,0.97,0.80*03

$GPGSV,3,1,12,27,80,070,18,08,57,302,20,10,55,107,19,16,42,177,17*7B

$GPGSV,3,2,12,18,40,064,18,11,19,264,,21,18,064,14,07,15,287,16*71

$GPGSV,3,3,12,26,15,167,17,30,10,320,,01,07,244,,15,05,034,*7D

$GPRMC,144430.000,A,4709.3833,N,00138.2833,W,0.33,34.98,180717,,,A*45

$GPVTG,34.98,T,,M,0.33,N,0.60,K,A*0D

$GPGGA,144431.000,4709.3833,N,00138.2826,W,1,08,0.97,60.3,M,48.7,M,,*44

$GPGLL,4709.3833,N,00138.2826,W,144431.000,A,A*49

$GPGSA,A,3,26,10,07,18,21,27,08,16,,,,,1.26,0.97,0.80*03

$GPGSV,3,1,12,27,80,070,18,08,57,302,20,10,55,107,19,16,42,177,17*7B

$GPGSV,3,2,12,18,40,064,18,11,19,264,,21,18,064,14,07,15,287,16*71

$GPGSV,3,3,12,26,15,167,17,30,10,320,,01,07,244,,15,05,034,*7D

$GPRMC,144431.000,A,4709.3833,N,00138.2826,W,0.36,44.56,180717,,,A*40

$GPVTG,44.56,T,,M,0.36,N,0.67,K,A*0A

$GPGGA,144432.000,4709.3834,N,00138.2824,W,1,08,0.97,60.3,M,48.7,M,,*42

$GPGLL,4709.3834,N,00138.2824,W,144432.000,A,A*4F

$GPGSA,A,3,26,10,07,18,21,27,08,16,,,,,1.26,0.97,0.80*03

$GPGSV,3,1,12,27,80,070,18,08,57,302,20,10,55,107,19,16,42,177,17*7B

$GPGSV,3,2,12,18,40,064,18,11,19,264,,21,18,064,15,07,15,287,16*70

$GPGSV,3,3,12,26,15,167,17,30,10,320,,01,07,244,,15,05,034,*7D

$GPRMC,144432.000,A,4709.3834,N,00138.2824,W,0.41,49.68,180717,,,A*46

$GPVTG,49.68,T,,M,0.41,N,0.77,K,A*0B

$GPGGA,144433.000,4709.3835,N,00138.2823,W,1,08,0.97,60.3,M,48.7,M,,*45

$GPGLL,4709.3835,N,00138.2823,W,144433.000,A,A*48

$GPGSA,A,3,26,10,07,18,21,27,08,16,,,,,1.26,0.97,0.80*03

$GPGSV,3,1,12,27,80,070,18,08,57,302,20,10,55,107,19,16,42,177,17*7B

$GPGSV,3,2,12,18,40,064,18,11,19,264,,21,18,064,16,07,15,287,16*73

$GPGSV,3,3,12,26,15,167,17,30,10,320,,01,07,244,,15,05,034,*7D

$GPRMC,144433.000,A,4709.3835,N,00138.2823,W,0.41,55.90,180717,,,A*4B

$GPVTG,55.90,T,,M,0.41,N,0.75,K,A*03

$GPGGA,144434.000,4709.3835,N,00138.2822,W,1,08,0.97,60.3,M,48.7,M,,*43

$GPGLL,4709.3835,N,00138.2822,W,144434.000,A,A*4E

$GPGSA,A,3,26,10,07,18,21,27,08,16,,,,,1.26,0.97,0.80*03

$GPGSV,3,1,12,27,80,070,18,08,57,302,20,10,55,107,19,16,42,177,17*7B

$GPGSV,3,2,12,18,40,064,18,11,19,264,,21,18,064,15,07,15,287,16*70

$GPGSV,3,3,12,26,15,167,17,30,10,320,,01,07,244,,15,05,034,*7D

$GPRMC,144434.000,A,4709.3835,N,00138.2822,W,0.35,55.51,180717,,,A*43

$GPVTG,55.51,T,,M,0.35,N,0.65,K,A*0C

$GPGGA,144435.000,4709.3836,N,00138.2820,W,1,08,0.97,60.3,M,48.7,M,,*43

$GPGLL,4709.3836,N,00138.2820,W,144435.000,A,A*4E

$GPGSA,A,3,26,10,07,18,21,27,08,16,,,,,1.26,0.97,0.80*03

$GPGSV,3,1,12,27,80,070,18,08,57,302,20,10,55,107,19,16,42,177,18*74

$GPGSV,3,2,12,18,40,064,18,11,19,264,,21,18,064,15,07,15,287,16*70

$GPGSV,3,3,12,26,15,167,17,30,10,320,,01,07,244,,15,05,034,*7D

$GPRMC,144435.000,A,4709.3836,N,00138.2820,W,0.35,67.39,180717,,,A*4C

$GPVTG,67.39,T,,M,0.35,N,0.65,K,A*03

$GPGGA,144436.000,4709.3836,N,00138.2819,W,1,08,0.97,60.3,M,48.7,M,,*4A

$GPGLL,4709.3836,N,00138.2819,W,144436.000,A,A*47

$GPGSA,A,3,26,10,07,18,21,27,08,16,,,,,1.26,0.97,0.80*03

$GPGSV,3,1,12,27,80,070,18,08,57,302,19,10,55,107,19,16,42,177,18*7E

$GPGSV,3,2,12,18,40,064,18,11,19,264,,21,18,064,16,07,15,287,17*72

$GPGSV,3,3,12,26,15,167,17,30,10,320,,01,07,244,,15,05,034,*7D

$GPRMC,144436.000,A,4709.3836,N,00138.2819,W,0.36,70.56,180717,,,A*49

$GPVTG,70.56,T,,M,0.36,N,0.66,K,A*0C

$GPGGA,144437.000,4709.3836,N,00138.2818,W,1,08,0.97,60.3,M,48.7,M,,*4A

$GPGLL,4709.3836,N,00138.2818,W,144437.000,A,A*47

$GPGSA,A,3,26,10,07,18,21,27,08,16,,,,,1.26,0.97,0.80*03

$GPGSV,3,1,12,27,80,070,18,08,57,302,19,10,55,107,19,16,42,177,18*7E

$GPGSV,3,2,12,18,40,064,18,11,19,264,,21,18,064,15,07,15,287,17*71

$GPGSV,3,3,12,26,15,167,17,30,10,320,,01,07,244,,15,05,034,*7D

$GPRMC,144437.000,A,4709.3836,N,00138.2818,W,0.31,77.78,180717,,,A*45

$GPVTG,77.78,T,,M,0.31,N,0.57,K,A*02

$GPGGA,144438.000,4709.3836,N,00138.2817,W,1,08,0.97,60.3,M,48.7,M,,*4A

$GPGLL,4709.3836,N,00138.2817,W,144438.000,A,A*47

$GPGSA,A,3,26,10,07,18,21,27,08,16,,,,,1.26,0.97,0.80*03

$GPGSV,3,1,12,27,80,070,18,08,57,302,20,10,55,107,19,16,42,177,18*74

$GPGSV,3,2,12,18,40,064,18,11,19,264,,21,18,064,15,07,15,287,17*71

$GPGSV,3,3,12,26,15,167,17,30,10,320,,01,07,244,,15,05,034,*7D

$GPRMC,144438.000,A,4709.3836,N,00138.2817,W,0.23,95.72,180717,,,A*40

$GPVTG,95.72,T,,M,0.23,N,0.43,K,A*02

$GPGGA,144439.000,4709.3836,N,00138.2816,W,1,08,0.97,60.3,M,48.7,M,,*4A

$GPGLL,4709.3836,N,00138.2816,W,144439.000,A,A*47

$GPGSA,A,3,26,10,07,18,21,27,08,16,,,,,1.26,0.97,0.80*03

$GPGSV,3,1,12,27,80,070,18,08,57,302,20,10,55,107,19,16,42,177,18*74

$GPGSV,3,2,12,18,40,064,18,11,19,264,,21,18,064,15,07,15,287,17*71

$GPGSV,3,3,12,26,15,167,17,30,10,320,,01,07,244,,15,05,034,*7D

$GPRMC,144439.000,A,4709.3836,N,00138.2816,W,0.19,109.06,180717,,,A*7E

$GPVTG,109.06,T,,M,0.19,N,0.35,K,A*3D

$GPGGA,144440.000,4709.3836,N,00138.2815,W,1,08,0.97,60.3,M,48.7,M,,*47

$GPGLL,4709.3836,N,00138.2815,W,144440.000,A,A*4A

$GPGSA,A,3,26,10,07,18,21,27,08,16,,,,,1.26,0.97,0.80*03

$GPGSV,3,1,12,27,80,070,18,08,57,302,20,10,55,107,19,16,42,177,18*74

$GPGSV,3,2,12,18,40,064,18,11,19,264,,21,18,064,15,07,15,287,17*71

$GPGSV,3,3,12,26,15,167,17,30,10,320,,01,07,244,,15,05,034,*7D

$GPRMC,144440.000,A,4709.3836,N,00138.2815,W,0.17,119.52,180717,,,A*7D

$GPVTG,119.52,T,,M,0.17,N,0.31,K,A*37

$GPGGA,144441.000,4709.3836,N,00138.2814,W,1,08,0.97,60.3,M,48.7,M,,*47

$GPGLL,4709.3836,N,00138.2814,W,144441.000,A,A*4A

$GPGSA,A,3,26,10,07,18,21,27,08,16,,,,,1.26,0.97,0.80*03

$GPGSV,3,1,12,27,80,070,18,08,57,302,20,10,55,107,19,16,42,177,18*74

$GPGSV,3,2,12,18,40,064,18,11,19,264,,21,18,064,14,07,15,287,17*70

$GPGSV,3,3,12,26,15,167,18,30,10,320,,01,07,244,,15,05,034,*72

$GPRMC,144441.000,A,4709.3836,N,00138.2814,W,0.18,115.50,180717,,,A*7C

$GPVTG,115.50,T,,M,0.18,N,0.33,K,A*34

$GPGGA,144442.000,4709.3836,N,00138.2814,W,1,08,0.97,60.3,M,48.7,M,,*44

$GPGLL,4709.3836,N,00138.2814,W,144442.000,A,A*49

$GPGSA,A,3,26,10,07,18,21,27,08,16,,,,,1.26,0.97,0.80*03

$GPGSV,3,1,12,27,80,070,18,08,57,302,20,10,55,107,19,16,42,177,18*74

$GPGSV,3,2,12,18,40,064,18,11,19,264,,21,18,064,15,07,15,286,17*70

$GPGSV,3,3,12,26,15,167,18,30,10,320,,01,07,244,,15,05,034,*72

$GPRMC,144442.000,A,4709.3836,N,00138.2814,W,0.16,125.36,180717,,,A*72

$GPVTG,125.36,T,,M,0.16,N,0.30,K,A*3A

$GPGGA,144443.000,4709.3835,N,00138.2813,W,1,08,0.97,60.3,M,48.7,M,,*41

$GPGLL,4709.3835,N,00138.2813,W,144443.000,A,A*4C

$GPGSA,A,3,26,10,07,18,21,27,08,16,,,,,1.26,0.97,0.80*03

$GPGSV,3,1,12,27,80,070,18,08,57,302,20,10,55,107,19,16,42,177,18*74

$GPGSV,3,2,12,18,40,064,18,11,19,264,,21,18,064,14,07,15,286,17*71

$GPGSV,3,3,12,26,15,167,18,30,10,320,,01,07,244,,15,05,034,*72

$GPRMC,144443.000,A,4709.3835,N,00138.2813,W,0.14,134.02,180717,,,A*72

$GPVTG,134.02,T,,M,0.14,N,0.26,K,A*38

$GPGGA,144444.000,4709.3835,N,00138.2813,W,1,08,0.97,60.3,M,48.7,M,,*46

$GPGLL,4709.3835,N,00138.2813,W,144444.000,A,A*4B

$GPGSA,A,3,26,10,07,18,21,27,08,16,,,,,1.26,0.97,0.80*03

$GPGSV,3,1,12,27,80,070,18,08,57,302,20,10,55,107,19,16,42,177,18*74

$GPGSV,3,2,12,18,40,064,18,11,19,264,,21,18,064,14,07,15,286,17*71

$GPGSV,3,3,12,26,15,167,18,30,10,320,,01,07,244,,15,05,034,*72

$GPRMC,144444.000,A,4709.3835,N,00138.2813,W,0.16,144.03,180717,,,A*71

$GPVTG,144.03,T,,M,0.16,N,0.29,K,A*33

$GPGGA,144445.000,4709.3835,N,00138.2813,W,1,08,0.97,60.3,M,48.7,M,,*47

$GPGLL,4709.3835,N,00138.2813,W,144445.000,A,A*4A

$GPGSA,A,3,26,10,07,18,21,27,08,16,,,,,1.26,0.97,0.80*03

$GPGSV,3,1,12,27,80,070,18,08,57,302,20,10,55,106,22,16,42,177,18*7D

$GPGSV,3,2,12,18,40,064,18,11,19,264,,21,18,064,14,07,15,286,17*71

$GPGSV,3,3,12,26,15,167,17,30,10,320,,01,07,244,,15,05,034,*7D

$GPRMC,144445.000,A,4709.3835,N,00138.2813,W,0.14,137.18,180717,,,A*7C

$GPVTG,137.18,T,,M,0.14,N,0.26,K,A*30

$GPGGA,144446.000,4709.3834,N,00138.2812,W,1,08,0.97,60.3,M,48.7,M,,*44

$GPGLL,4709.3834,N,00138.2812,W,144446.000,A,A*49

$GPGSA,A,3,26,10,07,18,21,27,08,16,,,,,1.26,0.97,0.80*03

$GPGSV,3,1,12,27,80,070,18,08,57,302,20,10,55,106,23,16,42,177,18*7C

$GPGSV,3,2,12,18,40,064,18,11,19,265,,21,18,064,16,07,15,286,17*72

$GPGSV,3,3,12,26,15,167,17,30,10,320,,01,07,244,,15,05,034,*7D

$GPRMC,144446.000,A,4709.3834,N,00138.2812,W,0.10,153.86,180717,,,A*7E

$GPVTG,153.86,T,,M,0.10,N,0.18,K,A*3C

$GPGGA,144447.000,4709.3834,N,00138.2812,W,1,08,0.97,60.3,M,48.7,M,,*45

$GPGLL,4709.3834,N,00138.2812,W,144447.000,A,A*48

$GPGSA,A,3,26,10,07,18,21,27,08,16,,,,,1.26,0.97,0.80*03

$GPGSV,3,1,12,27,80,070,18,08,57,302,20,10,55,106,23,16,42,177,17*73

$GPGSV,3,2,12,18,40,064,18,11,19,265,,21,18,064,15,07,15,286,17*71

$GPGSV,3,3,12,26,15,167,17,30,10,320,,01,07,244,,15,05,034,*7D

$GPRMC,144447.000,A,4709.3834,N,00138.2812,W,0.10,163.86,180717,,,A*7C

$GPVTG,163.86,T,,M,0.10,N,0.19,K,A*3E

$GPGGA,144448.000,4709.3834,N,00138.2812,W,1,08,0.97,60.3,M,48.7,M,,*4A

$GPGLL,4709.3834,N,00138.2812,W,144448.000,A,A*47

$GPGSA,A,3,26,10,07,18,21,27,08,16,,,,,1.26,0.97,0.80*03

$GPGSV,3,1,12,27,80,070,18,08,57,302,20,10,55,106,22,16,42,177,17*72

$GPGSV,3,2,12,18,40,064,18,11,19,265,,21,18,064,15,07,15,286,17*71

$GPGSV,3,3,12,26,15,167,17,30,10,320,,01,07,244,,15,05,034,*7D

$GPRMC,144448.000,A,4709.3834,N,00138.2812,W,0.14,174.81,180717,,,A*76

$GPVTG,174.81,T,,M,0.14,N,0.26,K,A*37

$GPGGA,144449.000,4709.3833,N,00138.2812,W,1,08,0.97,60.3,M,48.7,M,,*4C

$GPGLL,4709.3833,N,00138.2812,W,144449.000,A,A*41

$GPGSA,A,3,26,10,07,18,21,27,08,16,,,,,1.26,0.97,0.80*03

$GPGSV,3,1,12,27,80,070,18,08,57,302,20,10,55,106,22,16,42,177,17*72

$GPGSV,3,2,12,18,40,064,18,11,19,265,,21,18,064,14,07,15,286,17*70

$GPGSV,3,3,12,26,15,167,17,30,10,320,,01,07,244,,15,05,034,*7D

$GPRMC,144449.000,A,4709.3833,N,00138.2812,W,0.21,161.51,180717,,,A*7F

$GPVTG,161.51,T,,M,0.21,N,0.39,K,A*36

$GPGGA,144450.000,4709.3833,N,00138.2812,W,1,08,0.97,60.3,M,48.7,M,,*44

$GPGLL,4709.3833,N,00138.2812,W,144450.000,A,A*49

$GPGSA,A,3,26,10,07,18,21,27,08,16,,,,,1.26,0.97,0.80*03

$GPGSV,3,1,12,27,80,070,18,08,57,302,20,10,55,106,21,16,42,177,17*71

$GPGSV,3,2,12,18,40,064,18,11,19,265,,21,18,064,15,07,15,286,17*71

$GPGSV,3,3,12,26,15,167,17,30,10,320,,01,07,244,,15,05,034,*7D

$GPRMC,144450.000,A,4709.3833,N,00138.2812,W,0.20,155.67,180717,,,A*74

$GPVTG,155.67,T,,M,0.20,N,0.38,K,A*34

$GPGGA,144451.000,4709.3832,N,00138.2811,W,1,08,0.97,60.3,M,48.7,M,,*47

$GPGLL,4709.3832,N,00138.2811,W,144451.000,A,A*4A

$GPGSA,A,3,26,10,07,18,21,27,08,16,,,,,1.26,0.97,0.80*03

$GPGSV,3,1,12,27,80,070,18,08,57,302,20,10,55,106,23,16,41,177,17*70

$GPGSV,3,2,12,18,40,064,18,11,19,265,,21,18,064,15,07,15,286,18*7E

$GPGSV,3,3,12,26,15,167,17,30,10,320,,01,07,244,,15,05,034,*7D

$GPRMC,144451.000,A,4709.3832,N,00138.2811,W,0.25,148.93,180717,,,A*75

$GPVTG,148.93,T,,M,0.25,N,0.46,K,A*3F

$GPGGA,144452.000,4709.3832,N,00138.2811,W,1,08,0.97,60.3,M,48.7,M,,*44

$GPGLL,4709.3832,N,00138.2811,W,144452.000,A,A*49

$GPGSA,A,3,26,10,07,18,21,27,08,16,,,,,1.26,0.97,0.80*03

$GPGSV,3,1,12,27,80,070,18,08,57,302,20,10,55,106,23,16,41,177,17*70

$GPGSV,3,2,12,18,40,064,18,11,19,265,,21,18,064,17,07,15,286,18*7C

$GPGSV,3,3,12,26,15,167,17,30,10,320,,01,07,244,,15,05,034,*7D

$GPRMC,144452.000,A,4709.3832,N,00138.2811,W,0.29,144.78,180717,,,A*73

$GPVTG,144.78,T,,M,0.29,N,0.54,K,A*39

$GPGGA,144453.000,4709.3831,N,00138.2810,W,1,08,0.97,60.3,M,48.7,M,,*47

$GPGLL,4709.3831,N,00138.2810,W,144453.000,A,A*4A

$GPGSA,A,3,26,10,07,18,21,27,08,16,,,,,1.26,0.97,0.80*03

$GPGSV,3,1,12,27,80,070,18,08,57,302,21,10,55,106,23,16,41,177,17*71

$GPGSV,3,2,12,18,40,064,18,11,19,265,,21,18,064,15,07,15,286,18*7E

$GPGSV,3,3,12,26,15,167,17,30,10,320,,01,07,244,,15,05,034,*7D

$GPRMC,144453.000,A,4709.3831,N,00138.2810,W,0.35,162.90,180717,,,A*7F

$GPVTG,162.90,T,,M,0.35,N,0.66,K,A*37

$GPGGA,144454.000,4709.3830,N,00138.2810,W,1,08,0.97,60.3,M,48.7,M,,*41

$GPGLL,4709.3830,N,00138.2810,W,144454.000,A,A*4C

$GPGSA,A,3,26,10,07,18,21,27,08,16,,,,,1.26,0.97,0.80*03

$GPGSV,3,1,12,27,80,070,18,08,57,302,20,10,55,106,23,16,41,177,17*70

$GPGSV,3,2,12,18,40,064,18,11,19,265,,21,18,064,17,07,15,286,18*7C

$GPGSV,3,3,12,26,15,167,17,30,10,320,,01,07,244,,15,05,034,*7D

$GPRMC,144454.000,A,4709.3830,N,00138.2810,W,0.41,173.55,180717,,,A*73

$GPVTG,173.55,T,,M,0.41,N,0.75,K,A*3F

$GPGGA,144455.000,4709.3829,N,00138.2810,W,1,08,0.97,60.3,M,48.7,M,,*48

$GPGLL,4709.3829,N,00138.2810,W,144455.000,A,A*45

$GPGSA,A,3,26,10,07,18,21,27,08,16,,,,,1.26,0.97,0.80*03

$GPGSV,3,1,12,27,80,070,18,08,57,302,20,10,55,106,23,16,41,177,18*7F

$GPGSV,3,2,12,18,40,064,18,11,19,265,,21,18,064,15,07,15,286,18*7E

$GPGSV,3,3,12,26,15,167,17,30,10,320,,01,07,244,,15,05,034,*7D

$GPRMC,144455.000,A,4709.3829,N,00138.2810,W,0.43,178.51,180717,,,A*77

$GPVTG,178.51,T,,M,0.43,N,0.79,K,A*3E

$GPGGA,144456.000,4709.3827,N,00138.2810,W,1,08,0.97,60.2,M,48.7,M,,*44

$GPGLL,4709.3827,N,00138.2810,W,144456.000,A,A*48

$GPGSA,A,3,26,10,07,18,21,27,08,16,,,,,1.26,0.97,0.80*03

$GPGSV,3,1,12,27,80,070,17,08,57,302,20,10,55,106,23,16,41,177,18*70

$GPGSV,3,2,12,18,40,064,18,11,19,265,,21,18,064,15,07,15,286,18*7E

$GPGSV,3,3,12,26,15,167,17,30,10,320,,01,07,244,,15,05,034,*7D

$GPRMC,144456.000,A,4709.3827,N,00138.2810,W,0.45,185.01,180717,,,A*7B

$GPVTG,185.01,T,,M,0.45,N,0.84,K,A*3D

$GPGGA,144457.000,4709.3826,N,00138.2810,W,1,08,0.97,60.2,M,48.7,M,,*44

$GPGLL,4709.3826,N,00138.2810,W,144457.000,A,A*48

$GPGSA,A,3,26,10,07,18,21,27,08,16,,,,,1.26,0.97,0.80*03

$GPGSV,3,1,12,27,80,070,17,08,57,302,20,10,55,106,23,16,41,177,18*70

$GPGSV,3,2,12,18,40,064,18,11,19,265,,21,18,064,15,07,15,286,18*7E

$GPGSV,3,3,12,26,15,167,17,30,10,320,,01,07,244,,15,05,034,*7D

$GPRMC,144457.000,A,4709.3826,N,00138.2810,W,0.53,195.78,180717,,,A*73

$GPVTG,195.78,T,,M,0.53,N,0.97,K,A*37

$GPGGA,144458.000,4709.3824,N,00138.2811,W,1,08,0.97,60.2,M,48.7,M,,*48

$GPGLL,4709.3824,N,00138.2811,W,144458.000,A,A*44

$GPGSA,A,3,26,10,07,18,21,27,08,16,,,,,1.26,0.97,0.80*03

$GPGSV,3,1,12,27,80,070,17,08,57,302,20,10,55,106,23,16,41,177,18*70

$GPGSV,3,2,12,18,40,064,18,11,19,265,,21,18,064,15,07,15,286,18*7E

$GPGSV,3,3,12,26,15,167,17,30,10,320,,01,07,244,,15,05,034,*7D

$GPRMC,144458.000,A,4709.3824,N,00138.2811,W,0.54,197.56,180717,,,A*76

$GPVTG,197.56,T,,M,0.54,N,0.99,K,A*30

$GPGGA,144459.000,4709.3823,N,00138.2811,W,1,08,0.97,60.2,M,48.7,M,,*4E

$GPGLL,4709.3823,N,00138.2811,W,144459.000,A,A*42

$GPGSA,A,3,26,10,07,18,21,27,08,16,,,,,1.25,0.97,0.80*00

$GPGSV,3,1,12,27,80,070,17,08,57,302,20,10,55,106,23,16,41,177,18*70

$GPGSV,3,2,12,18,40,064,18,11,19,265,,21,18,064,14,07,15,286,18*7F

$GPGSV,3,3,12,26,15,167,17,30,10,320,,01,07,244,,15,05,034,*7D

$GPRMC,144459.000,A,4709.3823,N,00138.2811,W,0.48,200.03,180717,,,A*70

$GPVTG,200.03,T,,M,0.48,N,0.90,K,A*39

$GPGGA,144500.000,4709.3822,N,00138.2812,W,1,08,0.97,60.2,M,48.7,M,,*41

$GPGLL,4709.3822,N,00138.2812,W,144500.000,A,A*4D

$GPGSA,A,3,26,10,07,18,21,27,08,16,,,,,1.26,0.97,0.80*03

$GPGSV,3,1,12,27,80,070,17,08,57,302,20,10,55,106,24,16,41,177,18*77

$GPGSV,3,2,12,18,40,064,18,11,19,265,,21,18,064,15,07,15,286,18*7E

$GPGSV,3,3,12,26,15,167,17,30,10,320,,01,07,244,,15,05,034,*7D

$GPRMC,144500.000,A,4709.3822,N,00138.2812,W,0.44,206.36,180717,,,A*73

$GPVTG,206.36,T,,M,0.44,N,0.81,K,A*35

$GPGGA,144501.000,4709.3820,N,00138.2813,W,1,08,0.97,60.2,M,48.7,M,,*43

$GPGLL,4709.3820,N,00138.2813,W,144501.000,A,A*4F

$GPGSA,A,3,26,10,07,18,21,27,08,16,,,,,1.26,0.97,0.80*03

$GPGSV,3,1,12,27,80,070,16,08,57,302,20,10,55,106,24,16,41,177,18*76

$GPGSV,3,2,12,18,40,064,18,11,19,265,,21,18,064,14,07,15,286,18*7F

$GPGSV,3,3,12,26,15,167,17,30,10,320,,01,07,244,,15,05,034,*7D

$GPRMC,144501.000,A,4709.3820,N,00138.2813,W,0.45,206.06,180717,,,A*73

$GPVTG,206.06,T,,M,0.45,N,0.83,K,A*35

$GPGGA,144502.000,4709.3819,N,00138.2814,W,1,08,0.97,60.2,M,48.7,M,,*4D

$GPGLL,4709.3819,N,00138.2814,W,144502.000,A,A*41

$GPGSA,A,3,26,10,07,18,21,27,08,16,,,,,1.26,0.97,0.80*03

$GPGSV,3,1,12,27,80,071,15,08,57,302,20,10,55,106,24,16,41,177,18*74

$GPGSV,3,2,12,18,40,064,18,11,19,265,,21,18,064,12,07,15,286,18*79

$GPGSV,3,3,12,26,15,167,17,30,10,320,,01,07,244,,15,05,034,*7D

$GPRMC,144502.000,A,4709.3819,N,00138.2814,W,0.40,204.59,180717,,,A*70

$GPVTG,204.59,T,,M,0.40,N,0.73,K,A*37

$GPGGA,144503.000,4709.3818,N,00138.2814,W,1,08,0.97,60.2,M,48.7,M,,*4D

$GPGLL,4709.3818,N,00138.2814,W,144503.000,A,A*41

$GPGSA,A,3,26,10,07,18,21,27,08,16,,,,,1.26,0.97,0.80*03

$GPGSV,3,1,12,27,80,071,15,08,57,302,20,10,55,106,24,16,41,177,18*74

$GPGSV,3,2,12,18,40,064,18,11,19,265,,21,18,064,15,07,15,286,18*7E

$GPGSV,3,3,12,26,15,167,17,30,10,320,,01,07,244,,15,05,034,*7D

$GPRMC,144503.000,A,4709.3818,N,00138.2814,W,0.38,199.10,180717,,,A*75

$GPVTG,199.10,T,,M,0.38,N,0.71,K,A*30

$GPGGA,144504.000,4709.3817,N,00138.2815,W,1,08,0.97,60.2,M,48.7,M,,*44

$GPGLL,4709.3817,N,00138.2815,W,144504.000,A,A*48

$GPGSA,A,3,26,10,07,18,21,27,08,16,,,,,1.25,0.97,0.80*00

$GPGSV,3,1,12,27,80,071,15,08,57,302,20,10,55,106,24,16,41,177,18*74

$GPGSV,3,2,12,18,40,064,18,11,19,265,,21,18,064,12,07,15,286,18*79

$GPGSV,3,3,12,26,15,167,17,30,10,320,,01,07,244,,15,05,034,*7D

$GPRMC,144504.000,A,4709.3817,N,00138.2815,W,0.38,193.63,180717,,,A*72

$GPVTG,193.63,T,,M,0.38,N,0.70,K,A*3F

$GPGGA,144505.000,4709.3816,N,00138.2815,W,1,08,0.97,60.2,M,48.7,M,,*44

$GPGLL,4709.3816,N,00138.2815,W,144505.000,A,A*48

$GPGSA,A,3,26,10,07,18,21,27,08,16,,,,,1.26,0.97,0.80*03

$GPGSV,4,1,13,27,80,071,15,08,57,302,20,10,55,106,25,16,41,177,18*73

$GPGSV,4,2,13,18,40,064,18,11,19,265,,21,18,064,12,07,15,286,18*7F

$GPGSV,4,3,13,26,15,167,17,30,10,319,,01,07,244,,15,05,034,*71

$GPGSV,4,4,13,47,,,*78

$GPRMC,144505.000,A,4709.3816,N,00138.2815,W,0.46,192.05,180717,,,A*7A

$GPVTG,192.05,T,,M,0.46,N,0.86,K,A*3E

$GPGGA,144506.000,4709.3814,N,00138.2816,W,1,08,0.97,60.2,M,48.7,M,,*46

$GPGLL,4709.3814,N,00138.2816,W,144506.000,A,A*4A

$GPGSA,A,3,26,10,07,18,21,27,08,16,,,,,1.25,0.97,0.80*00

$GPGSV,4,1,13,27,80,071,15,08,57,302,20,10,55,106,24,16,41,177,18*72

$GPGSV,4,2,13,18,40,064,18,11,19,265,,21,18,064,15,07,15,286,18*78

$GPGSV,4,3,13,26,15,167,17,30,10,319,,01,07,244,,15,05,034,*71

$GPGSV,4,4,13,47,,,*78

$GPRMC,144506.000,A,4709.3814,N,00138.2816,W,0.56,196.15,180717,,,A*7C

$GPVTG,196.15,T,,M,0.56,N,1.04,K,A*31

$GPGGA,144507.000,4709.3813,N,00138.2816,W,1,08,0.97,60.2,M,48.7,M,,*40

$GPGLL,4709.3813,N,00138.2816,W,144507.000,A,A*4C

$GPGSA,A,3,26,10,07,18,21,27,08,16,,,,,1.26,0.97,0.80*03

$GPGSV,4,1,13,27,80,071,15,08,57,302,20,10,55,106,24,16,41,177,18*72

$GPGSV,4,2,13,18,40,064,18,11,19,265,,21,18,064,13,07,15,286,18*7E

$GPGSV,4,3,13,26,15,167,17,30,10,319,,01,07,244,,15,05,034,*71

$GPGSV,4,4,13,47,,,*78

$GPRMC,144507.000,A,4709.3813,N,00138.2816,W,0.52,191.35,180717,,,A*7B

$GPVTG,191.35,T,,M,0.52,N,0.97,K,A*3B

$GPGGA,144508.000,4709.3812,N,00138.2817,W,1,08,0.97,60.2,M,48.7,M,,*4F

$GPGLL,4709.3812,N,00138.2817,W,144508.000,A,A*43

$GPGSA,A,3,26,10,07,18,21,27,08,16,,,,,1.26,0.97,0.80*03

$GPGSV,4,1,13,27,80,071,11,08,57,302,20,10,55,106,25,16,41,177,17*78

$GPGSV,4,2,13,18,40,064,18,11,19,265,,21,18,064,15,07,15,286,18*78

$GPGSV,4,3,13,26,15,167,16,30,10,319,,01,07,244,,15,05,034,*70

$GPGSV,4,4,13,47,,,*78

$GPRMC,144508.000,A,4709.3812,N,00138.2817,W,0.53,186.38,180717,,,A*7E

$GPVTG,186.38,T,,M,0.53,N,0.98,K,A*3E

$GPGGA,144509.000,4709.3810,N,00138.2817,W,1,08,0.97,60.2,M,48.7,M,,*4C

$GPGLL,4709.3810,N,00138.2817,W,144509.000,A,A*40

$GPGSA,A,3,26,10,07,18,21,27,08,16,,,,,1.25,0.97,0.80*00

$GPGSV,4,1,13,27,80,071,12,08,57,302,20,10,55,106,24,16,41,177,17*7A

$GPGSV,4,2,13,18,40,064,18,11,19,265,,21,18,064,14,07,15,286,18*79

$GPGSV,4,3,13,26,15,167,16,30,10,319,,01,07,244,,15,05,034,*70

$GPGSV,4,4,13,47,,,*78

$GPRMC,144509.000,A,4709.3810,N,00138.2817,W,0.53,174.75,180717,,,A*79

$GPVTG,174.75,T,,M,0.53,N,0.98,K,A*3A

$GPGGA,144510.000,4709.3809,N,00138.2817,W,1,08,0.97,60.2,M,48.7,M,,*4C

$GPGLL,4709.3809,N,00138.2817,W,144510.000,A,A*40

$GPGSA,A,3,26,10,07,18,21,27,08,16,,,,,1.25,0.97,0.80*00

$GPGSV,4,1,13,27,80,071,12,08,57,302,20,10,55,106,24,16,41,177,17*7A

$GPGSV,4,2,13,18,40,064,18,11,19,265,,21,18,064,13,07,15,286,18*7E

$GPGSV,4,3,13,26,15,167,16,30,10,319,,01,07,244,,15,05,034,*70

$GPGSV,4,4,13,47,,,*78

$GPRMC,144510.000,A,4709.3809,N,00138.2817,W,0.52,165.58,180717,,,A*77

$GPVTG,165.58,T,,M,0.52,N,0.97,K,A*3B

$GPGGA,144511.000,4709.3807,N,00138.2816,W,1,08,0.97,60.2,M,48.7,M,,*42

$GPGLL,4709.3807,N,00138.2816,W,144511.000,A,A*4E

$GPGSA,A,3,26,10,07,18,21,27,08,16,,,,,1.26,0.97,0.80*03

$GPGSV,3,1,12,27,80,071,13,08,57,302,20,10,55,106,25,16,41,177,16*7D

$GPGSV,3,2,12,18,40,064,18,11,19,265,,21,18,064,13,07,15,286,18*78

$GPGSV,3,3,12,26,15,167,16,30,10,319,,01,07,244,,15,05,034,*76

$GPRMC,144511.000,A,4709.3807,N,00138.2816,W,0.45,169.56,180717,,,A*7D

$GPVTG,169.56,T,,M,0.45,N,0.84,K,A*3D

$GPGGA,144512.000,4709.3806,N,00138.2815,W,1,08,0.97,60.2,M,48.7,M,,*43

$GPGLL,4709.3806,N,00138.2815,W,144512.000,A,A*4F

$GPGSA,A,3,26,10,07,18,21,27,08,16,,,,,1.25,0.97,0.80*00

$GPGSV,4,1,13,27,80,071,13,08,57,302,19,10,55,106,25,16,41,177,17*70

$GPGSV,4,2,13,18,40,064,17,11,19,265,,21,18,064,14,07,15,286,17*79

$GPGSV,4,3,13,26,15,167,16,30,10,319,,01,07,244,,15,05,034,*70

$GPGSV,4,4,13,49,,,*76

$GPRMC,144512.000,A,4709.3806,N,00138.2815,W,0.43,169.61,180717,,,A*7E

$GPVTG,169.61,T,,M,0.43,N,0.81,K,A*3A

$GPGGA,144513.000,4709.3805,N,00138.2815,W,1,08,0.97,60.2,M,48.7,M,,*41

$GPGLL,4709.3805,N,00138.2815,W,144513.000,A,A*4D

$GPGSA,A,3,26,10,07,18,21,27,08,16,,,,,1.25,0.97,0.80*00

$GPGSV,4,1,13,27,80,071,13,08,57,302,19,10,55,106,25,16,41,177,17*70

$GPGSV,4,2,13,18,40,064,17,11,19,265,,21,18,064,13,07,15,286,17*7E

$GPGSV,4,3,13,26,15,167,16,30,10,319,,01,07,244,,15,05,034,*70

$GPGSV,4,4,13,49,,,*76

$GPRMC,144513.000,A,4709.3805,N,00138.2815,W,0.44,164.50,180717,,,A*74

$GPVTG,164.50,T,,M,0.44,N,0.82,K,A*31

$GPGGA,144514.000,4709.3804,N,00138.2815,W,1,08,0.97,60.2,M,48.7,M,,*47

$GPGLL,4709.3804,N,00138.2815,W,144514.000,A,A*4B

$GPGSA,A,3,26,10,07,18,21,27,08,16,,,,,1.26,0.97,0.80*03

$GPGSV,4,1,13,27,80,071,13,08,57,302,19,10,55,106,25,16,41,177,17*70

$GPGSV,4,2,13,18,40,064,17,11,19,265,,21,18,064,11,07,15,286,17*7C

$GPGSV,4,3,13,26,15,167,16,30,10,319,,01,07,244,,15,05,034,*70

$GPGSV,4,4,13,49,,,*76

$GPRMC,144514.000,A,4709.3804,N,00138.2815,W,0.40,166.73,180717,,,A*75

$GPVTG,166.73,T,,M,0.40,N,0.74,K,A*3F

$GPGGA,144515.000,4709.3803,N,00138.2814,W,1,08,0.97,60.2,M,48.7,M,,*40

$GPGLL,4709.3803,N,00138.2814,W,144515.000,A,A*4C

$GPGSA,A,3,26,10,07,18,21,27,08,16,,,,,1.25,0.97,0.80*00

$GPGSV,4,1,13,27,80,071,13,08,57,302,19,10,55,106,25,16,41,177,16*71

$GPGSV,4,2,13,18,40,064,17,11,19,265,,21,18,064,15,07,15,286,17*78

$GPGSV,4,3,13,26,15,167,16,30,10,319,,01,07,244,,15,05,034,*70

$GPGSV,4,4,13,49,,,*76

$GPRMC,144515.000,A,4709.3803,N,00138.2814,W,0.35,164.90,180717,,,A*7F

$GPVTG,164.90,T,,M,0.35,N,0.64,K,A*33

$GPGGA,144516.000,4709.3802,N,00138.2814,W,1,08,0.97,60.2,M,48.7,M,,*42

$GPGLL,4709.3802,N,00138.2814,W,144516.000,A,A*4E

$GPGSA,A,3,26,10,07,18,21,27,08,16,,,,,1.25,0.97,0.80*00

$GPGSV,4,1,13,27,80,071,13,08,57,302,19,10,55,106,25,16,41,177,16*71

$GPGSV,4,2,13,18,40,064,16,11,19,265,,21,18,064,10,07,15,286,17*7C

$GPGSV,4,3,13,26,15,167,16,30,10,319,,01,07,244,,15,05,034,*70

$GPGSV,4,4,13,49,,,*76

$GPRMC,144516.000,A,4709.3802,N,00138.2814,W,0.31,158.85,180717,,,A*72

$GPVTG,158.85,T,,M,0.31,N,0.58,K,A*33

$GPGGA,144517.000,4709.3801,N,00138.2813,W,1,08,0.97,60.2,M,48.7,M,,*47

$GPGLL,4709.3801,N,00138.2813,W,144517.000,A,A*4B

$GPGSA,A,3,26,10,07,18,21,27,08,16,,,,,1.25,0.97,0.80*00

$GPGSV,4,1,13,27,80,071,13,08,57,302,19,10,55,106,25,16,41,177,16*71

$GPGSV,4,2,13,18,40,064,16,11,19,265,,21,18,064,12,07,15,286,17*7E

$GPGSV,4,3,13,26,15,167,16,30,10,319,,01,07,244,,15,05,034,*70

$GPGSV,4,4,13,49,,,*76

$GPRMC,144517.000,A,4709.3801,N,00138.2813,W,0.29,159.32,180717,,,A*73

$GPVTG,159.32,T,,M,0.29,N,0.53,K,A*3C

$GPGGA,144518.000,4709.3800,N,00138.2813,W,1,08,0.97,60.2,M,48.7,M,,*49

$GPGLL,4709.3800,N,00138.2813,W,144518.000,A,A*45

$GPGSA,A,3,26,10,07,18,21,27,08,16,,,,,1.26,0.97,0.80*03

$GPGSV,3,1,12,27,80,071,13,08,58,303,18,10,55,106,25,16,41,177,16*78

$GPGSV,3,2,12,18,40,064,16,11,19,265,,21,18,064,14,07,15,286,17*7E

$GPGSV,3,3,12,26,15,167,16,30,10,319,,01,07,244,,15,05,034,*76

$GPRMC,144518.000,A,4709.3800,N,00138.2813,W,0.28,156.80,180717,,,A*7A

$GPVTG,156.80,T,,M,0.28,N,0.52,K,A*3A

$GPGGA,144519.000,4709.3799,N,00138.2812,W,1,07,1.14,60.2,M,48.7,M,,*43

$GPGLL,4709.3799,N,00138.2812,W,144519.000,A,A*4A

$GPGSA,A,3,26,10,07,18,27,08,16,,,,,,1.43,1.14,0.86*0F

$GPGSV,4,1,13,27,80,071,13,08,58,303,18,10,55,106,25,16,41,177,16*7E

$GPGSV,4,2,13,18,40,064,16,11,19,265,,21,18,064,,07,15,286,17*7D

$GPGSV,4,3,13,26,15,167,16,30,10,319,,01,07,244,,15,05,034,*70

$GPGSV,4,4,13,51,,,*7F

$GPRMC,144519.000,A,4709.3799,N,00138.2812,W,0.27,157.44,180717,,,A*73

$GPVTG,157.44,T,,M,0.27,N,0.49,K,A*36

$GPGGA,144520.000,4709.3799,N,00138.2812,W,1,07,1.14,60.2,M,48.7,M,,*49

$GPGLL,4709.3799,N,00138.2812,W,144520.000,A,A*40

$GPGSA,A,3,26,10,07,18,27,08,16,,,,,,1.43,1.14,0.86*0F

$GPGSV,4,1,13,27,80,071,14,08,58,303,18,10,55,106,25,16,41,177,17*78

$GPGSV,4,2,13,18,40,064,16,11,19,265,,21,18,064,,07,15,286,17*7D

$GPGSV,4,3,13,26,15,167,16,30,10,319,,01,07,244,,15,05,034,*70

$GPGSV,4,4,13,51,,,*7F

$GPRMC,144520.000,A,4709.3799,N,00138.2812,W,0.30,168.20,180717,,,A*71

$GPVTG,168.20,T,,M,0.30,N,0.55,K,A*33

$GPGGA,144521.000,4709.3798,N,00138.2811,W,1,07,1.14,60.2,M,48.7,M,,*4A

$GPGLL,4709.3798,N,00138.2811,W,144521.000,A,A*43

$GPGSA,A,3,26,10,07,18,27,08,16,,,,,,1.43,1.14,0.86*0F

$GPGSV,4,1,13,27,80,071,15,08,58,303,18,10,55,106,25,16,41,177,17*79

$GPGSV,4,2,13,18,40,064,16,11,19,265,,21,18,064,,07,15,286,17*7D

$GPGSV,4,3,13,26,15,167,16,30,10,319,,01,07,244,,15,05,034,*70

$GPGSV,4,4,13,51,,,*7F

$GPRMC,144521.000,A,4709.3798,N,00138.2811,W,0.36,174.78,180717,,,A*74

$GPVTG,174.78,T,,M,0.36,N,0.67,K,A*34

$GPGGA,144522.000,4709.3797,N,00138.2811,W,1,08,0.97,60.2,M,48.7,M,,*43

$GPGLL,4709.3797,N,00138.2811,W,144522.000,A,A*4F

$GPGSA,A,3,26,10,07,18,21,27,08,16,,,,,1.25,0.97,0.80*00

$GPGSV,4,1,13,27,80,071,15,08,58,303,18,10,55,106,26,16,41,177,17*7A

$GPGSV,4,2,13,18,40,064,16,11,19,265,,21,18,064,13,07,15,286,17*7F

$GPGSV,4,3,13,26,15,167,16,30,10,319,,01,07,244,,15,05,034,*70

$GPGSV,4,4,13,51,,,*7F

$GPRMC,144522.000,A,4709.3797,N,00138.2811,W,0.43,162.88,180717,,,A*72

$GPVTG,162.88,T,,M,0.43,N,0.79,K,A*31

$GPGGA,144523.000,4709.3796,N,00138.2810,W,1,08,0.97,60.3,M,48.7,M,,*43

$GPGLL,4709.3796,N,00138.2810,W,144523.000,A,A*4E

$GPGSA,A,3,26,10,07,18,21,27,08,16,,,,,1.25,0.97,0.80*00

$GPGSV,4,1,13,27,80,071,15,08,58,303,18,10,55,106,26,16,41,177,17*7A

$GPGSV,4,2,13,18,40,064,16,11,19,265,,21,18,064,14,07,15,286,17*78

$GPGSV,4,3,13,26,15,167,16,30,10,319,,01,07,244,,15,05,034,*70

$GPGSV,4,4,13,51,,,*7F

$GPRMC,144523.000,A,4709.3796,N,00138.2810,W,0.50,155.22,180717,,,A*75

$GPVTG,1