GPGSV,4,4,14,15,03,027,15,22,01,203,*7A

$GPRMC,150340.000,A,4709.3541,N,00138.2611,W,0.69,11.86,180717,,,A*41

$GPVTG,11.86,T,,M,0.69,N,1.28,K,A*07

$GPGGA,150341.000,4709.3544,N,00138.2614,W,1,06,2.00,7.9,M,48.7,M,,*7A

$GPGLL,4709.3544,N,00138.2614,W,150341.000,A,A*4E

$GPGSA,A,3,26,21,18,27,08,16,,,,,,,2.90,2.00,2.10*0C

$GPGSV,4,1,14,27,73,098,13,08,66,306,17,10,56,090,,18,35,057,16*71

$GPGSV,4,2,14,16,32,177,19,11,26,269,16,01,14,249,,21,12,067,15*75

$GPGSV,4,3,14,07,11,279,,30,10,312,,26,07,167,15,32,04,125,*76

$GPGSV,4,4,14,15,03,027,15,22,01,203,*7A

$GPRMC,150341.000,A,4709.3544,N,00138.2614,W,0.70,8.01,180717,,,A*7F

$GPVTG,8.01,T,,M,0.70,N,1.30,K,A*31

$GPGGA,150342.000,4709.3549,N,00138.2619,W,1,06,2.00,8.0,M,48.7,M,,*7F

$GPGLL,4709.3549,N,00138.2619,W,150342.000,A,A*4D

$GPGSA,A,3,26,21,18,27,08,16,,,,,,,2.90,2.00,2.11*0D

$GPGSV,4,1,14,27,73,099,12,08,66,306,17,10,56,090,,18,35,057,16*71

$GPGSV,4,2,14,16,32,177,19,11,26,269,16,01,14,249,,21,12,067,15*75

$GPGSV,4,3,14,07,11,279,,30,10,312,,26,07,167,15,32,04,125,*76

$GPGSV,4,4,14,15,03,027,15,22,01,203,*7A

$GPRMC,150342.000,A,4709.3549,N,00138.2619,W,0.73,4.04,180717,,,A*76

$GPVTG,4.04,T,,M,0.73,N,1.35,K,A*3E

$GPGGA,150343.000,4709.3552,N,00138.2625,W,1,06,2.00,8.2,M,48.7,M,,*79

$GPGLL,4709.3552,N,00138.2625,W,150343.000,A,A*49

$GPGSA,A,3,26,21,18,27,08,16,,,,,,,2.91,2.00,2.11*0C

$GPGSV,4,1,15,27,73,099,12,08,66,306,17,10,56,090,,18,35,057,16*70

$GPGSV,4,2,15,16,32,177,19,11,26,269,16,01,14,249,,21,12,067,14*75

$GPGSV,4,3,15,07,11,279,,30,10,312,,26,07,167,15,32,04,125,*77

$GPGSV,4,4,15,15,03,027,15,28,01,328,,22,01,203,*49

$GPRMC,150343.000,A,4709.3552,N,00138.2625,W,0.68,357.83,180717,,,A*72

$GPVTG,357.83,T,,M,0.68,N,1.26,K,A*3C

$GPGGA,150344.000,4709.3555,N,00138.2630,W,1,06,2.00,8.4,M,48.7,M,,*7B

$GPGLL,4709.3555,N,00138.2630,W,150344.000,A,A*4D

$GPGSA,A,3,26,21,18,27,08,16,,,,,,,2.90,2.00,2.11*0D

$GPGSV,4,1,15,27,73,099,12,08,66,306,17,10,56,090,,18,35,057,16*70

$GPGSV,4,2,15,16,32,177,19,11,26,269,16,01,14,249,,21,12,067,15*74

$GPGSV,4,3,15,07,11,279,,30,10,312,,26,07,167,14,32,04,125,*76

$GPGSV,4,4,15,15,03,027,15,28,01,328,,22,01,203,*49

$GPRMC,150344.000,A,4709.3555,N,00138.2630,W,0.63,351.08,180717,,,A*78

$GPVTG,351.08,T,,M,0.63,N,1.16,K,A*31

$GPGGA,150345.000,4709.3558,N,00138.2648,W,1,06,2.00,8.6,M,48.7,M,,*7A

$GPGLL,4709.3558,N,00138.2648,W,150345.000,A,A*4E

$GPGSA,A,3,26,21,18,27,08,16,,,,,,,2.90,2.00,2.10*0C

$GPGSV,4,1,15,27,73,099,12,08,66,306,17,10,56,090,,18,35,057,16*70

$GPGSV,4,2,15,16,32,177,19,11,26,269,16,01,14,249,,21,12,067,13*72

$GPGSV,4,3,15,07,11,279,,30,10,312,,26,07,167,14,32,04,125,*76

$GPGSV,4,4,15,15,03,027,16,28,01,328,,22,01,203,*4A

$GPRMC,150345.000,A,4709.3558,N,00138.2648,W,0.62,332.96,180717,,,A*78

$GPVTG,332.96,T,,M,0.62,N,1.15,K,A*31

$GPGGA,150346.000,4709.3559,N,00138.2664,W,1,06,1.49,8.8,M,48.7,M,,*76

$GPGLL,4709.3559,N,00138.2664,W,150346.000,A,A*42

$GPGSA,A,3,26,21,18,27,08,16,,,,,,,1.74,1.49,0.90*01

$GPGSV,4,1,15,27,73,099,13,08,66,306,17,10,56,090,,18,35,057,16*71

$GPGSV,4,2,15,16,32,177,19,11,26,269,16,01,14,249,,21,12,067,14*75

$GPGSV,4,3,15,07,11,279,,30,10,312,,26,07,167,14,32,04,125,*76

$GPGSV,4,4,15,15,03,027,16,28,01,328,,22,01,203,*4A

$GPRMC,150346.000,A,4709.3559,N,00138.2664,W,0.65,317.68,180717,,,A*75

$GPVTG,317.68,T,,M,0.65,N,1.20,K,A*36

$GPGGA,150347.000,4709.3561,N,00138.2678,W,1,06,1.49,9.0,M,48.7,M,,*78

$GPGLL,4709.3561,N,00138.2678,W,150347.000,A,A*45

$GPGSA,A,3,26,21,18,27,08,16,,,,,,,1.74,1.49,0.90*01

$GPGSV,4,1,15,27,73,099,13,08,66,306,17,10,56,090,,18,35,057,16*71

$GPGSV,4,2,15,16,32,177,19,11,26,269,16,01,14,249,,21,12,067,16*77

$GPGSV,4,3,15,07,11,279,,30,10,312,,26,07,167,17,32,04,125,*75

$GPGSV,4,4,15,15,03,027,16,28,01,328,,22,01,203,*4A

$GPRMC,150347.000,A,4709.3561,N,00138.2678,W,0.72,310.05,180717,,,A*78

$GPVTG,310.05,T,,M,0.72,N,1.33,K,A*3E

$GPGGA,150348.000,4709.3566,N,00138.2684,W,1,06,1.49,9.2,M,48.7,M,,*71

$GPGLL,4709.3566,N,00138.2684,W,150348.000,A,A*4E

$GPGSA,A,3,26,21,18,27,08,16,,,,,,,1.74,1.49,0.90*01

$GPGSV,4,1,15,27,73,099,13,08,66,306,17,10,56,090,,18,35,057,16*71

$GPGSV,4,2,15,16,32,177,19,11,26,269,16,01,14,249,,21,12,067,15*74

$GPGSV,4,3,15,07,11,279,,30,10,312,,26,07,167,15,32,04,125,*77

$GPGSV,4,4,15,15,03,027,16,28,01,328,,22,01,203,*4A

$GPRMC,150348.000,A,4709.3566,N,00138.2684,W,0.78,313.82,180717,,,A*75

$GPVTG,313.82,T,,M,0.78,N,1.45,K,A*39

$GPGGA,150349.000,4709.3575,N,00138.2690,W,1,06,1.49,9.4,M,48.7,M,,*71

$GPGLL,4709.3575,N,00138.2690,W,150349.000,A,A*48

$GPGSA,A,3,26,21,18,27,08,16,,,,,,,1.74,1.49,0.90*01

$GPGSV,4,1,15,27,73,099,13,08,66,306,17,10,56,090,,18,35,057,16*71

$GPGSV,4,2,15,16,32,177,19,11,26,269,16,01,14,249,,21,12,067,13*72

$GPGSV,4,3,15,07,11,279,,30,10,312,,26,07,167,14,32,04,125,*76

$GPGSV,4,4,15,15,03,027,16,28,01,328,,22,01,203,*4A

$GPRMC,150349.000,A,4709.3575,N,00138.2690,W,0.92,320.41,180717,,,A*78

$GPVTG,320.41,T,,M,0.92,N,1.70,K,A*34

$GPGGA,150350.000,4709.3583,N,00138.2695,W,1,06,1.49,9.6,M,48.7,M,,*77

$GPGLL,4709.3583,N,00138.2695,W,150350.000,A,A*4C

$GPGSA,A,3,26,21,18,27,08,16,,,,,,,1.74,1.49,0.90*01

$GPGSV,4,1,15,27,73,099,13,08,66,306,17,10,56,090,,18,35,057,16*71

$GPGSV,4,2,15,16,32,177,18,11,26,269,16,01,14,249,,21,12,067,15*75

$GPGSV,4,3,15,07,11,279,,30,10,312,,26,07,167,14,32,04,125,*76

$GPGSV,4,4,15,15,03,027,16,28,01,328,,22,01,203,*4A

$GPRMC,150350.000,A,4709.3583,N,00138.2695,W,1.02,323.95,180717,,,A*7E

$GPVTG,323.95,T,,M,1.02,N,1.89,K,A*30

$GPGGA,150351.000,4709.3587,N,00138.2705,W,1,06,1.49,9.8,M,48.7,M,,*74

$GPGLL,4709.3587,N,00138.2705,W,150351.000,A,A*41

$GPGSA,A,3,26,21,18,27,08,16,,,,,,,1.74,1.49,0.90*01

$GPGSV,4,1,15,27,73,099,13,08,66,306,17,10,56,090,,18,35,057,16*71

$GPGSV,4,2,15,16,32,177,18,11,26,269,16,01,14,249,,21,12,067,15*75

$GPGSV,4,3,15,07,11,279,,30,10,312,,26,07,167,16,32,04,125,*74

$GPGSV,4,4,15,15,03,027,16,28,01,328,,22,01,203,*4A

$GPRMC,150351.000,A,4709.3587,N,00138.2705,W,1.09,322.61,180717,,,A*72

$GPVTG,322.61,T,,M,1.09,N,2.02,K,A*31

$GPGGA,150352.000,4709.3589,N,00138.2708,W,1,06,1.49,10.1,M,48.7,M,,*45

$GPGLL,4709.3589,N,00138.2708,W,150352.000,A,A*41

$GPGSA,A,3,26,21,18,27,08,16,,,,,,,1.74,1.49,0.90*01

$GPGSV,4,1,15,27,73,099,14,08,66,306,17,10,56,090,,18,35,057,16*76

$GPGSV,4,2,15,16,32,177,18,11,26,269,16,01,14,249,,21,12,067,17*77

$GPGSV,4,3,15,07,11,279,,30,10,312,,26,07,167,16,32,04,125,*74

$GPGSV,4,4,15,15,03,027,16,28,01,328,,22,01,203,*4A

$GPRMC,150352.000,A,4709.3589,N,00138.2708,W,1.08,322.52,180717,,,A*73

$GPVTG,322.52,T,,M,1.08,N,2.00,K,A*32

$GPGGA,150353.000,4709.3589,N,00138.2715,W,1,06,1.49,10.4,M,48.7,M,,*4D

$GPGLL,4709.3589,N,00138.2715,W,150353.000,A,A*4C

$GPGSA,A,3,26,21,18,27,08,16,,,,,,,1.74,1.49,0.90*01

$GPGSV,4,1,15,27,73,099,14,08,66,306,17,10,56,090,,18,35,057,16*76

$GPGSV,4,2,15,16,32,177,18,11,26,269,16,01,14,249,,21,12,067,15*75

$GPGSV,4,3,15,07,11,279,,30,10,312,,26,07,167,16,32,04,125,*74

$GPGSV,4,4,15,15,03,027,16,28,01,328,,22,01,203,*4A

$GPRMC,150353.000,A,4709.3589,N,00138.2715,W,1.09,319.70,180717,,,A*77

$GPVTG,319.70,T,,M,1.09,N,2.01,K,A*3A

$GPGGA,150354.000,4709.3590,N,00138.2722,W,1,06,1.49,10.7,M,48.7,M,,*45

$GPGLL,4709.3590,N,00138.2722,W,150354.000,A,A*47

$GPGSA,A,3,26,21,18,27,08,16,,,,,,,1.74,1.49,0.90*01

$GPGSV,4,1,15,27,73,099,14,08,66,306,17,10,56,090,,18,35,057,16*76

$GPGSV,4,2,15,16,32,177,18,11,26,269,16,01,14,249,,21,12,067,15*75

$GPGSV,4,3,15,07,11,279,,30,10,312,,26,07,167,14,32,04,125,*76

$GPGSV,4,4,15,15,03,027,16,28,01,328,,22,01,203,*4A

$GPRMC,150354.000,A,4709.3590,N,00138.2722,W,1.07,318.35,180717,,,A*72

$GPVTG,318.35,T,,M,1.07,N,1.97,K,A*38

$GPGGA,150355.000,4709.3588,N,00138.2721,W,1,07,0.97,11.1,M,48.7,M,,*4A

$GPGLL,4709.3588,N,00138.2721,W,150355.000,A,A*4C

$GPGSA,A,3,26,21,18,07,27,08,16,,,,,,1.24,0.97,0.77*08

$GPGSV,4,1,15,27,73,099,14,08,66,306,17,10,56,090,,18,35,057,16*76

$GPGSV,4,2,15,16,32,177,18,11,26,269,15,01,14,249,,21,12,067,15*76

$GPGSV,4,3,15,07,11,279,17,30,10,312,,26,07,167,15,32,04,125,*71

$GPGSV,4,4,15,15,03,027,16,28,01,328,,22,01,203,*4A

$GPRMC,150355.000,A,4709.3588,N,00138.2721,W,0.93,320.32,180717,,,A*79

$GPVTG,320.32,T,,M,0.93,N,1.73,K,A*32

$GPGGA,150356.000,4709.3590,N,00138.2720,W,1,07,0.97,11.4,M,48.7,M,,*44

$GPGLL,4709.3590,N,00138.2720,W,150356.000,A,A*47

$GPGSA,A,3,26,21,18,07,27,08,16,,,,,,1.24,0.97,0.77*08

$GPGSV,4,1,15,27,73,099,14,08,66,306,17,10,56,090,,18,35,057,16*76

$GPGSV,4,2,15,16,32,177,18,11,26,269,15,01,14,249,,21,12,067,15*76

$GPGSV,4,3,15,07,11,279,16,30,10,312,,26,07,167,15,32,04,125,*70

$GPGSV,4,4,15,15,03,027,16,28,01,328,,22,01,203,*4A

$GPRMC,150356.000,A,4709.3590,N,00138.2720,W,0.91,321.21,180717,,,A*73

$GPVTG,321.21,T,,M,0.91,N,1.68,K,A*39

$GPGGA,150357.000,4709.3595,N,00138.2721,W,1,07,0.97,11.6,M,48.7,M,,*43

$GPGLL,4709.3595,N,00138.2721,W,150357.000,A,A*42

$GPGSA,A,3,26,21,18,07,27,08,16,,,,,,1.24,0.97,0.77*08

$GPGSV,4,1,15,27,73,099,14,08,66,306,18,10,56,090,,18,35,057,16*79

$GPGSV,4,2,15,16,32,177,18,11,26,269,15,01,14,249,,21,12,067,15*76

$GPGSV,4,3,15,07,11,279,16,30,10,312,,26,07,167,15,32,04,125,*70

$GPGSV,4,4,15,15,03,027,16,28,01,328,,22,01,203,*4A

$GPRMC,150357.000,A,4709.3595,N,00138.2721,W,0.94,321.19,180717,,,A*78

$GPVTG,321.19,T,,M,0.94,N,1.74,K,A*3A

$GPGGA,150358.000,4709.3601,N,00138.2725,W,1,07,0.97,12.0,M,48.7,M,,*43

$GPGLL,4709.3601,N,00138.2725,W,150358.000,A,A*47

$GPGSA,A,3,26,21,18,07,27,08,16,,,,,,1.24,0.97,0.77*08

$GPGSV,4,1,15,27,73,099,14,08,66,306,18,10,56,090,,18,35,057,16*79

$GPGSV,4,2,15,16,32,177,18,11,26,269,15,01,14,249,,21,12,067,13*70

$GPGSV,4,3,15,07,11,279,16,30,10,312,,26,07,167,16,32,04,125,*73

$GPGSV,4,4,15,15,03,027,16,28,01,328,,22,01,203,*4A

$GPRMC,150358.000,A,4709.3601,N,00138.2725,W,1.01,323.59,180717,,,A*76

$GPVTG,323.59,T,,M,1.01,N,1.87,K,A*3D

$GPGGA,150359.000,4709.3607,N,00138.2728,W,1,07,0.97,12.4,M,48.7,M,,*4D

$GPGLL,4709.3607,N,00138.2728,W,150359.000,A,A*4D

$GPGSA,A,3,26,21,18,07,27,08,16,,,,,,1.24,0.97,0.77*08

$GPGSV,4,1,15,27,73,099,15,08,66,306,18,10,56,090,,18,35,057,16*78

$GPGSV,4,2,15,16,32,177,18,11,26,269,14,01,14,249,,21,12,067,14*76

$GPGSV,4,3,15,07,11,279,16,30,10,312,,26,07,167,14,32,04,125,*71

$GPGSV,4,4,15,15,03,027,16,28,01,328,,22,01,203,*4A

$GPRMC,150359.000,A,4709.3607,N,00138.2728,W,1.09,323.85,180717,,,A*75

$GPVTG,323.85,T,,M,1.09,N,2.02,K,A*3A

$GPGGA,150400.000,4709.