,12,27,79,075,19,08,58,303,21,10,56,105,23,16,40,177,23*7B

$GPGSV,3,2,12,18,40,063,17,11,19,265,,21,18,064,17,07,14,285,18*76

$GPGSV,3,3,12,26,14,167,14,30,10,319,,01,08,245,,15,05,033,*7C

$GPRMC,144703.000,A,4709.3677,N,00138.2706,W,0.76,222.25,180717,,,A*73

$GPVTG,222.25,T,,M,0.76,N,1.41,K,A*3D

$GPGGA,144704.000,4709.3671,N,00138.2714,W,1,08,0.97,61.3,M,48.7,M,,*46

$GPGLL,4709.3671,N,00138.2714,W,144704.000,A,A*4A

$GPGSA,A,3,26,10,07,18,21,27,08,16,,,,,1.25,0.97,0.79*06

$GPGSV,3,1,12,27,79,075,19,08,58,303,21,10,56,105,23,16,40,177,23*7B

$GPGSV,3,2,12,18,40,063,17,11,19,265,,21,18,064,17,07,14,285,18*76

$GPGSV,3,3,12,26,14,167,16,30,10,319,,01,08,245,,15,05,033,*7E

$GPRMC,144704.000,A,4709.3671,N,00138.2714,W,0.85,223.95,180717,,,A*77

$GPVTG,223.95,T,,M,0.85,N,1.58,K,A*33

$GPGGA,144705.000,4709.3664,N,00138.2717,W,1,08,0.97,61.3,M,48.7,M,,*40

$GPGLL,4709.3664,N,00138.2717,W,144705.000,A,A*4C

$GPGSA,A,3,26,10,07,18,21,27,08,16,,,,,1.25,0.97,0.79*06

$GPGSV,3,1,12,27,79,075,19,08,58,303,21,10,56,104,24,16,40,177,23*7D

$GPGSV,3,2,12,18,40,063,17,11,19,265,,21,18,064,17,07,14,285,18*76

$GPGSV,3,3,12,26,14,167,14,30,10,319,,01,08,245,,15,05,033,*7C

$GPRMC,144705.000,A,4709.3664,N,00138.2717,W,0.86,221.04,180717,,,A*78

$GPVTG,221.04,T,,M,0.86,N,1.59,K,A*3B

$GPGGA,144706.000,4709.3660,N,00138.2722,W,1,08,0.97,61.2,M,48.7,M,,*40

$GPGLL,4709.3660,N,00138.2722,W,144706.000,A,A*4D

$GPGSA,A,3,26,10,07,18,21,27,08,16,,,,,1.25,0.97,0.79*06

$GPGSV,3,1,12,27,79,075,19,08,58,303,21,10,56,104,22,16,40,177,23*7B

$GPGSV,3,2,12,18,40,063,17,11,20,265,,21,18,064,17,07,14,285,18*7C

$GPGSV,3,3,12,26,14,167,14,30,10,319,,01,08,245,,15,05,033,*7C

$GPRMC,144706.000,A,4709.3660,N,00138.2722,W,0.80,224.08,180717,,,A*76

$GPVTG,224.08,T,,M,0.80,N,1.49,K,A*35

$GPGGA,144707.000,4709.3657,N,00138.2725,W,1,08,0.97,61.2,M,48.7,M,,*42

$GPGLL,4709.3657,N,00138.2725,W,144707.000,A,A*4F

$GPGSA,A,3,26,10,07,18,21,27,08,16,,,,,1.25,0.97,0.79*06

$GPGSV,3,1,12,27,79,075,19,08,58,303,21,10,56,104,22,16,40,177,23*7B

$GPGSV,3,2,12,18,40,063,17,11,20,265,,21,18,064,17,07,14,285,17*73

$GPGSV,3,3,12,26,14,167,15,30,10,319,,01,08,245,,15,05,033,*7D

$GPRMC,144707.000,A,4709.3657,N,00138.2725,W,0.74,228.12,180717,,,A*78

$GPVTG,228.12,T,,M,0.74,N,1.38,K,A*3F

$GPGGA,144708.000,4709.3654,N,00138.2729,W,1,08,0.97,61.3,M,48.7,M,,*43

$GPGLL,4709.3654,N,00138.2729,W,144708.000,A,A*4F

$GPGSA,A,3,26,10,07,18,21,27,08,16,,,,,1.25,0.97,0.79*06

$GPGSV,3,1,12,27,79,075,19,08,58,303,21,10,56,104,23,16,40,177,23*7A

$GPGSV,3,2,12,18,40,063,17,11,20,265,,21,18,064,17,07,14,285,17*73

$GPGSV,3,3,12,26,14,167,15,30,10,319,,01,08,245,,15,05,033,*7D

$GPRMC,144708.000,A,4709.3654,N,00138.2729,W,0.72,234.56,180717,,,A*73

$GPVTG,234.56,T,,M,0.72,N,1.33,K,A*3F

$GPGGA,144709.000,4709.3651,N,00138.2734,W,1,08,0.97,61.3,M,48.7,M,,*4B

$GPGLL,4709.3651,N,00138.2734,W,144709.000,A,A*47

$GPGSA,A,3,26,10,07,18,21,27,08,16,,,,,1.25,0.97,0.79*06

$GPGSV,3,1,12,27,79,075,19,08,58,303,21,10,56,104,23,16,40,177,23*7A

$GPGSV,3,2,12,18,40,063,17,11,20,265,,21,18,064,17,07,14,285,17*73

$GPGSV,3,3,12,26,14,167,14,30,10,319,,01,08,245,,15,05,033,*7C

$GPRMC,144709.000,A,4709.3651,N,00138.2734,W,0.70,237.74,180717,,,A*7A

$GPVTG,237.74,T,,M,0.70,N,1.30,K,A*3D

$GPGGA,144710.000,4709.3649,N,00138.2738,W,1,08,0.97,61.3,M,48.7,M,,*46

$GPGLL,4709.3649,N,00138.2738,W,144710.000,A,A*4A

$GPGSA,A,3,26,10,07,18,21,27,08,16,,,,,1.25,0.97,0.79*06

$GPGSV,3,1,12,27,79,075,20,08,58,303,21,10,56,104,23,16,40,177,23*70

$GPGSV,3,2,12,18,40,063,17,11,20,265,,21,18,064,17,07,14,285,17*73

$GPGSV,3,3,12,26,14,167,15,30,10,319,,01,08,245,,15,05,033,*7D

$GPRMC,144710.000,A,4709.3649,N,00138.2738,W,0.68,242.32,180717,,,A*7E

$GPVTG,242.32,T,,M,0.68,N,1.26,K,A*33

$GPGGA,144711.000,4709.3648,N,00138.2740,W,1,08,0.97,61.2,M,48.7,M,,*48

$GPGLL,4709.3648,N,00138.2740,W,144711.000,A,A*45

$GPGSA,A,3,26,10,07,18,21,27,08,16,,,,,1.25,0.97,0.79*06

$GPGSV,3,1,12,27,79,075,20,08,58,303,21,10,56,104,23,16,40,177,23*70

$GPGSV,3,2,12,18,40,063,17,11,20,265,,21,18,064,17,07,14,285,17*73

$GPGSV,3,3,12,26,14,167,13,30,10,319,,01,08,245,,15,05,033,*7B

$GPRMC,144711.000,A,4709.3648,N,00138.2740,W,0.62,246.29,180717,,,A*75

$GPVTG,246.29,T,,M,0.62,N,1.16,K,A*34

$GPGGA,144712.000,4709.3648,N,00138.2742,W,1,08,0.97,61.2,M,48.7,M,,*49

$GPGLL,4709.3648,N,00138.2742,W,144712.000,A,A*44

$GPGSA,A,3,26,10,07,18,21,27,08,16,,,,,1.25,0.97,0.79*06

$GPGSV,3,1,12,27,79,075,20,08,58,303,21,10,56,104,23,16,40,177,23*70

$GPGSV,3,2,12,18,40,063,17,11,20,265,,21,18,064,17,07,14,285,17*73

$GPGSV,3,3,12,26,14,167,14,30,10,319,,01,08,245,,15,05,033,*7C

$GPRMC,144712.000,A,4709.3648,N,00138.2742,W,0.58,249.57,180717,,,A*7B

$GPVTG,249.57,T,,M,0.58,N,1.08,K,A*34

$GPGGA,144713.000,4709.3645,N,00138.2748,W,1,08,0.97,61.1,M,48.7,M,,*4C

$GPGLL,4709.3645,N,00138.2748,W,144713.000,A,A*42

$GPGSA,A,3,26,10,07,18,21,27,08,16,,,,,1.25,0.97,0.79*06

$GPGSV,3,1,12,27,79,075,20,08,58,303,21,10,56,104,22,16,40,177,22*70

$GPGSV,3,2,12,18,40,063,16,11,20,265,,21,18,064,17,07,14,285,17*72

$GPGSV,3,3,12,26,14,167,15,30,10,319,,01,08,245,,15,05,033,*7D

$GPRMC,144713.000,A,4709.3645,N,00138.2748,W,0.67,248.86,180717,,,A*7C

$GPVTG,248.86,T,,M,0.67,N,1.25,K,A*3A

$GPGGA,144714.000,4709.3644,N,00138.2752,W,1,08,0.97,61.1,M,48.7,M,,*41

$GPGLL,4709.3644,N,00138.2752,W,144714.000,A,A*4F

$GPGSA,A,3,26,10,07,18,21,27,08,16,,,,,1.25,0.97,0.79*06

$GPGSV,3,1,12,27,79,075,19,08,58,303,21,10,56,104,21,16,40,177,22*79

$GPGSV,3,2,12,18,40,063,16,11,20,265,,21,18,064,17,07,14,285,17*72

$GPGSV,3,3,12,26,14,167,13,30,10,319,,01,08,245,,15,05,033,*7B

$GPRMC,144714.000,A,4709.3644,N,00138.2752,W,0.72,249.64,180717,,,A*78

$GPVTG,249.64,T,,M,0.72,N,1.34,K,A*33

$GPGGA,144715.000,4709.3641,N,00138.2755,W,1,08,0.97,61.0,M,48.7,M,,*43

$GPGLL,4709.3641,N,00138.2755,W,144715.000,A,A*4C

$GPGSA,A,3,26,10,07,18,21,27,08,16,,,,,1.25,0.97,0.79*06

$GPGSV,3,1,12,27,79,075,19,08,58,303,21,10,56,104,20,16,40,177,21*7B

$GPGSV,3,2,12,18,40,063,16,11,20,265,,21,18,064,17,07,14,285,17*72

$GPGSV,3,3,12,26,14,167,14,30,10,319,,01,08,245,,15,05,033,*7C

$GPRMC,144715.000,A,4709.3641,N,00138.2755,W,0.74,249.37,180717,,,A*7B

$GPVTG,249.37,T,,M,0.74,N,1.37,K,A*30

$GPGGA,144716.000,4709.3640,N,00138.2757,W,1,08,0.97,60.9,M,48.7,M,,*4B

$GPGLL,4709.3640,N,00138.2757,W,144716.000,A,A*4C

$GPGSA,A,3,26,10,07,18,21,27,08,16,,,,,1.25,0.97,0.79*06

$GPGSV,3,1,12,27,79,075,19,08,58,303,20,10,56,104,20,16,40,177,21*7A

$GPGSV,3,2,12,18,40,063,16,11,20,265,,21,17,065,17,07,14,285,17*7C

$GPGSV,3,3,12,26,14,167,12,30,10,319,,01,08,245,,15,05,033,*7A

$GPRMC,144716.000,A,4709.3640,N,00138.2757,W,0.76,248.76,180717,,,A*7D

$GPVTG,248.76,T,,M,0.76,N,1.41,K,A*37

$GPGGA,144717.000,4709.3640,N,00138.2757,W,1,08,0.97,60.8,M,48.7,M,,*4B

$GPGLL,4709.3640,N,00138.2757,W,144717.000,A,A*4D

$GPGSA,A,3,26,10,07,18,21,27,08,16,,,,,1.25,0.97,0.79*06

$GPGSV,3,1,12,27,79,075,19,08,58,303,20,10,56,104,19,16,40,177,20*71

$GPGSV,3,2,12,18,40,063,16,11,20,265,,21,17,065,17,07,14,285,17*7C

$GPGSV,3,3,12,26,14,167,12,30,10,319,,01,08,245,,15,05,033,*7A

$GPRMC,144717.000,A,4709.3640,N,00138.2757,W,0.69,251.84,180717,,,A*77

$GPVTG,251.84,T,,M,0.69,N,1.28,K,A*33

$GPGGA,144718.000,4709.3641,N,00138.2758,W,1,08,0.97,60.7,M,48.7,M,,*45

$GPGLL,4709.3641,N,00138.2758,W,144718.000,A,A*4C

$GPGSA,A,3,26,10,07,18,21,27,08,16,,,,,1.25,0.97,0.79*06

$GPGSV,3,1,12,27,79,075,18,08,58,303,20,10,56,104,18,16,40,177,20*71

$GPGSV,3,2,12,18,40,063,16,11,20,265,,21,17,065,17,07,14,285,17*7C

$GPGSV,3,3,12,26,14,167,13,30,10,319,,01,08,245,,15,05,033,*7B

$GPRMC,144718.000,A,4709.3641,N,00138.2758,W,0.62,256.13,180717,,,A*74

$GPVTG,256.13,T,,M,0.62,N,1.16,K,A*3C

$GPGGA,144719.000,4709.3641,N,00138.2758,W,1,08,0.97,60.7,M,48.7,M,,*44

$GPGLL,4709.3641,N,00138.2758,W,144719.000,A,A*4D

$GPGSA,A,3,26,10,07,18,21,27,08,16,,,,,1.25,0.97,0.79*06

$GPGSV,3,1,12,27,79,075,18,08,58,303,20,10,56,104,18,16,40,177,20*71

$GPGSV,3,2,12,18,40,063,16,11,20,265,,21,17,065,17,07,14,285,17*7C

$GPGSV,3,3,12,26,14,167,13,30,10,319,,01,08,245,,15,05,033,*7B

$GPRMC,144719.000,A,4709.3641,N,00138.2758,W,0.58,258.32,180717,,,A*71

$GPVTG,258.32,T,,M,0.58,N,1.07,K,A*38

$GPGGA,144720.000,4709.3640,N,00138.2759,W,1,08,0.97,60.6,M,48.7,M,,*4F

$GPGLL,4709.3640,N,00138.2759,W,144720.000,A,A*47

$GPGSA,A,3,26,10,07,18,21,27,08,16,,,,,1.25,0.97,0.79*06

$GPGSV,3,1,12,27,79,075,19,08,58,303,21,10,56,104,18,16,40,177,20*71

$GPGSV,3,2,12,18,40,063,16,11,20,265,,21,17,065,17,07,14,285,17*7C

$GPGSV,3,3,12,26,14,167,12,30,10,319,,01,08,245,,15,05,033,*7A

$GPRMC,144720.000,A,4709.3640,N,00138.2759,W,0.56,258.52,180717,,,A*73

$GPVTG,258.52,T,,M,0.56,N,1.04,K,A*33

$GPGGA,144721.000,4709.3642,N,00138.2758,W,1,08,0.97,60.5,M,48.7,M,,*4E

$GPGLL,4709.3642,N,00138.2758,W,144721.000,A,A*45

$GPGSA,A,3,26,10,07,18,21,27,08,16,,,,,1.25,0.97,0.79*06

$GPGSV,3,1,12,27,79,075,19,08,58,303,21,10,56,104,18,16,40,177,20*71

$GPGSV,3,2,12,18,40,063,16,11,20,265,,21,17,065,17,07,14,285,17*7C

$GPGSV,3,3,12,26,14,167,12,30,10,319,,01,08,245,,15,05,033,*7A

$GPRMC,144721.000,A,4709.3642,N,00138.2758,W,0.49,259.09,180717,,,A*70

$GPVTG,259.09,T,,M,0.49,N,0.91,K,A*3F

$GPGGA,144722.000,4709.3643,N,00138.2759,W,1,08,0.97,60.3,M,48.7,M,,*4B

$GPGLL,4709.3643,N,00138.2759,W,144722.000,A,A*46

$GPGSA,A,3,26,10,07,18,21,27,08,16,,,,,1.25,0.97,0.79*06

$GPGSV,3,1,12,27,79,076,19,08,58,303,21,10,56,104,18,16,40,177,20*72

$GPGSV,3,2,12,18,40,063,16,11,20,265,,21,17,065,17,07,14,285,17*7C

$GPGSV,3,3,12,26,14,167,13,30,10,319,,01,08,245,,15,05,033,*7B

$GPRMC,144722.000,A,4709.3643,N,00138.2759,W,0.47,261.31,180717,,,A*7D

$GPVTG,261.31,T,,M,0.47,N,0.88,K,A*39

$GPGGA,144723.000,4709.3643,N,00138.2760,W,1,08,0.97,60.3,M,48.7,M,,*40

$GPGLL,4709.3643,N,00138.2760,W,144723.000,A,A*4D

$GPGSA,A,3,26,10,07,18,21,27,08,16,,,,,1.25,0.97,0.79*06

$GPGSV,3,1,12,27,79,076,19,08,58,303,21,10,56,104,18,16,40,177,20*72

$GPGSV,3,2,12,18,40,063,16,11,20,265,,21,17,065,17,07,14,285,17*7C

$GPGSV,3,3,12,26,14,167,12,30,10,319,,01,08,245,,15,05,033,*7A

$GPRMC,144723.000,A,4709.3643,N,00138.2760,W,0.47,261.31,180717,,,A*76

$GPVTG,261.31,T,,M,0.47,N,0.87,K,A*36

$GPGGA,144724.000,4709.3642,N,00138.2762,W,1,08,0.97,60.3,M,48.7,M,,*44

$GPGLL,4709.3642,N,00138.2762,W,144724.000,A,A*49

$GPGSA,A,3,26,10,07,18,21,27,08,16,,,,,1.25,0.97,0.79*06

$GPGSV,3,1,12,27,79,076,19,08,58,303,21,10,56,104,18,16,40,177,20*72

$GPGSV,3,2,12,18,40,063,16,11,20,265,,21,17,065,17,07,14,285,17*7C

$GPGSV,3,3,12,26,14,167,12,30,10,319,,01,08,245,,15,05,033,*7A

$GPRMC,144724.000,A,4709.3642,N,00138.2762,W,0.48,258.37,180717,,,A*71

$GPVTG,258.37,T,,M,0.48,N,0.90,K,A*33

$GPGGA,144725.000,4709.3642,N,00138.2764,W,1,08,0.97,60.3,M,48.7,M,,*43

$GPGLL,4709.3642,N,00138.2764,W,144725.000,A,A*4E

$GPGSA,A,3,26,10,07,18,21,27,08,16,,,,,1.25,0.97,0.79*06

$GPGSV,3,1,12,27,79,076,19,08,58,303,20,10,56,104,18,16,40,177,20*73

$GPGSV,3,2,12,18,40,063,16,11,20,265,,21,17,065,17,07,14,285,16*7D

$GPGSV,3,3,12,26,14,167,13,30,10,318,,01,08,245,,15,05,033,*7A

$GPRMC,144725.000,A,4709.3642,N,00138.2764,W,0.57,256.99,180717,,,A*72

$GPVTG,256.99,T,,M,0.57,N,1.05,K,A*3A

$GPGGA,144726.000,4709.3642,N,00138.2767,W,1,08,0.97,60.3,M,48.7,M,,*43

$GPGLL,4709.3642,N,00138.2767,W,144726.000,A,A*4E

$GPGSA,A,3,26,10,07,18,21,27,08,16,,,,,1.25,0.97,0.79*06

$GPGSV,3,1,12,27,79,076,19,08,58,303,20,10,56,104,18,16,40,177,20*73

$GPGSV,3,2,12,18,40,063,16,11,20,265,,21,17,065,17,07,14,285,16*7D

$GPGSV,3,3,12,26,14,167,12,30,10,318,,01,08,245,,15,05,033,*7B

$GPRMC,144726.000,A,4709.3642,N,00138.2767,W,0.57,258.39,180717,,,A*76

$GPVTG,258.39,T,,M,0.57,N,1.05,K,A*3E

$GPGGA,144727.000,4709.3641,N,00138.2769,W,1,08,0.97,60.3,M,48.7,M,,*4F

$GPGLL,4709.3641,N,00138.2769,W,144727.000,A,A*42

$GPGSA,A,3,26,10,07,18,21,27,08,16,,,,,1.25,0.97,0.79*06

$GPGSV,3,1,12,27,79,076,19,08,58,303,20,10,56,104,18,16,40,177,20*73

$GPGSV,3,2,12,18,40,063,16,11,20,265,,21,17,065,17,07,14,285,15*7E

$GPGSV,3,3,12,26,14,167,12,30,10,318,,01,08,245,,15,05,033,*7B

$GPRMC,144727.000,A,4709.3641,N,00138.2769,W,0.56,261.58,180717,,,A*76

$GPVTG,261.58,T,,M,0.56,N,1.03,K,A*34

$GPGGA,144728.000,4709.3641,N,00138.2771,W,1,08,0.97,60.3,M,48.7,M,,*49

$GPGLL,4709.3641,N,00138.2771,W,144728.000,A,A*44

$GPGSA,A,3,26,10,07,18,21,27,08,16,,,,,1.25,0.97,0.79*06

$GPGSV,3,1,12,27,79,076,19,08,58,303,20,10,56,104,18,16,40,177,20*73

$GPGSV,3,2,12,18,40,063,16,11,20,265,,21,17,065,17,07,14,285,14*7F

$GPGSV,3,3,12,26,14,167,12,30,10,318,,01,08,245,,15,05,033,*7B

$GPRMC,144728.000,A,4709.3641,N,00138.2771,W,0.48,264.89,180717,,,A*76

$GPVTG,264.89,T,,M,0.48,N,0.89,K,A*31

$GPGGA,144729.000,4709.3641,N,00138.2773,W,1,07,1.19,60.3,M,48.7,M,,*42

$GPGLL,4709.3641,N,00138.2773,W,144729.000,A,A*47

$GPGSA,A,3,10,07,18,21,27,08,16,,,,,,1.46,1.19,0.84*02

$GPGSV,3,1,12,27,79,076,19,08,58,303,20,10,56,104,18,16,40,177,20*73

$GPGSV,3,2,12,18,40,063,16,11,20,265,,21,17,065,17,07,14,285,15*7E

$GPGSV,3,3,12,26,14,167,,30,10,318,,01,08,245,,15,05,033,*78

$GPRMC,144729.000,A,4709.3641,N,00138.2773,W,0.37,276.63,180717,,,A*7A

$GPVTG,276.63,T,,M,0.37,N,0.68,K,A*31

$GPGGA,144730.000,4709.3641,N,00138.2774,W,1,07,1.19,60.3,M,48.7,M,,*4D

$GPGLL,4709.3641,N,00138.2774,W,144730.000,A,A*48

$GPGSA,A,3,10,07,18,21,27,08,16,,,,,,1.46,1.19,0.84*02

$GPGSV,3,1,12,27,79,076,19,08,58,303,20,10,56,104,18,16,40,177,20*73

$GPGSV,3,2,12,18,40,063,16,11,20,265,,21,17,065,17,07,14,285,15*7E

$GPGSV,3,3,12,26,14,167,,30,10,318,,01,08,245,,15,05,033,*78

$GPRMC,144730.000,A,4709.3641,N,00138.2774,W,0.28,286.21,180717,,,A*72

$GPVTG,286.21,T,,M,0.28,N,0.52,K,A*3F

$GPGGA,144731.000,4709.3642,N,00138.2775,W,1,07,1.19,60.3,M,48.7,M,,*4E

$GPGLL,4709.3642,N,00138.2775,W,144731.000,A,A*4B

$GPGSA,A,3,10,07,18,21,27,08,16,,,,,,1.46,1.19,0.84*02

$GPGSV,3,1,12,27,79,076,19,08,58,303,20,10,56,104,18,16,40,177,20*73

$GPGSV,3,2,12,18,40,063,16,11,20,265,,21,17,065,17,07,14,285,16*7D

$GPGSV,3,3,12,26,14,167,,30,10,318,,01,08,245,,15,05,033,*78

$GPRMC,144731.000,A,4709.3642,N,00138.2775,W,0.22,291.64,180717,,,A*7C

$GPVTG,291.64,T,,M,0.22,N,0.40,K,A*31

$GPGGA,144732.000,4709.3642,N,00138.2776,W,1,07,1.19,60.3,M,48.7,M,,*4E

$GPGLL,4709.3642,N,00138.2776,W,144732.000,A,A*4B

$GPGSA,A,3,10,07,18,21,27,08,16,,,,,,1.46,1.19,0.84*02

$GPGSV,3,1,12,27,79,076,19,08,58,303,20,10,56,104,18,16,40,177,20*73

$GPGSV,3,2,12,18,40,063,16,11,20,265,,21,17,065,17,07,14,285,16*7D

$GPGSV,3,3,12,26,14,167,,30,10,318,,01,08,245,,15,05,033,*78

$GPRMC,144732.000,A,4709.3642,N,00138.2776,W,0.25,305.76,180717,,,A*74

$GPVTG,305.76,T,,M,0.25,N,0.46,K,A*3F

$GPGGA,144733.000,4709.3642,N,00138.2777,W,1,07,1.19,60.3,M,48.7,M,,*4E

$GPGLL,4709.3642,N,00138.2777,W,144733.000,A,A*4B

$GPGSA,A,3,10,07,18,21,27,08,16,,,,,,1.46,1.19,0.84*02

$GPGSV,3,1,12,27,79,076,19,08,58,303,20,10,56,104,18,16,40,177,20*73

$GPGSV,3,2,12,18,40,063,16,11,20,265,,21,17,065,18,07,14,285,16*72

$GPGSV,3,3,12,26,14,167,,30,10,318,,01,08,245,,15,05,033,*78

$GPRMC,144733.000,A,4709.3642,N,00138.2777,W,0.28,340.98,180717,,,A*78

$GPVTG,340.98,T,,M,0.28,N,0.52,K,A*36

$GPGGA,144734.000,4709.3643,N,00138.2777,W,1,07,1.19,60.3,M,48.7,M,,*48

$GPGLL,4709.3643,N,00138.2777,W,144734.000,A,A*4D

$GPGSA,A,3,10,07,18,21,27,08,16,,,,,,1.46,1.19,0.84*02

$GPGSV,3,1,12,27,79,076,19,08,58,303,20,10,56,104,18,16,40,177,20*73

$GPGSV,3,2,12,18,40,063,16,11,20,265,,21,17,065,18,07,14,285,16*72

$GPGSV,3,3,12,26,14,167,,30,10,318,,01,08,245,,15,05,033,*78

$GPRMC,144734.000,A,4709.3643,N,00138.2777,W,0.34,352.53,180717,,,A*77

$GPVTG,352.53,T,,M,0.34,N,0.63,K,A*3D

$GPGGA,144735.000,4709.3644,N,00138.2777,W,1,07,1.22,60.3,M,48.7,M,,*46

$GPGLL,4709.3644,N,00138.2777,W,144735.000,A,A*4B

$GPGSA,A,3,10,07,18,21,27,08,16,,,,,,1.96,1.22,1.54*0B

$GPGSV,3,1,12,27,79,076,19,08,58,303,20,10,56,104,18,16,40,177,20*73

$GPGSV,3,2,12,18,40,063,16,11,20,265,,21,17,065,18,07,14,285,16*72

$GPGSV,3,3,12,26,14,167,,30,10,318,,01,08,245,,15,05,033,*78

$GPRMC,144735.000,A,4709.3644,N,00138.2777,W,0.40,0.27,180717,,,A*75

$GPVTG,0.27,T,,M,0.40,N,0.74,K,A*3F

$GPGGA,144736.000,4709.3645,N,00138.2777,W,1,07,1.22,60.3,M,48.7,M,,*44

$GPGLL,4709.3645,N,00138.2777,W,144736.000,A,A*49

$GPGSA,A,3,10,07,18,21,27,08,16,,,,,,1.96,1.22,1.54*0B

$GPGSV,3,1,12,27,79,076,19,08,58,303,20,10,56,104,18,16,40,177,20*73

$GPGSV,3,2,12,18,40,063,17,11,20,265,,21,17,065,18,07,14,285,16*73

$GPGSV,3,3,12,26,14,167,,30,10,318,,01,08,245,,15,05,033,*78

$GPRMC,144736.000,A,4709.3645,N,00138.2777,W,0.45,9.74,180717,,,A*7D

$GPVTG,9.74,T,,M,0.45,N,0.84,K,A*3A

$GPGGA,144737.000,4709.3647,N,00138.2777,W,1,07,1.22,60.3,M,48.7,M,,*47

$GPGLL,4709.3647,N,00138.2777,W,144737.000,A,A*4A

$GPGSA,A,3,10,07,18,21,27,08,16,,,,,,1.96,1.22,1.54*0B

$GPGSV,3,1,12,27,79,076,19,08,58,303,20,10,56,104,18,16,40,177,19*79

$GPGSV,3,2,12,18,40,063,18,11,20,265,,21,17,065,18,07,14,285,16*7C

$GPGSV,3,3,12,26,14,167,,30,10,318,,01,08,245,,15,05,033,*78

$GPRMC,144737.000,A,4709.3647,N,00138.2777,W,0.49,6.35,180717,,,A*78

$GPVTG,6.35,T,,M,0.49,N,0.91,K,A*38

$GPGGA,144738.000,4709.3648,N,00138.2776,W,1,07,1.22,60.3,M,48.7,M,,*46

$GPGLL,4709.3648,N,00138.2776,W,144738.000,A,A*4B

$GPGSA,A,3,10,07,18,21,27,08,16,,,,,,1.96,1.22,1.54*0B

$GPGSV,3,1,12,27,79,076,19,08,59,303,20,10,56,104,18,16,40,177,19*78

$GPGSV,3,2,12,18,40,063,18,11,20,265,,21,17,065,18,07,14,285,16*7C

$GPGSV,3,3,12,26,14,167,,30,10,318,,01,08,245,,15,05,033,*78

$GPRMC,144738.000,A,4709.3648,N,00138.2776,W,0.50,7.99,180717,,,A*76

$GPVTG,7.99,T,,M,0.50,N,0.93,K,A*35

$GPGGA,144739.000,4709.3649,N,00138.2776,W,1,07,1.22,60.3,M,48.7,M,,*46

$GPGLL,4709.3649,N,00138.2776,W,144739.000,A,A*4B

$GPGSA,A,3,10,07,18,21,27,08,16,,,,,,1.96,1.22,1.54*0B

$GPGSV,3,1,12,27,79,076,19,08,59,303,20,10,56,104,18,16,40,177,19*78

$GPGSV,3,2,12,18,40,063,18,11,20,265,,21,17,065,18,07,14,285,15*7F

$GPGSV,3,3,12,26,14,167,,30,10,318,,01,08,245,,15,05,033,*78

$GPRMC,144739.000,A,4709.3649,N,00138.2776,W,0.50,6.66,180717,,,A*77

$GPVTG,6.66,T,,M,0.50,N,0.93,K,A*34

$GPGGA,144740.000,4709.3651,N,00138.2776,W,1,07,1.22,60.3,M,48.7,M,,*41

$GPGLL,4709.3651,N,00138.2776,W,144740.000,A,A*4C

$GPGSA,A,3,10,07,18,21,27,08,16,,,,,,1.96,1.22,1.54*0B

$GPGSV,3,1,12,27,79,076,19,08,59,303,20,10,56,104,18,16,40,177,19*78

$GPGSV,3,2,12,18,40,063,18,11,20,265,,21,17,065,18,07,14,285,15*7F

$GPGSV,3,3,12,26,14,167,,30,10,318,,01,08,245,,15,05,033,*78

$GPRMC,144740.000,A,4709.3651,N,00138.2776,W,0.54,4.10,180717,,,A*77

$GPVTG,4.10,T,,M,0.54,N,1.01,K,A*39

$GPGGA,144741.000,4709.3652,N,00138.2776,W,1,07,1.22,60.3,M,48.7,M,,*43

$GPGLL,4709.3652,N,00138.2776,W,144741.000,A,A*4E

$GPGSA,A,3,10,07,18,21,27,08,16,,,,,,1.96,1.22,1.54*0B

$GPGSV,3,1,12,27,79,076,19,08,59,303,20,10,56,104,18,16,40,177,19*78

$GPGSV,3,2,12,18,40,063,18,11,20,265,,21,17,065,18,07,14,285,15*7F

$GPGSV,3,3,12,26,14,167,,30,10,318,,01,08,245,,15,05,033,*78

$GPRMC,144741.000,A,4709.3652,N,00138.2776,W,0.57,6.58,180717,,,A*78

$GPVTG,6.58,T,,M,0.57,N,1.06,K,A*33

$GPGGA,144742.000,4709.3654,N,00138.2775,W,1,07,1.22,60.3,M,48.7,M,,*45

$GPGLL,4709.3654,N,00138.2775,W,144742.000,A,A*48

$GPGSA,A,3,10,07,18,21,27,08,16,,,,,,1.96,1.22,1.54*0B

$GPGSV,3,1,12,27,79,076,19,08,59,303,20,10,56,104,18,16,40,177,18*79

$GPGSV,3,2,12,18,40,063,18,11,20,265,,21,17,065,18,07,14,285,15*7F

$GPGSV,3,3,12,26,14,167,,30,10,318,,01,08,245,,15,05,033,*78

$GPRMC,144742.000,A,4709.3654,N,00138.2775,W,0.61,7.12,180717,,,A*74

$GPVTG,7.12,T,,M,0.61,N,1.13,K,A*3D

$GPGGA,144743.000,4709.3658,N,00138.2774,W,1,07,1.22,60.1,M,48.7,M,,*4B

$GPGLL,4709.3658,N,00138.2774,W,144743.000,A,A*44

$GPGSA,A,3,10,07,18,21,27,08,16,,,,,,1.96,1.22,1.54*0B

$GPGSV,3,1,12,27,79,076,19,08,59,303,20,10,56,104,18,16,40,177,18*79

$GPGSV,3,2,12,18,40,063,18,11,20,265,,21,17,065,18,07,14,285,15*7F

$GPGSV,3,3,12,26,14,167,,30,10,318,,01,08,245,,15,05,033,*78

$GPRMC,144743.000,A,4709.3658,N,00138.2774,W,0.65,10.94,180717,,,A*44

$GPVTG,10.94,T,,M,0.65,N,1.20,K,A*01

$GPGGA,144744.000,4709.3664,N,00138.2773,W,1,07,1.22,60.0,M,48.7,M,,*45

$GPGLL,4709.3664,N,00138.2773,W,144744.000,A,A*4B

$GPGSA,A,3,10,07,18,21,27,08,16,,,,,,1.96,1.22,1.54*0B

$GPGSV,3,1,12,27,79,076,19,08,59,303,20,10,56,104,18,16,40,177,18*79

$GPGSV,3,2,12,18,40,063,18,11,20,265,,21,17,065,18,07,14,285,16*7C

$GPGSV,3,3,12,26,14,167,,30,10,318,,01,08,245,,15,05,033,*78

$GPRMC,144744.000,A,4709.3664,N,00138.2773,W,0.69,10.28,180717,,,A*40

$GPVTG,10.28,T,,M,0.69,N,1.28,K,A*02

$GPGGA,144745.000,4709.3668,N,00138.2772,W,1,07,1.22,59.8,M,48.7,M,,*4B

$GPGLL,4709.3668,N,00138.2772,W,144745.000,A,A*47

$GPGSA,A,3,10,07,18,21,27,08,16,,,,,,1.96,1.22,1.53*0C

$GPGSV,3,1,12,27,79,076,19,08,59,303,20,10,56,104,17,16,40,177,18*76

$GPGSV,3,2,12,18,40,063,18,11,20,265,,21,17,065,18,07,14,285,16*7C

$GPGSV,3,3,12,26,14,167,,30,10,318,,01,08,245,,15,05,033,*78

$GPRMC,144745.000,A,4709.3668,N,00138.2772,W,0.74,9.75,180717,,,A*70

$GPVTG,9.75,T,,M,0.74,N,1.37,K,A*30

$GPGGA,144746.000,4709.3673,N,00138.2769,W,1,07,1.22,59.7,M,48.7,M,,*47

$GPGLL,4709.3673,N,00138.2769,W,144746.000,A,A*44

$GPGSA,A,3,10,07,18,21,27,08,16,,,,,,1.96,1.22,1.53*0C

$GPGSV,3,1,12,27,79,076,19,08,59,303,20,10,56,104,17,16,40,177,18*76

$GPGSV,3,2,12,18,40,063,18,11,20,265,,21,17,065,18,07,14,285,16*7C

$GPGSV,3,3,12,26,14,167,,30,10,318,,01,08,245,,15,05,033,*78

$GPRMC,144746.000,A,4709.3673,N,00138.2769,W,0.81,14.01,180717,,,A*46

$GPVTG,14.01,T,,M,0.81,N,1.50,K,A*04

$GPGGA,144747.000,4709.3679,N,00138.2770,W,1,07,1.22,59.6,M,48.7,M,,*45

$GPGLL,4709.3679,N,00138.2770,W,144747.000,A,A*47

$GPGSA,A,3,10,07,18,21,27,08,16,,,,,,1.96,1.22,1.53*0C

$GPGSV,3,1,12,27,79,076,19,08,59,303,20,10,56,104,16,16,40,177,18*77

$GPGSV,3,2,12,18,40,063,18,11,20,265,,21,17,065,18,07,14,285,16*7C

$GPGSV,3,3,12,26,14,167,,30,10,318,,01,08,245,,15,05,033,*78

$GPRMC,144747.000,A,4709.3679,N,00138.2770,W,0.89,12.45,180717,,,A*4B

$GPVTG,12.45,T,,M,0.89,N,1.65,K,A*0C

$GPGGA,144748.000,4709.3682,N,00138.2771,W,1,07,1.19,59.6,M,48.7,M,,*47

$GPGLL,4709.3682,N,00138.2771,W,144748.000,A,A*4D

$GPGSA,A,3,10,07,18,21,27,08,16,,,,,,1.46,1.19,0.84*02

$GPGSV,3,1,12,27,79,076,19,08,59,303,20,10,56,104,16,16,40,177,18*77

$GPGSV,3,2,12,18,40,063,18,11,20,265,,21,17,065,18,07,14,285,15*7F

$GPGSV,3,3,12,26,14,167,,30,10,318,,01,08,245,,15,05,033,*78

$GPRMC,144748.000,A,4709.3682,N,00138.2771,W,0.90,11.40,180717,,,A*4F

$GPVTG,11.40,T,,M,0.90,N,1.67,K,A*00

$GPGGA,144749.000,4709.3685,N,00138.2773,W,1,07,1.19,59.6,M,48.7,M,,*43

$GPGLL,4709.3685,N,00138.2773,W,144749.000,A,A*49

$GPGSA,A,3,10,07,18,21,27,08,16,,,,,,1.46,1.19,0.84*02

$GPGSV,3,1,12,27,79,076,19,08,59,303,20,10,56,104,15,16,40,177,18*74

$GPGSV,3,2,12,18,40,063,18,11,20,265,,21,17,065,18,07,14,285,15*7F

$GPGSV,3,3,12,26,14,167,,30,10,318,,01,08,245,,15,05,033,*78

$GPRMC,144749.000,A,4709.3685,N,00138.2773,W,0.91,7.92,180717,,,A*72

$GPVTG,7.92,T,,M,0.91,N,1.68,K,A*36

$GPGGA,144750.000,4709.3687,N,00138.2774,W,1,07,1.19,59.6,M,48.7,M,,*4E

$GPGLL,4709.3687,N,00138.2774,W,144750.000,A,A*44

$GPGSA,A,3,10,07,18,21,27,08,16,,,,,,1.46,1.19,0.84*02

$GPGSV,3,1,12,27,79,076,18,08,59,303,20,10,56,104,15,16,40,177,18*75

$GPGSV,3,2,12,18,40,063,18,11,20,265,,21,17,065,18,07,14,285,16*7C

$GPGSV,3,3,12,26,14,167,,30,10,318,,01,08,245,,15,05,033,*78

$GPRMC,144750.000,A,4709.3687,N,00138.2774,W,0.88,6.06,180717,,,A*7B

$GPVTG,6.06,T,,M,0.88,N,1.64,K,A*3E

$GPGGA,144751.000,4709.3690,N,00138.2775,W,1,07,1.19,59.6,M,48.7,M,,*48

$GPGLL,4709.3690,N,00138.2775,W,144751.000,A,A*42

$GPGSA,A,3,10,07,18,21,27,08,16,,,,,,1.46,1.19,0.84*02

$GPGSV,3,1,12,27,79,076,18,08,59,303,20,10,56,104,15,16,40,177,17*7A

$GPGSV,3,2,12,18,40,063,17,11,20,265,,21,17,065,18,07,14,285,16*73

$GPGSV,3,3,12,26,14,167,,30,10,318,,01,08,245,,15,05,033,*78

$GPRMC,144751.000,A,4709.3690,N,00138.2775,W,0.88,5.88,180717,,,A*78

$GPVTG,5.88,T,,M,0.88,N,1.63,K,A*3C

$GPGGA,144752.000,4709.3696,N,00138.2777,W,1,07,1.22,59.5,M,48.7,M,,*44

$GPGLL,4709.3696,N,00138.2777,W,144752.000,A,A*45

$GPGSA,A,3,10,07,18,21,27,08,16,,,,,,1.96,1.22,1.53*0C

$GPGSV,3,1,12,27,79,076,18,08,59,303,20,10,56,104,12,16,40,177,17*7D

$GPGSV,3,2,12,18,40,063,17,11,20,265,,21,17,065,18,07,14,285,16*73

$GPGSV,3,3,12,26,14,167,,30,10,318,,01,08,245,,15,05,033,*78

$GPRMC,144752.000,A,4709.3696,N,00138.2777,W,0.92,4.25,180717,,,A*72

$GPVTG,4.25,T,,M,0.92,N,1.70,K,A*33

$GPGGA,144753.000,4709.3700,N,00138.2777,W,1,07,1.22,59.3,M,48.7,M,,*4D

$GPGLL,4709.3700,N,00138.2777,W,144753.000,A,A*4A

$GPGSA,A,3,10,07,18,21,27,08,16,,,,,,1.96,1.22,1.53*0C

$GPGSV,3,1,12,27,79,076,18,08,59,303,20,10,56,104,14,16,40,177,17*7B

$GPGSV,3,2,12,18,40,063,17,11,20,265,,21,17,065,18,07,14,285,16*73

$GPGSV,3,3,12,26,14,167,,30,10,318,,01,08,245,,15,05,033,*78

$GPRMC,144753.000,A,4709.3700,N,00138.2777,W,0.94,5.90,180717,,,A*74

$GPVTG,5.90,T,,M,0.94,N,1.74,K,A*3E

$GPGGA,144754.000,4709.3703,N,00138.2776,W,1,07,1.19,59.2,M,48.7,M,,*41

$GPGLL,4709.3703,N,00138.2776,W,144754.000,A,A*4F

$GPGSA,A,3,10,07,18,21,27,08,16,,,,,,1.46,1.19,0.84*02

$GPGSV,3,1,12,27,79,076,18,08,59,303,20,10,56,104,13,16,40,177,17*7C

$GPGSV,3,2,12,18,40,063,17,11,20,265,,21,17,065,18,07,14,285,16*73

$GPGSV,3,3,12,26,14,167,,30,10,318,,01,08,245,,15,05,033,*78

$GPRMC,144754.000,A,4709.3703,N,00138.2776,W,0.93,7.17,180717,,,A*7B

$GPVTG,7.17,T,,M,0.93,N,1.72,K,A*32

$GPGGA,144755.000,4709.3705,N,00138.2777,W,1,07,1.22,59.1,M,48.7,M,,*4C

$GPGLL,4709.3705,N,00138.2777,W,144755.000,A,A*49

$GPGSA,A,3,10,07,18,21,27,08,16,,,,,,1.96,1.22,1.53*0C

$GPGSV,3,1,12,27,79,076,18,08,59,303,20,10,56,104,12,16,40,177,16*7C

$GPGSV,3,2,12,18,40,063,17,11,20,265,,21,17,065,18,07,14,285,16*73

$GPGSV,3,3,12,26,14,167,,30,10,318,,01,08,245,,15,05,033,*78

$GPRMC,144755.000,A,4709.3705,N,00138.2777,W,0.90,8.06,180717,,,A*71

$GPVTG,8.06,T,,M,0.90,N,1.67,K,A*3A

$GPGGA,144756.000,4709.3709,N,00138.2779,W,1,07,1.22,58.9,M,48.7,M,,*44

$GPGLL,4709.3709,N,00138.2779,W,144756.000,A,A*48

$GPGSA,A,3,10,07,18,21,27,08,16,,,,,,1.96,1.22,1.53*0C

$GPGSV,3,1,12,27,79,076,18,08,59,303,20,10,56,104,13,16,40,177,16*7D

$GPGSV,3,2,12,18,40,063,17,11,20,265,,21,17,065,18,07,14,285,16*73

$GPGSV,3,3,12,26,14,167,,30,10,318,,01,08,245,,15,05,033,*78

$GPRMC,144756.000,A,4709.3709,N,00138.2779,W,0.90,5.38,180717,,,A*70

$GPVTG,5.38,T,,M,0.90,N,1.68,K,A*35

$GPGGA,144757.000,4709.3713,N,00138.2776,W,1,07,1.22,58.9,M,48.7,M,,*41

$GPGLL,4709.3713,N,00138.2776,W,144757.000,A,A*4D

$GPGSA,A,3,10,07,18,21,27,08,16,,,,,,1.96,1.22,1.53*0C

$GPGSV,3,1,12,27,79,077,18,08,59,303,20,10,56,104,11,16,40,177,16*7E

$GPGSV,3,2,12,18,40,063,17,11,20,265,,21,17,065,18,07,14,285,16*73

$GPGSV,3,3,12,26,14,167,,30,10,318,,01,08,245,,15,05,033,*78

$GPRMC,144757.000,A,4709.3713,N,00138.2776,W,0.92,6.98,180717,,,A*7E

$GPVTG,6.98,T,,M,0.92,N,1.70,K,A*37

$GPGGA,144758.000,4709.3718,N,00138.2776,W,1,07,1.22,58.7,M,48.7,M,,*4B

$GPGLL,4709.3718,N,00138.2776,W,144758.000,A,A*49

$GPGSA,A,3,10,07,18,21,27,08,16,,,,,,1.96,1.22,1.53*0C

$GPGSV,3,1,12,27,79,077,18,08,59,303,20,10,56,104,16,16,40,177,16*79

$GPGSV,3,2,12,18,40,063,17,11,20,265,,21,17,065,18,07,14,285,16*73

$GPGSV,3,3,12,26,14,167,,30,10,318,,01,08,245,,15,05,033,*78

$GPRMC,144758.000,A,4709.3718,N,00138.2776,W,0.91,4.95,180717,,,A*76

$GPVTG,4.95,T,,M,0.91,N,1.68,K,A*32

$GPGGA,144759.000,4709.3724,N,00138.2773,W,1,07,1.22,58.4,M,48.7,M,,*43

$GPGLL,4709.3724,N,00138.2773,W,144759.000,A,A*42

$GPGSA,A,3,10,07,18,21,27,08,16,,,,,,1.96,1.22,1.53*0C

$GPGSV,3,1,12,27,79,077,18,08,59,303,20,10,56,104,14,16,40,177,17*7A

$GPGSV,3,2,12,18,40,063,17,11,20,265,,21,17,065,18,07,14,285,16*73

$GPGSV,3,3,12,26,14,167,,30,10,318,,01,08,245,,15,05,033,*78

$GPRMC,144759.000,A,4709.3724,N,00138.2773,W,0.97,5.26,180717,,,A*72

$GPVTG,5.26,T,,M,0.97,N,1.79,K,A*3D

$GPGGA,144800.000,4709.3733,N,00138.2774,W,1,07,1.22,58.2,M,48.7,M,,*47

$GPGLL,4709.3733,N,00138.2774,W,144800.000,A,A*40

$GPGSA,A,3,10,07,18,21,27,08,16,,,,,,1.96,1.22,1.53*0C

$GPGSV,3,1,12,27,79,077,18,08,59,303,20,10,56,104,14,16,40,177,17*7A

$GPGSV,3,2,12,18,40,063,17,11,20,265,,21,17,065,18,07,14,285,16*73

$GPGSV,3,3,12,26,14,167,,30,10,318,,01,08,245,,15,05,033,*78

$GPRMC,144800.000,A,4709.3733,N,00138.2774,W,1.06,2.74,180717,,,A*79

$GPVTG,2.74,T,,M,1.06,N,1.97,K,A*34

$GPGGA,144801.000,4709.3737,N,00138.2774,W,1,07,1.22,58.1,M,48.7,M,,*41

$GPGLL,4709.3737,N,00138.2774,W,144801.000,A,A*45

$GPGSA,A,3,10,07,18,21,27,08,16,,,,,,1.96,1.22,1.53*0C

$GPGSV,3,1,12,27,79,077,18,08,59,303,20,10,56,104,13,16,40,177,16*7C

$GPGSV,3,2,12,18,40,063,17,11,20,265,,21,17,065,18,07,14,285,17*72

$GPGSV,3,3,12,26,14,167,,30,10,318,,01,08,245,,15,05,033,*78

$GPRMC,144801.000,A,4709.3737,N,00138.2774,W,1.08,3.88,180717,,,A*70

$GPVTG,3.88,T,,M,1.08,N,1.99,K,A*36

$GPGGA,144802.000,4709.3739,N,00138.2775,W,1,07,1.22,57.9,M,48.7,M,,*4A

$GPGLL,4709.3739,N,00138.2775,W,144802.000,A,A*49

$GPGSA,A,3,10,07,18,21,27,08,16,,,,,,1.96,1.22,1.53*0C

$GPGSV,3,1,12,27,79,077,18,08,59,303,20,10,56,104,14,16,40,177,15*78

$GPGSV,3,2,12,18,40,063,18,11,20,265,,21,17,065,18,07,14,285,17*7D

$GPGSV,3,3,12,26,14,167,,30,10,318,,01,08,245,,15,05,033,*78

$GPRMC,144802.000,A,4709.3739,N,00138.2775,W,1.06,2.91,180717,,,A*7B

$GPVTG,2.91,T,,M,1.06,N,1.97,K,A*3F

$GPGGA,144803.000,4709.3747,N,00138.2782,W,1,07,1.22,57.7,M,48.7,M,,*44

$GPGLL,4709.3747,N,00138.2782,W,144803.000,A,A*49

$GPGSA,A,3,10,07,18,21,27,08,16,,,,,,1.96,1.22,1.53*0C

$GPGSV,3,1,12,27,79,077,19,08,59,303,20,10,56,104,14,16,40,177,16*7A

$GPGSV,3,2,12,18,40,063,18,11,20,265,,21,17,065,18,07,14,285,17*7D

$GPGSV,3,3,12,26,14,167,,30,10,318,,01,08,245,,15,05,033,*78

$GPRMC,144803.000,A,4709.3747,N,00138.2782,W,1.12,358.30,180717,,,A*79

$GPVTG,358.30,T,,M,1.12,N,2.08,K,A*38

$GPGGA,144804.000,4709.3752,N,00138.2788,W,1,07,1.22,57.5,M,48.7,M,,*4F

$GPGLL,4709.3752,N,00138.2788,W,144804.000,A,A*40

$GPGSA,A,3,10,07,18,21,27,08,16,,,,,,1.96,1.22,1.53*0C

$GPGSV,3,1,12,27,79,077,19,08,59,303,20,10,56,104,14,16,40,177,16*7A

$GPGSV,3,2,12,18,40,063,18,11,20,265,,21,17,065,18,07,14,285,17*7D

$GPGSV,3,3,12,26,14,167,,30,10,318,,01,08,245,,15,05,033,*78

$GPRMC,144804.000,A,4709.3752,N,00138.2788,W,1.12,356.10,180717,,,A*7C

$GPVTG,356.10,T,,M,1.12,N,2.08,K,A*34

$GPGGA,144805.000,4709.3754,N,00138.2792,W,1,07,1.22,57.0,M,48.7,M,,*46

$GPGLL,4709.3754,N,00138.2792,W,144805.000,A,A*4C

$GPGSA,A,3,10,07,18,21,27,08,16,,,,,,1.96,1.22,1.53*0C

$GPGSV,3,1,12,27,79,077,19,08,59,303,20,10,56,104,14,16,40,177,15*79

$GPGSV,3,2,12,18,40,063,18,11,20,265,,21,17,065,18,07,14,285,17*7D

$GPGSV,3,3,12,26,14,167,,30,10,318,,01,08,245,,15,05,033,*78

$GPRMC,144805.000,A,4709.3754,N,00138.2792,W,1.05,356.05,180717,,,A*72

$GPVTG,356.05,T,,M,1.05,N,1.94,K,A*30

$GPGGA,144806.000,4709.3754,N,00138.2798,W,1,07,1.22,56.5,M,48.7,M,,*4B

$GPGLL,4709.3754,N,00138.2798,W,144806.000,A,A*45

$GPGSA,A,3,10,07,18,21,27,08,16,,,,,,1.96,1.22,1.53*0C

$GPGSV,3,1,12,27,79,077,19,08,59,303,20,10,56,104,14,16,40,177,15*79

$GPGSV,3,2,12,18,40,063,18,11,20,265,,21,17,065,18,07,14,285,17*7D

$GPGSV,3,3,12,26,14,167,,30,10,318,,01,09,245,,15,05,033,*79

$GPRMC,144806.000,A,4709.3754,N,00138.2798,W,0.93,353.27,180717,,,A*70

$GPVTG,353.27,T,,M,0.93,N,1.73,K,A*32

$GPGGA,144807.000,4709.3765,N,00138.2803,W,1,07,1.22,56.0,M,48.7,M,,*40

$GPGLL,4709.3765,N,00138.2803,W,144807.000,A,A*4B

$GPGSA,A,3,10,07,18,21,27,08,16,,,,,,1.96,1.22,1.53*0C

$GPGSV,3,1,12,27,79,077,19,08,59,303,19,10,56,104,15,16,40,177,13*74

$GPGSV,3,2,12,18,40,063,18,11,20,265,,21,17,065,18,07,14,285,17*7D

$GPGSV,3,3,12,26,14,167,,30,10,318,,01,09,245,,15,05,033,*79

$GPRMC,144807.000,A,4709.3765,N,00138.2803,W,1.04,354.59,180717,,,A*7F

$GPVTG,354.59,T,,M,1.04,N,1.92,K,A*3C

$GPGGA,144808.000,4709.3770,N,00138.2802,W,1,07,1.22,55.6,M,48.7,M,,*4F

$GPGLL,4709.3770,N,00138.2802,W,144808.000,A,A*41

$GPGSA,A,3,10,07,18,21,27,08,16,,,,,,1.96,1.22,1.53*0C

$GPGSV,3,1,12,27,79,077,19,08,59,303,19,10,56,104,13,16,40,177,12*73

$GPGSV,3,2,12,18,40,063,18,11,20,265,,21,17,065,18,07,14,285,17*7D

$GPGSV,3,3,12,26,14,167,,30,10,318,,01,09,245,,15,05,033,*79

$GPRMC,144808.000,A,4709.3770,N,00138.2802,W,1.06,356.99,180717,,,A*79

$GPVTG,356.99,T,,M,1.06,N,1.96,K,A*34

$GPGGA,144809.000,4709.3774,N,00138.2800,W,1,07,1.22,55.3,M,48.7,M,,*4D

$GPGLL,4709.3774,N,00138.2800,W,144809.000,A,A*46

$GPGSA,A,3,10,07,18,21,27,08,16,,,,,,1.95,1.22,1.53*0F

$GPGSV,3,1,12,27,79,077,19,08,59,303,19,10,56,104,14,16,40,177,11*77

$GPGSV,3,2,12,18,40,063,18,11,20,265,,21,17,065,18,07,14,285,17*7D

$GPGSV,3,3,12,26,14,167,,30,10,318,,01,09,245,,15,05,033,*79

$GPRMC,144809.000,A,4709.3774,N,00138.2800,W,1.07,358.76,180717,,,A*70

$GPVTG,358.76,T,,M,1.07,N,1.99,K,A*35

$GPGGA,144810.000,4709.3778,N,00138.2800,W,1,07,1.22,54.9,M,48.7,M,,*42

$GPGLL,4709.3778,N,00138.2800,W,144810.000,A,A*42

$GPGSA,A,3,10,07,18,21,27,08,16,,,,,,1.95,1.22,1.53*0F

$GPGSV,3,1,12,27,79,077,19,08,59,303,19,10,56,104,14,16,40,177,12*74

$GPGSV,3,2,12,18,40,063,17,11,20,265,,21,17,065,17,07,14,285,17*7D

$GPGSV,3,3,12,26,14,167,,30,10,318,,01,09,245,,15,05,033,*79

$GPRMC,144810.000,A,4709.3778,N,00138.2800,W,1.09,358.65,180717,,,A*78

$GPVTG,358.65,T,,M,1.09,N,2.02,K,A*38

$GPGGA,144811.000,4709.3783,N,00138.2801,W,1,07,1.22,54.6,M,48.7,M,,*49

$GPGLL,4709.3783,N,00138.2801,W,144811.000,A,A*46

$GPGSA,A,3,10,07,18,21,27,08,16,,,,,,1.95,1.22,1.53*0F

$GPGSV,3,1,12,27,79,077,19,08,59,303,19,10,56,104,14,16,40,177,13*75

$GPGSV,3,2,12,18,40,063,18,11,20,265,,21,17,065,17,07,14,285,17*72

$GPGSV,3,3,12,26,14,167,,30,10,318,,01,09,245,,15,05,033,*79

$GPRMC,144811.000,A,4709.3783,N,00138.2801,W,1.12,357.77,180717,,,A*7A

$GPVTG,357.77,T,,M,1.12,N,2.08,K,A*34

$GPGGA,144812.000,4709.3787,N,00138.2806,W,1,07,1.22,54.2,M,48.7,M,,*4D

$GPGLL,4709.3787,N,00138.2806,W,144812.000,A,A*46

$GPGSA,A,3,10,07,18,21,27,08,16,,,,,,1.95,1.22,1.53*0F

$GPGSV,3,1,12,27,79,077,19,08,59,303,19,10,56,104,15,16,40,177,13*74

$GPGSV,3,2,12,18,40,063,18,11,20,265,,21,17,065,17,07,14,285,17*72

$GPGSV,3,3,12,26,14,167,,30,10,318,,01,09,245,,15,05,033,*79

$GPRMC,144812.000,A,4709.3787,N,00138.2806,W,1.15,353.00,180717,,,A*79

$GPVTG,353.00,T,,M,1.15,N,2.13,K,A*3D

$GPGGA,144813.000,4709.3776,N,00138.2811,W,1,07,1.22,53.6,M,48.7,M,,*47

$GPGLL,4709.3776,N,00138.2811,W,144813.000,A,A*4F

$GPGSA,A,3,10,07,18,21,27,08,16,,,,,,1.95,1.22,1.53*0F

$GPGSV,3,1,12,27,79,077,19,08,59,303,19,10,56,104,15,16,40,177,13*74

$GPGSV,3,2,12,18,40,063,18,11,20,265,,21,17,065,17,07,14,285,17*72

$GPGSV,3,3,12,26,14,167,,30,10,318,,01,09,245,,15,05,033,*79

$GPRMC,144813.000,A,4709.3776,N,00138.2811,W,0.93,350.65,180717,,,A*7F

$GPVTG,350.65,T,,M,0.93,N,1.72,K,A*36

$GPGGA,144814.000,4709.3765,N,00138.2815,W,1,07,1.22,53.1,M,48.7,M,,*41

$GPGLL,4709.3765,N,00138.2815,W,144814.000,A,A*4E

$GPGSA,A,3,10,07,18,21,27,08,16,,,,,,1.95,1.22,1.53*0F

$GPGSV,3,1,12,27,79,077,18,08,59,303,19,10,56,104,15,16,40,177,13*75

$GPGSV,3,2,12,18,40,063,18,11,20,265,,21,17,065,16,07,14,285,17*73

$GPGSV,3,3,12,26,14,167,,30,10,318,,01,09,245,,15,05,033,*79

$GPRMC,144814.000,A,4709.3765,N,00138.2815,W,0.71,344.73,180717,,,A*70

$GPVTG,344.73,T,,M,0.71,N,1.32,K,A*3C

$GPGGA,144815.000,4709.3755,N,00138.2822,W,1,07,1.19,52.5,M,48.7,M,,*4A

$GPGLL,4709.3755,N,00138.2822,W,144815.000,A,A*48

$GPGSA,A,3,10,07,18,21,27,08,16,,,,,,1.46,1.19,0.84*02

$GPGSV,3,1,12,27,79,077,18,08,59,303,19,10,56,103,15,16,40,177,13*72

$GPGSV,3,2,12,18,40,063,18,11,20,265,,21,17,065,16,07,14,285,17*73

$GPGSV,3,3,12,26,14,167,,30,10,318,,01,09,245,,15,05,033,*79

$GPRMC,144815.000,A,4709.3755,N,00138.2822,W,0.56,330.04,180717,,,A*70

$GPVTG,330.04,T,,M,0.56,N,1.03,K,A*38

$GPGGA,144816.000,4709.3749,N,00138.2825,W,1,07,1.19,52.4,M,48.7,M,,*42

$GPGLL,4709.3749,N,00138.2825,W,144816.000,A,A*41

$GPGSA,A,3,10,07,18,21,27,08,16,,,,,,1.46,1.19,0.84*02

$GPGSV,3,1,12,27,79,077,18,08,59,303,19,10,56,103,14,16,40,177,13*73

$GPGSV,3,2,12,18,40,063,18,11,20,265,,21,17,065,16,07,14,285,16*72

$GPGSV,3,3,12,26,14,167,,30,10,318,,01,09,245,,15,05,033,*79

$GPRMC,144816.000,A,4709.3749,N,00138.2825,W,0.44,312.35,180717,,,A*78

$GPVTG,312.35,T,,M,0.44,N,0.82,K,A*31

$GPGGA,144817.000,4709.3742,N,00138.2829,W,1,07,1.19,52.3,M,48.7,M,,*43

$GPGLL,4709.3742,N,00138.2829,W,144817.000,A,A*47

$GPGSA,A,3,10,07,18,21,27,08,16,,,,,,1.46,1.19,0.84*02

$GPGSV,3,1,12,27,79,077,17,08,59,303,18,10,56,103,14,16,40,177,13*7D

$GPGSV,3,2,12,18,40,063,17,11,20,265,,21,17,065,16,07,14,285,16*7D

$GPGSV,3,3,12,26,14,167,,30,10,318,,01,09,245,,15,05,033,*79

$GPRMC,144817.000,A,4709.3742,N,00138.2829,W,0.38,290.14,180717,,,A*7D

$GPVTG,290.14,T,,M,0.38,N,0.70,K,A*3F

$GPGGA,144818.000,4709.3735,N,00138.2833,W,1,07,1.19,52.2,M,48.7,M,,*46

$GPGLL,4709.3735,N,00138.2833,W,144818.000,A,A*43

$GPGSA,A,3,10,07,18,21,27,08,16,,,,,,1.46,1.19,0.84*02

$GPGSV,3,1,12,27,79,077,17,08,59,303,18,10,56,103,14,16,40,177,13*7D

$GPGSV,3,2,12,18,40,063,17,11,20,265,,21,17,065,16,07,14,285,16*7D

$GPGSV,3,3,12,26,14,167,,30,10,318,,01,09,245,,15,05,033,*79

$GPRMC,144818.000,A,4709.3735,N,00138.2833,W,0.36,259.74,180717,,,A*74

$GPVTG,259.74,T,,M,0.36,N,0.67,K,A*34

$GPGGA,144819.000,4709.3734,N,00138.2835,W,1,07,1.19,52.2,M,48.7,M,,*40

$GPGLL,4709.3734,N,00138.2835,W,144819.000,A,A*45

$GPGSA,A,3,10,07,18,21,27,08,16,,,,,,1.46,1.19,0.84*02

$GPGSV,3,1,12,27,79,077,17,08,59,303,18,10,56,103,14,16,40,177,13*7D

$GPGSV,3,2,12,18,40,063,17,11,20,265,,21,17,065,16,07,14,285,16*7D

$GPGSV,3,3,12,26,14,167,,30,10,318,,01,09,245,,15,05,033,*79

$GPRMC,144819.000,A,4709.3734,N,00138.2835,W,0.43,237.84,180717,,,A*77

$GPVTG,237.84,T,,M,0.43,N,0.79,K,A*3E

$GPGGA,144820.000,4709.3734,N,00138.2837,W,1,07,1.19,52.1,M,48.7,M,,*4B

$GPGLL,4709.3734,N,00138.2837,W,144820.000,A,A*4D

$GPGSA,A,3,10,07,18,21,27,08,16,,,,,,1.46,1.19,0.84*02

$GPGSV,3,1,12,27,79,077,18,08,59,303,19,10,56,103,14,16,40,177,13*73

$GPGSV,3,2,12,18,40,063,18,11,20,265,,21,17,065,17,07,14,285,17*72

$GPGSV,3,3,12,26,14,167,,30,10,318,,01,09,245,,15,05,033,*79

$GPRMC,144820.000,A,4709.3734,N,00138.2837,W,0.48,231.33,180717,,,A*7E

$GPVTG,231.33,T,,M,0.48,N,0.89,K,A*30

$GPGGA,144821.000,4709.3733,N,00138.2838,W,1,07,1.19,52.1,M,48.7,M,,*42

$GPGLL,4709.3733,N,00138.2838,W,144821.000,A,A*44

$GPGSA,A,3,10,07,18,21,27,08,16,,,,,,1.45,1.19,0.84*01

$GPGSV,3,1,12,27,79,077,18,08,59,303,19,10,56,103,14,16,40,177,13*73

$GPGSV,3,2,12,18,40,063,18,11,20,265,,21,17,065,17,07,14,285,17*72

$GPGSV,3,3,12,26,14,167,,30,10,318,,01,09,245,,15,05,033,*79

$GPRMC,144821.000,A,4709.3733,N,00138.2838,W,0.57,223.69,180717,,,A*75

$GPVTG,223.69,T,,M,0.57,N,1.05,K,A*37

$GPGGA,144822.000,4709.3731,N,00138.2840,W,1,07,1.19,52.1,M,48.7,M,,*4C

$GPGLL,4709.3731,N,00138.2840,W,144822.000,A,A*4A

$GPGSA,A,3,10,07,18,21,27,08,16,,,,,,1.46,1.19,0.84*02

$GPGSV,3,1,12,27,79,077,18,08,59,303,19,10,56,103,14,16,40,177,13*73

$GPGSV,3,2,12,18,40,063,18,11,20,265,,21,17,065,17,07,14,285,17*72

$GPGSV,3,3,12,26,14,167,,30,10,318,,01,09,245,,15,05,033,*79

$GPRMC,144822.000,A,4709.3731,N,00138.2840,W,0.65,218.29,180717,,,A*76

$GPVTG,218.29,T,,M,0.65,N,1.20,K,A*3D

$GPGGA,144823.000,4709.3735,N,00138.2842,W,1,07,1.19,51.9,M,48.7,M,,*40

$GPGLL,4709.3735,N,00138.2842,W,144823.000,A,A*4D

$GPGSA,A,3,10,07,18,21,27,08,16,,,,,,1.46,1.19,0.84*02

$GPGSV,3,1,12,27,79,077,18,08,59,303,19,10,56,103,15,16,40,177,13*72

$GPGSV,3,2,12,18,40,063,18,11,20,265,,21,17,065,17,07,14,285,17*72

$GPGSV,3,3,12,26,14,167,,30,10,318,,01,09,245,,15,05,033,*79

$GPRMC,144823.000,A,4709.3735,N,00138.2842,W,0.56,218.94,180717,,,A*77

$GPVTG,218.94,T,,M,0.56,N,1.03,K,A*3A

$GPGGA,144824.000,4709.3740,N,00138.2845,W,1,07,1.19,51.7,M,48.7,M,,*4C

$GPGLL,4709.3740,N,00138.2845,W,144824.000,A,A*4F

$GPGSA,A,3,10,07,18,21,27,08,16,,,,,,1.46,1.19,0.84*02

$GPGSV,3,1,12,27,79,077,19,08,59,303,19,10,56,103,16,16,40,177,13*70

$GPGSV,3,2,12,18,40,063,18,11,20,265,,21,17,065,16,07,14,285,17*73

$GPGSV,3,3,12,26,14,167,,30,10,318,,01,09,245,,15,05,033,*79

$GPRMC,144824.000,A,4709.3740,N,00138.2845,W,0.46,227.89,180717,,,A*74

$GPVTG,227.89,T,,M,0.46,N,0.86,K,A*37

$GPGGA,144825.000,4709.3746,N,00138.2847,W,1,07,1.19,51.6,M,48.7,M,,*48

$GPGLL,4709.3746,N,00138.2847,W,144825.000,A,A*4A

$GPGSA,A,3,10,07,18,21,27,08,16,,,,,,1.45,1.19,0.84*01

$GPGSV,3,1,12,27,79,077,19,08,59,303,19,10,56,103,16,16,40,177,13*70

$GPGSV,3,2,12,18,40,063,18,11,20,265,,21,17,065,16,07,14,285,17*73

$GPGSV,3,3,12,26,14,167,,30,10,318,,01,09,245,,15,05,033,*79

$GPRMC,144825.000,A,4709.3746,N,00138.2847,W,0.39,244.89,180717,,,A*7C

$GPVTG,244.89,T,,M,0.39,N,0.73,K,A*30

$GPGGA,144826.000,4709.3750,N,00138.2850,W,1,07,1.19,51.5,M,48.7,M,,*49

$GPGLL,4709.3750,N,00138.2850,W,144826.000,A,A*48

$GPGSA,A,3,10,07,18,21,27,08,16,,,,,,1.46,1.19,0.84*02

$GPGSV,3,1,12,27,79,077,20,08,59,303,20,10,56,103,16,16,40,177,12*71

$GPGSV,3,2,12,18,40,063,18,11,20,265,,21,17,065,16,07,14,285,17*73

$GPGSV,3,3,12,26,14,167,,30,10,318,,01,09,245,,15,05,033,*79

$GPRMC,144826.000,A,4709.3750,N,00138.2850,W,0.36,258.57,180717,,,A*7F

$GPVTG,258.57,T,,M,0.36,N,0.67,K,A*34

$GPGGA,144827.000,4709.3750,N,00138.2851,W,1,07,1.19,51.4,M,48.7,M,,*48

$GPGLL,4709.3750,N,00138.2851,W,144827.000,A,A*48

$GPGSA,A,3,10,07,18,21,27,08,16,,,,,,1.45,1.19,0.84*01

$GPGSV,3,1,12,27,79,077,21,08,59,303,20,10,56,103,17,16,40,177,11*72

$GPGSV,3,2,12,18,40,063,18,11,20,265,,21,17,065,16,07,14,285,18*7C

$GPGSV,3,3,12,26,14,167,,30,10,318,,01,09,245,,15,05,033,*79

$GPRMC,144827.000,A,4709.3750,N,00138.2851,W,0.40,260.20,180717,,,A*75

$GPVTG,260.20,T,,M,0.40,N,0.75,K,A*3D

$GPGGA,144828.000,4709.3750,N,00138.2853,W,1,07,1.19,51.4,M,48.7,M,,*45

$GPGLL,4709.3750,N,00138.2853,W,144828.000,A,A*45

$GPGSA,A,3,10,07,18,21,27,08,16,,,,,,1.46,1.19,0.84*02

$GPGSV,3,1,12,27,79,077,21,08,59,303,20,10,56,103,17,16,40,177,10*73

$GPGSV,3,2,12,18,40,063,18,11,20,265,,21,17,065,16,07,14,285,18*7C

$GPGSV,3,3,12,26,14,167,,30,10,318,,01,09,245,,15,05,033,*79

$GPRMC,144828.000,A,4709.3750,N,00138.2853,W,0.37,261.00,180717,,,A*7B

$GPVTG,261.00,T,,M,0.37,N,0.69,K,A*33

$GPGGA,144829.000,4709.3750,N,00138.2854,W,1,07,1.19,51.4,M,48.7,M,,*43

$GPGLL,4709.3750,N,00138.2854,W,144829.000,A,A*43

$GPGSA,A,3,10,07,18,21,27,08,16,,,,,,1.45,1.19,0.84*01

$GPGSV,3,1,12,27,79,077,21,08,59,303,20,10,56,103,17,16,40,177,09*7B

$GPGSV,3,2,12,18,40,063,19,11,20,265,,21,17,065,16,07,14,285,18*7D

$GPGSV,3,3,12,26,14,167,,30,10,318,,01,09,245,,15,05,033,*79

$GPRMC,144829.000,A,4709.3750,N,00138.2854,W,0.28,271.36,180717,,,A*77

$GPVTG,271.36,T,,M,0.28,N,0.52,K,A*31

$GPGGA,144830.000,4709.3750,N,00138.2855,W,1,07,1.19,51.4,M,48.7,M,,*4A

$GPGLL,4709.3750,N,00138.2855,W,144830.000,A,A*4A

$GPGSA,A,3,10,07,18,21,27,08,16,,,,,,1.45,1.19,0.84*01

$GPGSV,3,1,12,27,79,077,21,08,59,303,20,10,56,103,18,16,40,177,08*75

$GPGSV,3,2,12,18,40,063,19,11,20,265,,21,17,065,16,07,14,285,18*7D

$GPGSV,3,3,12,26,14,167,,30,10,318,,01,09,245,,15,05,033,*79

$GPRMC,144830.000,A,4709.3750,N,00138.2855,W,0.21,275.73,180717,,,A*72

$GPVTG,275.73,T,,M,0.21,N,0.39,K,A*30

$GPGGA,144831.000,4709.3750,N,00138.2856,W,1,07,1.19,51.4,M,48.7,M,,*48

$GPGLL,4709.3750,N,00138.2856,W,144831.000,A,A*48

$GPGSA,A,3,10,07,18,21,27,08,16,,,,,,1.45,1.19,0.84*01

$GPGSV,3,1,12,27,79,077,21,08,59,303,20,10,56,103,18,16,40,177,08*75

$GPGSV,3,2,12,18,40,063,19,11,20,265,,21,17,065,16,07,14,285,18*7D

$GPGSV,3,3,12,26,13,167,,30,10,318,,01,09,245,,15,05,033,*7E

$GPRMC,144831.000,A,4709.3750,N,00138.2856,W,0.18,264.66,180717,,,A*7E

$GPVTG,264.66,T,,M,0.18,N,0.33,K,A*34

$GPGGA,144832.000,4709.3750,N,00138.2857,W,1,07,1.19,51.4,M,48.7,M,,*4A

$GPGLL,4709.3750,N,00138.2857,W,144832.000,A,A*4A

$GPGSA,A,3,10,07,18,21,27,08,16,,,,,,1.45,1.19,0.84*01

$GPGSV,3,1,12,27,79,079,21,08,59,303,20,10,56,103,18,16,40,177,09*7A

$GPGSV,3,2,12,18,40,063,18,11,20,265,,21,17,065,16,07,14,285,18*7C

$GPGSV,3,3,12,26,13,167,,30,10,318,,01,09,245,,15,05,033,*7E

$GPRMC,144832.000,A,4709.3750,N,00138.2857,W,0.21,259.22,180717,,,A*78

$GPVTG,259.22,T,,M,0.21,N,0.39,K,A*3A

$GPGGA,144833.000,4709.3750,N,00138.2858,W,1,07,1.19,51.4,M,48.7,M,,*44

$GPGLL,4709.3750,N,00138.2858,W,144833.000,A,A*44

$GPGSA,A,3,10,07,18,21,27,08,16,,,,,,1.45,1.19,0.84*01

$GPGSV,3,1,12,27,79,079,20,08,59,303,20,10,56,103,18,16,40,177,09*7B

$GPGSV,3,2,12,18,40,063,18,11,20,265,,21,17,065,16,07,14,285,18*7C

$GPGSV,3,3,12,26,13,167,,30,10,318,,01,09,245,,15,05,033,*7E

$GPRMC,144833.000,A,4709.3750,N,00138.2858,W,0.18,258.55,180717,,,A*7D

$GPVTG,258.55,T,,M,0.18,N,0.34,K,A*3C

$GPGGA,144834.000,4709.3750,N,00138.2858,W,1,07,1.19,51.4,M,48.7,M,,*43

$GPGLL,4709.3750,N,00138.2858,W,144834.000,A,A*43

$GPGSA,A,3,10,07,18,21,27,08,16,,,,,,1.45,1.19,0.84*01

$GPGSV,3,1,12,27,79,079,20,08,59,303,19,10,56,103,18,16,40,177,09*71

$GPGSV,3,2,12,18,40,063,18,11,20,265,,21,17,065,16,07,14,285,18*7C

$GPGSV,3,3,12,26,13,167,,30,10,318,,01,09,245,,15,05,033,*7E

$GPRMC,144834.000,A,4709.3750,N,00138.2858,W,0.13,256.00,180717,,,A*7F

$GPVTG,256.00,T,,M,0.13,N,0.24,K,A*38

$GPGGA,144835.000,4709.3750,N,00138.2859,W,1,07,1.19,51.4,M,48.7,M,,*43

$GPGLL,4709.3750,N,00138.2859,W,144835.000,A,A*43

$GPGSA,A,3,10,07,18,21,27,08,16,,,,,,1.45,1.19,0.84*01

$GPGSV,3,1,12,27,79,079,20,08,59,303,19,10,56,103,18,16,40,177,09*71

$GPGSV,3,2,12,18,40,063,18,11,20,265,,21,17,065,16,07,14,285,18*7C

$GPGSV,3,3,12,26,13,167,,30,10,318,,01,09,245,,15,05,033,*7E

$GPRMC,144835.000,A,4709.3750,N,00138.2859,W,0.09,269.95,180717,,,A*74

$GPVTG,269.95,T,,M,0.09,N,0.16,K,A*32

$GPGGA,144836.000,4709.3750,N,00138.2859,W,1,07,1.19,51.4,M,48.7,M,,*40

$GPGLL,4709.3750,N,00138.2859,W,144836.000,A,A*40

$GPGSA,A,3,10,07,18,21,27,08,16,,,,,,1.45,1.19,0.84*01

$GPGSV,3,1,12,27,79,079,20,08,59,303,19,10,56,103,18,16,40,177,09*71

$GPGSV,3,2,12,18,40,063,18,11,20,265,,21,17,065,16,07,14,285,17*73

$GPGSV,3,3,12,26,13,167,,30,10,318,,01,09,245,,15,05,033,*7E

$GPRMC,144836.000,A,4709.3750,N,00138.2859,W,0.05,229.55,180717,,,A*73

$GPVTG,229.55,T,,M,0.05,N,0.09,K,A*38

$GPGGA,144837.000,4709.3749,N,00138.2859,W,1,07,1.19,51.4,M,48.7,M,,*49

$GPGLL,4709.3749,N,00138.2859,W,144837.000,A,A*49

$GPGSA,A,3,10,07,18,21,27,08,16,,,,,,1.45,1.19,0.84*01

$GPGSV,3,1,12,27,79,079,20,08,59,303,19,10,56,103,18,16,40,177,09*71

$GPGSV,3,2,12,18,40,063,18,11,20,265,,21,17,065,16,07,14,285,17*73

$GPGSV,3,3,12,26,13,167,,30,10,318,,01,09,245,,15,05,033,*7E

$GPRMC,144837.000,A,4709.3749,N,00138.2859,W,0.11,189.78,180717,,,A*79

$GPVTG,189.78,T,,M,0.11,N,0.20,K,A*30

$GPGGA,144838.000,4709.3749,N,00138.2859,W,1,07,1.19,51.4,M,48.7,M,,*46

$GPGLL,4709.3749,N,00138.2859,W,144838.000,A,A*46

$GPGSA,A,3,10,07,18,21,27,08,16,,,,,,1.45,1.19,0.84*01

$GPGSV,3,1,12,27,79,079,20,08,59,303,19,10,56,103,18,16,40,177,09*71

$GPGSV,3,2,12,18,40,063,18,11,20,265,,21,17,065,16,07,14,285,17*73

$GPGSV,3,3,12,26,13,167,,30,10,318,,01,09,245,,15,05,033,*7E

$GPRMC,144838.000,A,4709.3749,N,00138.2859,W,0.15,193.17,180717,,,A*70

$GPVTG,193.17,T,,M,0.15,N,0.28,K,A*3E

$GPGGA,144839.000,4709.3749,N,00138.2860,W,1,07,1.19,51.4,M,48.7,M,,*4D

$GPGLL,4709.3749,N,00138.2860,W,144839.000,A,A*4D

$GPGSA,A,3,10,07,18,21,27,08,16,,,,,,1.45,1.19,0.84*01

$GPGSV,3,1,12,27,79,079,20,08,59,303,19,10,56,103,18,16,40,177,09*71

$GPGSV,3,2,12,18,40,063,18,11,20,265,,21,17,065,16,07,14,285,17*73

$GPGSV,3,3,12,26,13,167,,30,10,318,,01,09,245,,15,05,033,*7E

$GPRMC,144839.000,A,4709.3749,N,00138.2860,W,0.19,181.92,180717,,,A*79

$GPVTG,181.92,T,,M,0.19,N,0.35,K,A*30

$GPGGA,144840.000,4709.3748,N,00138.2860,W,1,07,1.19,51.4,M,48.7,M,,*42

$GPGLL,4709.3748,N,00138.2860,W,144840.000,A,A*42

$GPGSA,A,3,10,07,18,21,27,08,16,,,,,,1.45,1.19,0.84*01

$GPGSV,3,1,12,27,79,079,20,08,59,303,19,10,56,103,18,16,40,177,09*71

$GPGSV,3,2,12,18,40,063,18,11,20,265,,21,17,065,16,07,14,285,17*73

$GPGSV,3,3,12,26,13,167,,30,10,318,,01,09,245,,15,05,033,*7E

$GPRMC,144840.000,A,4709.3748,N,00138.2860,W,0.22,177.07,180717,,,A*7B

$GPVTG,177.07,T,,M,0.22,N,0.41,K,A*3E

$GPGGA,144841.000,4709.3747,N,00138.2859,W,1,07,1.19,51.4,M,48.7,M,,*46

$GPGLL,4709.3747,N,00138.2859,W,144841.000,A,A*46

$GPGSA,A,3,10,07,18,21,27,08,16,,,,,,1.45,1.19,0.84*01

$GPGSV,3,1,12,27,79,079,20,08,59,303,19,10,56,103,18,16,40,177,09*71

$GPGSV,3,2,12,18,40,063,18,11,20,265,,21,17,065,16,07,14,285,17*73

$GPGSV,3,3,12,26,13,167,,30,10,318,,01,09,245,,15,05,033,*7E

$GPRMC,144841.000,A,4709.3747,N,00138.2859,W,0.19,169.63,180717,,,A*7A

$GPVTG,169.63,T,,M,0.19,N,0.34,K,A*39

$GPGGA,144842.000,4709.3747,N,00138.2859,W,1,07,1.19,51.4,M,48.7,M,,*45

$GPGLL,4709.3747,N,00138.2859,W,144842.000,A,A*45

$GPGSA,A,3,10,07,18,21,27,08,16,,,,,,1.45,1.19,0.84*01

$GPGSV,3,1,12,27,79,079,20,08,59,303,18,10,56,103,18,16,40,177,08*71

$GPGSV,3,2,12,18,40,063,18,11,20,265,,21,17,065,16,07,14,285,17*73

$GPGSV,3,3,12,26,13,167,,30,10,318,,01,09,245,,15,05,033,*7E

$GPRMC,144842.000,A,4709.3747,N,00138.2859,W,0.13,159.29,180717,,,A*7E

$GPVTG,159.29,T,,M,0.13,N,0.24,K,A*3F

$GPGGA,144843.000,4709.3747,N,00138.2859,W,1,07,1.19,51.4,M,48.7,M,,*44

$GPGLL,4709.3747,N,00138.2859,W,144843.000,A,A*44

$GPGSA,A,3,10,07,18,21,27,08,16,,,,,,1.45,1.19,0.84*01

$GPGSV,3,1,12,27,79,079,21,08,59,303,18,10,56,103,18,16,40,177,08*70

$GPGSV,3,2,12,18,40,063,18,11,20,265,,21,17,065,16,07,14,285,17*73

$GPGSV,3,3,12,26,13,167,,30,10,318,,01,09,245,,15,05,033,*7E

$GPRMC,144843.000,A,4709.3747,N,00138.2859,W,0.09,120.70,180717,,,A*76

$GPVTG,120.70,T,,M,0.09,N,0.17,K,A*36

$GPGGA,144844.000,4709.3746,N,00138.2859,W,1,07,1.19,51.4,M,48.7,M,,*42

$GPGLL,4709.3746,N,00138.2859,W,144844.000,A,A*42

$GPGSA,A,3,10,07,18,21,27,08,16,,,,,,1.45,1.19,0.84*01

$GPGSV,3,1,12,27,79,079,21,08,59,303,17,10,56,103,18,16,40,177,08*7F

$GPGSV,3,2,12,18,40,063,18,11,20,265,,21,17,065,16,07,14,285,17*73

$GPGSV,3,3,12,26,13,167,,30,10,318,,01,09,245,,15,05,033,*7E

$GPRMC,144844.000,A,4709.3746,N,00138.2859,W,0.14,137.57,180717,,,A*7F

$GPVTG,137.57,T,,M,0.14,N,0.25,K,A*38

$GPGGA,144845.000,4709.3746,N,00138.2858,W,1,07,1.19,51.4,M,48.7,M,,*42

$GPGLL,4709.3746,N,00138.2858,W,144845.000,A,A*42

$GPGSA,A,3,10,07,18,21,27,08,16,,,,,,1.45,1.19,0.84*01

$GPGSV,3,1,12,27,79,079,21,08,59,303,17,10,56,103,19,16,40,177,09*7F

$GPGSV,3,2,12,18,40,063,18,11,20,265,,21,17,065,16,07,14,285,17*73

$GPGSV,3,3,12,26,13,167,,30,10,318,,01,09,245,,15,05,033,*7E

$GPRMC,144845.000,A,4709.3746,N,00138.2858,W,0.19,116.94,180717,,,A*7E

$GPVTG,116.94,T,,M,0.19,N,0.35,K,A*38

$GPGGA,144846.000,4709.3746,N,00138.2857,W,1,07,1.19,51.4,M,48.7,M,,*4E

$GPGLL,4709.3746,N,00138.2857,W,144846.000,A,A*4E

$GPGSA,A,3,10,07,18,21,27,08,16,,,,,,1.45,1.19,0.83*06

$GPGSV,3,1,12,27,79,079,20,08,59,303,17,10,56,103,19,16,40,177,09*7E

$GPGSV,3,2,12,18,40,063,18,11,20,265,,21,17,065,16,07,14,285,17*73

$GPGSV,3,3,12,26,13,167,,30,10,318,,01,09,245,,15,05,033,*7E

$GPRMC,144846.000,A,4709.3746,N,00138.2857,W,0.37,135.52,180717,,,A*75

$GPVTG,135.52,T,,M,0.37,N,0.68,K,A*37

$GPGGA,144847.000,4709.3745,N,00138.2856,W,1,07,1.19,51.4,M,48.7,M,,*4D

$GPGLL,4709.3745,N,00138.2856,W,144847.000,A,A*4D

$GPGSA,A,3,10,07,18,21,27,08,16,,,,,,1.45,1.19,0.83*06

$GPGSV,3,1,12,27,79,079,20,08,59,303,18,10,56,103,19,16,40,177,10*79

$GPGSV,3,2,12,18,40,063,18,11,20,265,,21,17,065,16,07,14,285,17*73

$GPGSV,3,3,1