00

$GPGGA,145846.000,4709.3649,N,00138.3052,W,1,06,1.28,18.4,M,48.7,M,,*43

$GPGLL,4709.3649,N,00138.3052,W,145846.000,A,A*4D

$GPGSA,A,3,10,07,18,27,08,16,,,,,,,1.56,1.28,0.89*0F

$GPGSV,4,1,13,27,75,093,16,08,64,305,18,10,56,094,12,18,37,059,17*7A

$GPGSV,4,2,13,16,35,177,16,11,24,268,17,21,13,067,,07,12,281,13*7B

$GPGSV,4,3,13,01,12,248,,30,10,314,,26,09,167,,15,04,029,*72

$GPGSV,4,4,13,32,02,127,*4C

$GPRMC,145846.000,A,4709.3649,N,00138.3052,W,1.22,45.50,180717,,,A*47

$GPVTG,45.50,T,,M,1.22,N,2.26,K,A*0E

$GPGGA,145847.000,4709.3652,N,00138.3051,W,1,06,1.28,18.0,M,48.7,M,,*4F

$GPGLL,4709.3652,N,00138.3051,W,145847.000,A,A*45

$GPGSA,A,3,10,07,18,27,08,16,,,,,,,1.56,1.28,0.89*0F

$GPGSV,4,1,13,27,75,093,16,08,64,305,18,10,56,094,12,18,37,059,17*7A

$GPGSV,4,2,13,16,35,177,16,11,24,268,16,21,13,067,,07,12,281,14*7D

$GPGSV,4,3,13,01,12,248,,30,10,314,,26,09,167,,15,04,029,*72

$GPGSV,4,4,13,32,02,127,*4C

$GPRMC,145847.000,A,4709.3652,N,00138.3051,W,1.23,47.33,180717,,,A*49

$GPVTG,47.33,T,,M,1.23,N,2.28,K,A*06

$GPGGA,145848.000,4709.3652,N,00138.3048,W,1,06,1.28,17.5,M,48.7,M,,*42

$GPGLL,4709.3652,N,00138.3048,W,145848.000,A,A*42

$GPGSA,A,3,10,07,18,27,08,16,,,,,,,1.56,1.28,0.89*0F

$GPGSV,4,1,13,27,75,093,17,08,64,305,18,10,56,094,12,18,37,059,17*7B

$GPGSV,4,2,13,16,35,177,16,11,24,268,17,21,13,067,,07,12,281,12*7A

$GPGSV,4,3,13,01,12,248,,30,10,314,,26,09,167,,15,04,029,*72

$GPGSV,4,4,13,32,02,127,*4C

$GPRMC,145848.000,A,4709.3652,N,00138.3048,W,1.23,51.01,180717,,,A*48

$GPVTG,51.01,T,,M,1.23,N,2.28,K,A*00

$GPGGA,145849.000,4709.3651,N,00138.3037,W,1,06,1.28,17.0,M,48.7,M,,*4D

$GPGLL,4709.3651,N,00138.3037,W,145849.000,A,A*48

$GPGSA,A,3,10,07,18,27,08,16,,,,,,,1.56,1.28,0.89*0F

$GPGSV,4,1,13,27,75,093,17,08,64,305,18,10,56,094,12,18,37,059,17*7B

$GPGSV,4,2,13,16,35,177,16,11,24,268,17,21,13,067,,07,12,281,13*7B

$GPGSV,4,3,13,01,12,248,,30,10,314,,26,09,167,,15,04,029,*72

$GPGSV,4,4,13,32,02,127,*4C

$GPRMC,145849.000,A,4709.3651,N,00138.3037,W,1.25,56.53,180717,,,A*44

$GPVTG,56.53,T,,M,1.25,N,2.33,K,A*0C

$GPGGA,145850.000,4709.3650,N,00138.3027,W,1,06,1.28,16.5,M,48.7,M,,*41

$GPGLL,4709.3650,N,00138.3027,W,145850.000,A,A*40

$GPGSA,A,3,10,07,18,27,08,16,,,,,,,1.55,1.28,0.89*0C

$GPGSV,4,1,13,27,75,093,17,08,64,305,18,10,56,094,12,18,37,059,17*7B

$GPGSV,4,2,13,16,35,177,16,11,24,268,17,21,13,067,,07,12,281,11*79

$GPGSV,4,3,13,01,12,248,,30,10,314,,26,09,167,,15,04,029,*72

$GPGSV,4,4,13,32,02,127,*4C

$GPRMC,145850.000,A,4709.3650,N,00138.3027,W,1.26,61.21,180717,,,A*4E

$GPVTG,61.21,T,,M,1.26,N,2.33,K,A*0E

$GPGGA,145851.000,4709.3647,N,00138.3012,W,1,06,1.28,16.1,M,48.7,M,,*44

$GPGLL,4709.3647,N,00138.3012,W,145851.000,A,A*41

$GPGSA,A,3,10,07,18,27,08,16,,,,,,,1.55,1.28,0.89*0C

$GPGSV,4,1,13,27,75,093,17,08,64,305,18,10,56,094,12,18,37,059,17*7B

$GPGSV,4,2,13,16,35,177,16,11,24,268,17,21,13,067,,07,12,281,13*7B

$GPGSV,4,3,13,01,12,248,,30,10,314,,26,09,167,,15,04,029,*72

$GPGSV,4,4,13,32,02,127,*4C

$GPRMC,145851.000,A,4709.3647,N,00138.3012,W,1.33,67.04,180717,,,A*4A

$GPVTG,67.04,T,,M,1.33,N,2.46,K,A*09

$GPGGA,145852.000,4709.3646,N,00138.2999,W,1,06,1.28,15.6,M,48.7,M,,*49

$GPGLL,4709.3646,N,00138.2999,W,145852.000,A,A*48

$GPGSA,A,3,10,07,18,27,08,16,,,,,,,1.56,1.28,0.89*0F

$GPGSV,4,1,13,27,75,093,16,08,64,305,17,10,56,094,13,18,37,059,17*74

$GPGSV,4,2,13,16,35,177,16,11,24,268,17,21,13,067,,07,12,281,12*7A

$GPGSV,4,3,13,01,12,248,,30,10,314,,26,09,167,,15,04,029,*72

$GPGSV,4,4,13,32,02,127,*4C

$GPRMC,145852.000,A,4709.3646,N,00138.2999,W,1.40,71.00,180717,,,A*44

$GPVTG,71.00,T,,M,1.40,N,2.59,K,A*00

$GPGGA,145853.000,4709.3645,N,00138.2984,W,1,06,1.28,15.2,M,48.7,M,,*43

$GPGLL,4709.3645,N,00138.2984,W,145853.000,A,A*46

$GPGSA,A,3,10,07,18,27,08,16,,,,,,,1.56,1.28,0.89*0F

$GPGSV,4,1,13,27,75,093,15,08,64,305,16,10,56,094,13,18,37,059,17*76

$GPGSV,4,2,13,16,35,177,16,11,24,268,16,21,13,067,,07,12,281,11*78

$GPGSV,4,3,13,01,12,248,,30,10,314,,26,09,167,,15,04,029,*72

$GPGSV,4,4,13,32,02,127,*4C

$GPRMC,145853.000,A,4709.3645,N,00138.2984,W,1.49,74.47,180717,,,A*45

$GPVTG,74.47,T,,M,1.49,N,2.76,K,A*02

$GPGGA,145854.000,4709.3642,N,00138.2970,W,1,06,1.28,15.0,M,48.7,M,,*4A

$GPGLL,4709.3642,N,00138.2970,W,145854.000,A,A*4D

$GPGSA,A,3,10,07,18,27,08,16,,,,,,,1.55,1.28,0.89*0C

$GPGSV,4,1,13,27,75,093,12,08,64,305,15,10,56,094,13,18,37,059,17*72

$GPGSV,4,2,13,16,35,177,16,11,24,268,15,21,13,067,,07,12,281,13*79

$GPGSV,4,3,13,01,12,248,,30,10,314,,26,09,167,,15,04,029,*72

$GPGSV,4,4,13,32,02,127,*4C

$GPRMC,145854.000,A,4709.3642,N,00138.2970,W,1.55,78.28,180717,,,A*46

$GPVTG,78.28,T,,M,1.55,N,2.87,K,A*04

$GPGGA,145855.000,4709.3635,N,00138.2945,W,1,06,1.28,14.8,M,48.7,M,,*44

$GPGLL,4709.3635,N,00138.2945,W,145855.000,A,A*4A

$GPGSA,A,3,10,07,18,27,08,16,,,,,,,1.55,1.28,0.89*0C

$GPGSV,4,1,13,27,75,093,15,08,64,305,14,10,56,094,14,18,37,059,17*73

$GPGSV,4,2,13,16,35,177,16,11,24,268,15,21,13,067,,07,12,281,12*78

$GPGSV,4,3,13,01,12,248,,30,10,314,,26,09,167,,15,04,029,*72

$GPGSV,4,4,13,32,02,127,*4C

$GPRMC,145855.000,A,4709.3635,N,00138.2945,W,1.70,84.06,180717,,,A*49

$GPVTG,84.06,T,,M,1.70,N,3.16,K,A*05

$GPGGA,145856.000,4709.3634,N,00138.2936,W,1,06,1.28,14.8,M,48.7,M,,*42

$GPGLL,4709.3634,N,00138.2936,W,145856.000,A,A*4C

$GPGSA,A,3,10,07,18,27,08,16,,,,,,,1.55,1.28,0.89*0C

$GPGSV,4,1,13,27,75,093,14,08,64,305,14,10,56,094,14,18,37,059,17*72

$GPGSV,4,2,13,16,35,177,16,11,24,268,16,21,13,067,,07,12,281,13*7A

$GPGSV,4,3,13,01,12,248,,30,10,314,,26,09,167,,15,04,029,*72

$GPGSV,4,4,13,32,02,127,*4C

$GPRMC,145856.000,A,4709.3634,N,00138.2936,W,1.72,86.23,180717,,,A*48

$GPVTG,86.23,T,,M,1.72,N,3.18,K,A*0C

$GPGGA,145857.000,4709.3635,N,00138.2931,W,1,06,1.28,14.7,M,48.7,M,,*4A

$GPGLL,4709.3635,N,00138.2931,W,145857.000,A,A*4B

$GPGSA,A,3,10,07,18,27,08,16,,,,,,,1.55,1.28,0.89*0C

$GPGSV,4,1,13,27,75,093,12,08,64,305,12,10,56,094,14,18,37,059,17*72

$GPGSV,4,2,13,16,35,177,16,11,24,268,16,21,13,067,,07,12,281,14*7D

$GPGSV,4,3,13,01,12,248,,30,10,314,,26,09,167,,15,04,029,*72

$GPGSV,4,4,13,32,02,127,*4C

$GPRMC,145857.000,A,4709.3635,N,00138.2931,W,1.70,86.78,180717,,,A*43

$GPVTG,86.78,T,,M,1.70,N,3.14,K,A*0C

$GPGGA,145858.000,4709.3636,N,00138.2925,W,1,06,1.28,14.6,M,48.7,M,,*42

$GPGLL,4709.3636,N,00138.2925,W,145858.000,A,A*42

$GPGSA,A,3,10,07,18,27,08,16,,,,,,,1.55,1.28,0.89*0C

$GPGSV,4,1,13,27,75,093,12,08,64,305,10,10,56,094,14,18,37,059,17*70

$GPGSV,4,2,13,16,35,177,16,11,24,268,16,21,13,067,,07,12,281,12*7B

$GPGSV,4,3,13,01,12,248,,30,10,314,,26,09,167,,15,04,029,*72

$GPGSV,4,4,13,32,02,127,*4C

$GPRMC,145858.000,A,4709.3636,N,00138.2925,W,1.67,86.79,180717,,,A*4D

$GPVTG,86.79,T,,M,1.67,N,3.09,K,A*07

$GPGGA,145859.000,4709.3638,N,00138.2921,W,1,06,1.28,14.5,M,48.7,M,,*4A

$GPGLL,4709.3638,N,00138.2921,W,145859.000,A,A*49

$GPGSA,A,3,10,07,18,27,08,16,,,,,,,1.55,1.28,0.89*0C

$GPGSV,4,1,13,27,75,093,09,08,64,305,11,10,56,094,14,18,37,059,17*7B

$GPGSV,4,2,13,16,35,177,16,11,24,268,16,21,13,067,,07,12,281,14*7D

$GPGSV,4,3,13,01,12,248,,30,10,314,,26,09,167,,15,04,029,*72

$GPGSV,4,4,13,32,02,127,*4C

$GPRMC,145859.000,A,4709.3638,N,00138.2921,W,1.63,87.16,180717,,,A*4A

$GPVTG,87.16,T,,M,1.63,N,3.01,K,A*03

$GPGGA,145900.000,4709.3638,N,00138.2919,W,1,06,1.28,14.4,M,48.7,M,,*4D

$GPGLL,4709.3638,N,00138.2919,W,145900.000,A,A*4F

$GPGSA,A,3,10,07,18,27,08,16,,,,,,,1.55,1.28,0.89*0C

$GPGSV,4,1,13,27,75,093,10,08,64,305,11,10,56,094,14,18,37,059,17*73

$GPGSV,4,2,13,16,35,177,16,11,24,268,16,21,13,067,,07,12,281,13*7A

$GPGSV,4,3,13,01,12,248,,30,10,314,,26,09,167,,15,04,029,*72

$GPGSV,4,4,13,32,02,127,*4C

$GPRMC,145900.000,A,4709.3638,N,00138.2919,W,1.55,88.49,180717,,,A*4C

$GPVTG,88.49,T,,M,1.55,N,2.87,K,A*0C

$GPGGA,145901.000,4709.3638,N,00138.2920,W,1,06,1.28,14.3,M,48.7,M,,*41

$GPGLL,4709.3638,N,00138.2920,W,145901.000,A,A*44

$GPGSA,A,3,10,07,18,27,08,16,,,,,,,1.55,1.28,0.89*0C

$GPGSV,4,1,13,27,75,093,12,08,64,305,12,10,56,094,14,18,37,059,17*72

$GPGSV,4,2,13,16,35,177,16,11,24,268,16,21,13,067,,07,12,281,15*7C

$GPGSV,4,3,13,01,12,248,,30,10,314,,26,09,167,,15,04,029,*72

$GPGSV,4,4,13,32,02,127,*4C

$GPRMC,145901.000,A,4709.3638,N,00138.2920,W,1.45,89.79,180717,,,A*44

$GPVTG,89.79,T,,M,1.45,N,2.68,K,A*0E

$GPGGA,145902.000,4709.3638,N,00138.2915,W,1,06,1.28,14.2,M,48.7,M,,*45

$GPGLL,4709.3638,N,00138.2915,W,145902.000,A,A*41

$GPGSA,A,3,10,07,18,27,08,16,,,,,,,1.55,1.28,0.89*0C

$GPGSV,4,1,13,27,75,094,11,08,64,305,13,10,56,094,14,18,37,059,17*77

$GPGSV,4,2,13,16,35,177,16,11,24,268,16,21,13,067,,07,12,281,12*7B

$GPGSV,4,3,13,01,12,248,,30,10,314,,26,09,167,,15,04,029,*72

$GPGSV,4,4,13,32,02,127,*4C

$GPRMC,145902.000,A,4709.3638,N,00138.2915,W,1.41,91.85,180717,,,A*4F

$GPVTG,91.85,T,,M,1.41,N,2.61,K,A*09

$GPGGA,145903.000,4709.3638,N,00138.2916,W,1,06,1.28,14.1,M,48.7,M,,*44

$GPGLL,4709.3638,N,00138.2916,W,145903.000,A,A*43

$GPGSA,A,3,10,07,18,27,08,16,,,,,,,1.55,1.28,0.89*0C

$GPGSV,4,1,13,27,75,094,12,08,64,305,12,10,56,094,14,18,37,059,17*75

$GPGSV,4,2,13,16,35,177,16,11,24,268,16,21,13,067,,07,12,281,10*79

$GPGSV,4,3,13,01,12,248,,30,10,314,,26,09,167,,15,04,029,*72

$GPGSV,4,4,13,32,02,127,*4C

$GPRMC,145903.000,A,4709.3638,N,00138.2916,W,1.29,93.02,180717,,,A*4E

$GPVTG,93.02,T,,M,1.29,N,2.39,K,A*07

$GPGGA,145904.000,4709.3640,N,00138.2923,W,1,06,1.28,14.0,M,48.7,M,,*4B

$GPGLL,4709.3640,N,00138.2923,W,145904.000,A,A*4D

$GPGSA,A,3,10,07,18,27,08,16,,,,,,,1.55,1.28,0.89*0C

$GPGSV,4,1,13,27,75,094,11,08,64,305,11,10,56,094,14,18,37,059,17*75

$GPGSV,4,2,13,16,35,177,17,11,24,268,16,21,13,067,,07,12,281,13*7B

$GPGSV,4,3,13,01,12,248,,30,10,314,,26,09,167,,15,04,029,*72

$GPGSV,4,4,13,32,02,127,*4C

$GPRMC,145904.000,A,4709.3640,N,00138.2923,W,1.12,92.91,180717,,,A*43

$GPVTG,92.91,T,,M,1.12,N,2.07,K,A*09

$GPGGA,145905.000,4709.3640,N,00138.2928,W,1,06,1.28,13.8,M,48.7,M,,*4E

$GPGLL,4709.3640,N,00138.2928,W,145905.000,A,A*47

$GPGSA,A,3,10,07,18,27,08,16,,,,,,,1.55,1.28,0.89*0C

$GPGSV,4,1,13,27,75,094,10,08,64,305,10,10,56,094,15,18,37,059,17*74

$GPGSV,4,2,13,16,35,177,17,11,24,268,16,21,13,067,,07,12,281,13*7B

$GPGSV,4,3,13,01,12,248,,30,10,314,,26,09,167,,15,04,029,*72

$GPGSV,4,4,13,32,02,127,*4C

$GPRMC,145905.000,A,4709.3640,N,00138.2928,W,0.99,94.12,180717,,,A*46

$GPVTG,94.12,T,,M,0.99,N,1.84,K,A*0E

$GPGGA,145906.000,4709.3642,N,00138.2936,W,1,06,1.28,13.7,M,48.7,M,,*4F

$GPGLL,4709.3642,N,00138.2936,W,145906.000,A,A*49

$GPGSA,A,3,10,07,18,27,08,16,,,,,,,1.55,1.28,0.89*0C

$GPGSV,4,1,13,27,75,094,09,08,64,305,10,10,56,094,16,18,37,059,17*7F

$GPGSV,4,2,13,16,35,177,17,11,24,268,16,21,13,067,,07,12,281,13*7B

$GPGSV,4,3,13,01,12,248,,30,10,314,,26,09,167,,15,04,029,*72

$GPGSV,4,4,13,32,02,127,*4C

$GPRMC,145906.000,A,4709.3642,N,00138.2936,W,0.87,93.07,180717,,,A*44

$GPVTG,93.07,T,,M,0.87,N,1.61,K,A*09

$GPGGA,145907.000,4709.3644,N,00138.2943,W,1,06,1.28,13.6,M,48.7,M,,*4B

$GPGLL,4709.3644,N,00138.2943,W,145907.000,A,A*4C

$GPGSA,A,3,10,07,18,27,08,16,,,,,,,1.55,1.28,0.89*0C

$GPGSV,4,1,13,27,75,094,09,08,64,305,10,10,56,094,16,18,37,059,17*7F

$GPGSV,4,2,13,16,35,177,17,11,24,268,16,21,13,067,,07,12,281,12*7A

$GPGSV,4,3,13,01,12,248,,30,10,314,,26,09,167,,15,04,029,*72

$GPGSV,4,4,13,32,03,127,*4D

$GPRMC,145907.000,A,4709.3644,N,00138.2943,W,0.75,92.75,180717,,,A*48

$GPVTG,92.75,T,,M,0.75,N,1.40,K,A*03

$GPGGA,145908.000,4709.3646,N,00138.2953,W,1,06,1.28,13.4,M,48.7,M,,*45

$GPGLL,4709.3646,N,00138.2953,W,145908.000,A,A*40

$GPGSA,A,3,10,07,18,27,08,16,,,,,,,1.55,1.28,0.89*0C

$GPGSV,4,1,13,27,75,094,09,08,64,305,10,10,56,094,15,18,37,059,17*7C

$GPGSV,4,2,13,16,35,177,17,11,24,268,16,21,13,067,,07,12,281,13*7B

$GPGSV,4,3,13,01,12,248,,30,10,314,,26,09,167,,15,04,029,*72

$GPGSV,4,4,13,32,03,127,*4D

$GPRMC,145908.000,A,4709.3646,N,00138.2953,W,0.62,91.65,180717,,,A*40

$GPVTG,91.65,T,,M,0.62,N,1.14,K,A*06

$GPGGA,145909.000,4709.3647,N,00138.2966,W,1,06,1.28,13.3,M,48.7,M,,*44

$GPGLL,4709.3647,N,00138.2966,W,145909.000,A,A*46

$GPGSA,A,3,10,07,18,27,08,16,,,,,,,1.55,1.28,0.89*0C

$GPGSV,4,1,13,27,75,094,09,08,64,305,10,10,56,094,16,18,37,059,17*7F

$GPGSV,4,2,13,16,35,177,17,11,24,268,16,21,13,067,,07,12,281,10*78

$GPGSV,4,3,13,01,12,248,,30,10,314,,26,09,167,,15,04,029,*72

$GPGSV,4,4,13,32,03,127,*4D

$GPRMC,145909.000,A,4709.3647,N,00138.2966,W,0.45,95.64,180717,,,A*46

$GPVTG,95.64,T,,M,0.45,N,0.83,K,A*09

$GPGGA,145910.000,4709.3648,N,00138.2972,W,1,06,1.28,13.0,M,48.7,M,,*45

$GPGLL,4709.3648,N,00138.2972,W,145910.000,A,A*44

$GPGSA,A,3,10,07,18,27,08,16,,,,,,,1.55,1.28,0.89*0C

$GPGSV,4,1,13,27,75,094,10,08,64,305,10,10,56,094,17,18,37,059,17*76

$GPGSV,4,2,13,16,35,177,17,11,24,268,16,21,13,067,,07,12,281,11*79

$GPGSV,4,3,13,01,12,248,,30,10,314,,26,09,167,,15,04,029,*72

$GPGSV,4,4,13,32,03,127,*4D

$GPRMC,145910.000,A,4709.3648,N,00138.2972,W,0.26,103.19,180717,,,A*75

$GPVTG,103.19,T,,M,0.26,N,0.48,K,A*3F

$GPGGA,145911.000,4709.3648,N,00138.2979,W,1,06,1.28,12.8,M,48.7,M,,*46

$GPGLL,4709.3648,N,00138.2979,W,145911.000,A,A*4E

$GPGSA,A,3,10,07,18,27,08,16,,,,,,,1.55,1.28,0.89*0C

$GPGSV,4,1,13,27,75,094,11,08,64,305,11,10,56,094,17,18,37,059,17*76

$GPGSV,4,2,13,16,35,177,17,11,24,268,17,21,13,067,,01,13,248,*7A

$GPGSV,4,3,13,07,12,281,13,30,10,314,,26,09,167,,15,04,029,*73

$GPGSV,4,4,13,32,03,127,*4D

$GPRMC,145911.000,A,4709.3648,N,00138.2979,W,0.08,152.34,180717,,,A*78

$GPVTG,152.34,T,,M,0.08,N,0.15,K,A*30

$GPGGA,145912.000,4709.3641,N,00138.2978,W,1,05,1.65,12.6,M,48.7,M,,*49

$GPGLL,4709.3641,N,00138.2978,W,145912.000,A,A*45

$GPGSA,A,3,10,18,27,08,16,,,,,,,,1.91,1.65,0.96*04

$GPGSV,4,1,13,27,75,094,12,08,64,305,11,10,56,094,18,18,37,059,17*7A

$GPGSV,4,2,13,16,35,177,17,11,24,268,17,21,13,067,,01,13,248,*7A

$GPGSV,4,3,13,07,12,281,,30,10,314,,26,09,167,,15,04,029,*71

$GPGSV,4,4,13,32,03,127,*4D

$GPRMC,145912.000,A,4709.3641,N,00138.2978,W,0.22,172.69,180717,,,A*71

$GPVTG,172.69,T,,M,0.22,N,0.40,K,A*32

$GPGGA,145913.000,4709.3641,N,00138.2978,W,1,05,1.65,12.6,M,48.7,M,,*48

$GPGLL,4709.3641,N,00138.2978,W,145913.000,A,A*44

$GPGSA,A,3,10,18,27,08,16,,,,,,,,1.91,1.65,0.96*04

$GPGSV,4,1,13,27,75,094,13,08,64,305,12,10,56,094,18,18,37,059,18*77

$GPGSV,4,2,13,16,35,177,17,11,24,268,17,21,13,067,,01,13,248,*7A

$GPGSV,4,3,13,07,12,281,,30,10,314,,26,09,167,,15,04,029,*71

$GPGSV,4,4,13,32,03,127,*4D

$GPRMC,145913.000,A,4709.3641,N,00138.2978,W,0.26,159.30,180717,,,A*71

$GPVTG,159.30,T,,M,0.26,N,0.49,K,A*3A

$GPGGA,145914.000,4709.3640,N,00138.2978,W,1,05,1.65,12.6,M,48.7,M,,*4E

$GPGLL,4709.3640,N,00138.2978,W,145914.000,A,A*42

$GPGSA,A,3,10,18,27,08,16,,,,,,,,1.91,1.65,0.96*04

$GPGSV,4,1,13,27,75,094,14,08,64,305,12,10,56,094,18,18,37,059,18*70

$GPGSV,4,2,13,16,35,177,17,11,24,268,17,21,13,067,,01,13,248,*7A

$GPGSV,4,3,13,07,12,281,,30,10,314,,26,09,167,,15,04,029,*71

$GPGSV,4,4,13,32,03,127,*4D

$GPRMC,145914.000,A,4709.3640,N,00138.2978,W,0.18,144.06,180717,,,A*73

$GPVTG,144.06,T,,M,0.18,N,0.34,K,A*34

$GPGGA,145915.000,4709.3640,N,00138.2977,W,1,05,1.65,12.6,M,48.7,M,,*40

$GPGLL,4709.3640,N,00138.2977,W,145915.000,A,A*4C

$GPGSA,A,3,10,18,27,08,16,,,,,,,,1.91,1.65,0.96*04

$GPGSV,4,1,13,27,75,094,15,08,64,305,13,10,56,094,18,18,37,059,18*70

$GPGSV,4,2,13,16,35,177,16,11,24,268,17,21,13,067,,01,13,248,*7B

$GPGSV,4,3,13,07,12,281,,30,10,314,,26,09,167,,15,04,029,*71

$GPGSV,4,4,13,32,03,127,*4D

$GPRMC,145915.000,A,4709.3640,N,00138.2977,W,0.31,113.08,180717,,,A*7A

$GPVTG,113.08,T,,M,0.31,N,0.58,K,A*39

$GPGGA,145916.000,4709.3639,N,00138.2975,W,1,05,1.65,12.6,M,48.7,M,,*4F

$GPGLL,4709.3639,N,00138.2975,W,145916.000,A,A*43

$GPGSA,A,3,10,18,27,08,16,,,,,,,,1.91,1.65,0.96*04

$GPGSV,4,1,13,27,75,094,15,08,64,305,14,10,56,094,18,18,37,059,18*77

$GPGSV,4,2,13,16,35,177,17,11,24,268,17,21,13,067,,01,13,248,*7A

$GPGSV,4,3,13,07,12,281,,30,10,314,,26,09,167,,15,04,029,*71

$GPGSV,4,4,13,32,03,127,*4D

$GPRMC,145916.000,A,4709.3639,N,00138.2975,W,0.40,99.47,180717,,,A*4B

$GPVTG,99.47,T,,M,0.40,N,0.74,K,A*09

$GPGGA,145917.000,4709.3639,N,00138.2974,W,1,05,1.65,12.5,M,48.7,M,,*4C

$GPGLL,4709.3639,N,00138.2974,W,145917.000,A,A*43

$GPGSA,A,3,10,18,27,08,16,,,,,,,,1.91,1.65,0.96*04

$GPGSV,4,1,13,27,75,094,14,08,64,305,14,10,56,094,18,18,37,059,18*76

$GPGSV,4,2,13,16,35,177,17,11,24,268,17,21,13,067,,01,13,248,*7A

$GPGSV,4,3,13,07,12,280,,30,10,314,,26,09,167,,15,04,029,*70

$GPGSV,4,4,13,32,03,127,*4D

$GPRMC,145917.000,A,4709.3639,N,00138.2974,W,0.54,91.45,180717,,,A*44

$GPVTG,91.45,T,,M,0.54,N,1.00,K,A*04

$GPGGA,145918.000,4709.3639,N,00138.2971,W,1,05,1.65,12.5,M,48.7,M,,*46

$GPGLL,4709.3639,N,00138.2971,W,145918.000,A,A*49

$GPGSA,A,3,10,18,27,08,16,,,,,,,,1.91,1.65,0.96*04

$GPGSV,4,1,13,27,75,094,13,08,64,305,14,10,56,094,18,18,37,059,18*71

$GPGSV,4,2,13,16,35,177,17,11,24,268,17,21,13,067,,01,13,248,*7A

$GPGSV,4,3,13,07,12,280,,30,10,314,,26,09,167,,15,04,029,*70

$GPGSV,4,4,13,32,03,127,*4D

$GPRMC,145918.000,A,4709.3639,N,00138.2971,W,0.64,84.94,180717,,,A*45

$GPVTG,84.94,T,,M,0.64,N,1.20,K,A*0D

$GPGGA,145919.000,4709.3641,N,00138.2955,W,1,05,1.65,12.3,M,48.7,M,,*48

$GPGLL,4709.3641,N,00138.2955,W,145919.000,A,A*41

$GPGSA,A,3,10,18,27,08,16,,,,,,,,1.91,1.65,0.96*04

$GPGSV,4,1,13,27,75,094,12,08,64,305,14,10,56,094,18,18,37,059,18*70

$GPGSV,4,2,13,16,35,177,17,11,24,268,17,21,13,067,,01,13,248,*7A

$GPGSV,4,3,13,07,12,280,,30,10,314,,26,09,167,,15,04,029,*70

$GPGSV,4,4,13,32,03,127,*4D

$GPRMC,145919.000,A,4709.3641,N,00138.2955,W,0.76,82.75,180717,,,A*47

$GPVTG,82.75,T,,M,0.76,N,1.40,K,A*01

$GPGGA,145920.000,4709.3639,N,00138.2928,W,1,05,1.65,12.0,M,48.7,M,,*44

$GPGLL,4709.3639,N,00138.2928,W,145920.000,A,A*4E

$GPGSA,A,3,10,18,27,08,16,,,,,,,,1.91,1.65,0.96*04

$GPGSV,4,1,13,27,75,094,12,08,64,305,14,10,56,094,18,18,37,059,18*70

$GPGSV,4,2,13,16,35,177,17,11,24,268,17,21,13,067,,01,13,248,*7A

$GPGSV,4,3,13,07,12,280,,30,10,314,,26,09,167,,15,04,029,*70

$GPGSV,4,4,13,32,03,127,*4D

$GPRMC,145920.000,A,4709.3639,N,00138.2928,W,0.95,84.27,180717,,,A*44

$GPVTG,84.27,T,,M,0.95,N,1.76,K,A*08

$GPGGA,145921.000,4709.3635,N,00138.2911,W,1,05,1.65,11.6,M,48.7,M,,*46

$GPGLL,4709.3635,N,00138.2911,W,145921.000,A,A*49

$GPGSA,A,3,10,18,27,08,16,,,,,,,,1.91,1.65,0.96*04

$GPGSV,4,1,13,27,75,094,13,08,64,305,14,10,56,094,18,18,37,059,18*71

$GPGSV,4,2,13,16,35,177,18,11,24,268,17,21,13,067,,01,13,248,*75

$GPGSV,4,3,13,07,12,280,,30,10,314,,26,09,167,,15,04,029,*70

$GPGSV,4,4,13,32,03,127,*4D

$GPRMC,145921.000,A,4709.3635,N,00138.2911,W,1.03,86.86,180717,,,A*44

$GPVTG,86.86,T,,M,1.03,N,1.90,K,A*07

$GPGGA,145922.000,4709.3630,N,00138.2893,W,1,05,1.65,11.2,M,48.7,M,,*4F

$GPGLL,4709.3630,N,00138.2893,W,145922.000,A,A*44

$GPGSA,A,3,10,18,27,08,16,,,,,,,,1.91,1.65,0.96*04

$GPGSV,4,1,13,27,75,094,13,08,64,305,14,10,56,094,18,18,37,059,18*71

$GPGSV,4,2,13,16,35,177,18,11,24,268,17,21,13,067,,01,13,248,*75

$GPGSV,4,3,13,07,12,280,,30,10,314,,26,09,167,,15,04,029,*70

$GPGSV,4,4,13,32,03,127,*4D

$GPRMC,145922.000,A,4709.3630,N,00138.2893,W,1.10,89.19,180717,,,A*42

$GPVTG,89.19,T,,M,1.10,N,2.04,K,A*02

$GPGGA,145923.000,4709.3625,N,00138.2874,W,1,05,1.65,10.8,M,48.7,M,,*48

$GPGLL,4709.3625,N,00138.2874,W,145923.000,A,A*48

$GPGSA,A,3,10,18,27,08,16,,,,,,,,1.91,1.65,0.96*04

$GPGSV,4,1,13,27,75,094,13,08,64,305,14,10,56,094,18,18,37,059,18*71

$GPGSV,4,2,13,16,35,177,18,11,24,268,17,21,13,067,,01,13,248,*75

$GPGSV,4,3,13,07,12,280,,30,10,314,,26,09,167,,15,04,029,*70

$GPGSV,4,4,13,32,03,127,*4D

$GPRMC,145923.000,A,4709.3625,N,00138.2874,W,1.18,91.17,180717,,,A*41

$GPVTG,91.17,T,,M,1.18,N,2.18,K,A*00

$GPGGA,145924.000,4709.3595,N,00138.2786,W,1,05,1.65,10.3,M,48.7,M,,*4E

$GPGLL,4709.3595,N,00138.2786,W,145924.000,A,A*45

$GPGSA,A,3,10,18,27,08,16,,,,,,,,1.91,1.65,0.96*04

$GPGSV,4,1,13,27,75,094,12,08,64,305,15,10,56,094,18,18,37,059,18*71

$GPGSV,4,2,13,16,35,177,17,11,24,268,17,21,13,067,,01,13,248,*7A

$GPGSV,4,3,13,07,12,280,,30,10,314,,26,09,167,,15,04,029,*70

$GPGSV,4,4,13,32,03,127,*4D

$GPRMC,145924.000,A,4709.3595,N,00138.2786,W,1.71,100.37,180717,,,A*78

$GPVTG,100.37,T,,M,1.71,N,3.18,K,A*35

$GPGGA,145925.000,4709.3578,N,00138.2729,W,1,05,1.65,9.9,M,48.7,M,,*7B

$GPGLL,4709.3578,N,00138.2729,W,145925.000,A,A*42

$GPGSA,A,3,10,18,27,08,16,,,,,,,,1.91,1.65,0.96*04

$GPGSV,4,1,13,27,75,094,12,08,64,305,15,10,56,094,18,18,37,059,18*71

$GPGSV,4,2,13,16,35,177,17,11,24,268,17,21,13,067,,01,13,248,*7A

$GPGSV,4,3,13,07,12,280,,30,10,314,,26,09,167,,15,04,029,*70

$GPGSV,4,4,13,32,03,127,*4D

$GPRMC,145925.000,A,4709.3578,N,00138.2729,W,2.02,102.08,180717,,,A*76

$GPVTG,102.08,T,,M,2.02,N,3.74,K,A*36

$GPGGA,145926.000,4709.3566,N,00138.2688,W,1,05,1.65,9.6,M,48.7,M,,*72

$GPGLL,4709.3566,N,00138.2688,W,145926.000,A,A*44

$GPGSA,A,3,10,18,27,08,16,,,,,,,,1.91,1.65,0.96*04

$GPGSV,4,1,13,27,75,094,11,08,64,305,15,10,56,094,18,18,37,059,18*72

$GPGSV,4,2,13,16,34,177,17,11,24,268,16,21,13,067,,01,13,248,*7A

$GPGSV,4,3,13,07,12,280,,30,10,314,,26,09,167,,15,04,029,*70

$GPGSV,4,4,13,32,03,127,*4D

$GPRMC,145926.000,A,4709.3566,N,00138.2688,W,2.21,103.36,180717,,,A*7D

$GPVTG,103.36,T,,M,2.21,N,4.10,K,A*3E

$GPGGA,145927.000,4709.3558,N,00138.2655,W,1,05,1.65,9.2,M,48.7,M,,*7A

$GPGLL,4709.3558,N,00138.2655,W,145927.000,A,A*48

$GPGSA,A,3,10,18,27,08,16,,,,,,,,1.91,1.65,0.96*04

$GPGSV,4,1,13,27,75,094,11,08,64,305,15,10,56,094,19,18,37,059,18*73

$GPGSV,4,2,13,16,34,177,17,11,24,268,16,21,13,067,,01,13,248,*7A

$GPGSV,4,3,13,07,12,280,,30,10,314,,26,09,167,,15,04,029,*70

$GPGSV,4,4,13,32,03,127,*4D

$GPRMC,145927.000,A,4709.3558,N,00138.2655,W,2.35,103.26,180717,,,A*75

$GPVTG,103.26,T,,M,2.35,N,4.35,K,A*3D

$GPGGA,145928.000,4709.3556,N,00138.2633,W,1,05,1.65,8.9,M,48.7,M,,*71

$GPGLL,4709.3556,N,00138.2633,W,145928.000,A,A*49

$GPGSA,A,3,10,18,27,08,16,,,,,,,,1.91,1.65,0.96*04

$GPGSV,4,1,13,27,75,094,11,08,64,305,15,10,56,094,19,18,37,058,18*72

$GPGSV,4,2,13,16,34,177,17,11,24,268,16,21,13,067,,01,13,248,*7A

$GPGSV,4,3,13,07,12,280,,30,10,314,,26,09,167,,15,04,029,*70

$GPGSV,4,4,13,32,03,127,*4D

$GPRMC,145928.000,A,4709.3556,N,00138.2633,W,2.36,102.19,180717,,,A*7A

$GPVTG,102.19,T,,M,2.36,N,4.38,K,A*3E

$GPGGA,145929.000,4709.3553,N,00138.2609,W,1,05,1.65,8.5,M,48.7,M,,*70

$GPGLL,4709.3553,N,00138.2609,W,145929.000,A,A*44

$GPGSA,A,3,10,18,27,08,16,,,,,,,,1.91,1.65,0.96*04

$GPGSV,4,1,13,27,75,094,11,08,64,305,15,10,56,094,18,18,37,058,18*73

$GPGSV,4,2,13,16,34,177,17,11,24,268,16,21,13,067,,01,13,248,*7A

$GPGSV,4,3,13,07,12,280,,30,10,314,,26,09,167,,15,04,029,*70

$GPGSV,4,4,13,32,03,127,*4D

$GPRMC,145929.000,A,4709.3553,N,00138.2609,W,2.42,101.35,180717,,,A*79

$GPVTG,101.35,T,,M,2.42,N,4.48,K,A*37

$GPGGA,145930.000,4709.3550,N,00138.2590,W,1,05,1.65,8.1,M,48.7,M,,*7C

$GPGLL,4709.3550,N,00138.2590,W,145930.000,A,A*4C

$GPGSA,A,3,10,18,27,08,16,,,,,,,,1.91,1.65,0.96*04

$GPGSV,4,1,13,27,75,094,12,08,64,305,14,10,56,094,18,18,37,058,18*71

$GPGSV,4,2,13,16,34,177,17,11,24,268,16,21,13,067,,01,13,248,*7A

$GPGSV,4,3,13,07,12,280,,30,10,314,,26,09,167,,15,04,029,*70

$GPGSV,4,4,13,32,03,127,*4D

$GPRMC,145930.000,A,4709.3550,N,00138.2590,W,2.43,101.13,180717,,,A*74

$GPVTG,101.13,T,,M,2.43,N,4.51,K,A*3A

$GPGGA,145931.000,4709.3548,N,00138.2580,W,1,05,1.66,7.7,M,48.7,M,,*7F

$GPGLL,4709.3548,N,00138.2580,W,145931.000,A,A*45

$GPGSA,A,3,10,18,27,08,16,,,,,,,,1.91,1.66,0.96*07

$GPGSV,4,1,13,27,75,094,13,08,64,305,14,10,56,094,18,18,37,058,18*70

$GPGSV,4,2,13,16,34,177,17,11,24,268,16,21,13,067,,01,13,248,*7A

$GPGSV,4,3,13,07,12,280,,30,10,314,,26,09,167,,15,04,029,*70

$GPGSV,4,4,13,32,03,127,*4D

$GPRMC,145931.000,A,4709.3548,N,00138.2580,W,2.37,101.34,180717,,,A*7B

$GPVTG,101.34,T,,M,2.37,N,4.39,K,A*32

$GPGGA,145932.000,4709.3548,N,00138.2576,W,1,05,1.65,7.3,M,48.7,M,,*72

$GPGLL,4709.3548,N,00138.2576,W,145932.000,A,A*4F

$GPGSA,A,3,10,18,27,08,16,,,,,,,,1.91,1.65,0.96*04

$GPGSV,4,1,13,27,75,094,12,08,64,305,14,10,56,094,18,18,37,058,18*71

$GPGSV,4,2,13,16,34,177,17,11,24,268,16,21,13,067,,01,13,248,*7A

$GPGSV,4,3,13,07,12,280,,30,10,314,,26,09,167,,15,04,029,*70

$GPGSV,4,4,13,32,03,127,*4D

$GPRMC,145932.000,A,4709.3548,N,00138.2576,W,2.24,101.09,180717,,,A*7D

$GPVTG,101.09,T,,M,2.24,N,4.16,K,A*33

$GPGGA,145933.000,4709.3545,N,00138.2569,W,1,05,1.66,6.9,M,48.7,M,,*78

$GPGLL,4709.3545,N,00138.2569,W,145933.000,A,A*4D

$GPGSA,A,3,10,18,27,08,16,,,,,,,,1.91,1.66,0.96*07

$GPGSV,4,1,13,27,75,094,11,08,64,305,14,10,56,094,18,18,37,058,18*72

$GPGSV,4,2,13,16,34,177,17,11,24,268,15,21,13,067,,01,13,248,*79

$GPGSV,4,3,13,07,12,280,,30,10,314,,26,09,167,,15,04,029,*70

$GPGSV,4,4,13,32,03,127,*4D

$GPRMC,145933.000,A,4709.3545,N,00138.2569,W,2.15,102.34,180717,,,A*70

$GPVTG,102.34,T,,M,2.15,N,3.99,K,A*3C

$GPGGA,145934.000,4709.3553,N,00138.2593,W,1,05,1.66,6.5,M,48.7,M,,*71

$GPGLL,4709.3553,N,00138.2593,W,145934.000,A,A*48

$GPGSA,A,3,10,18,27,08,16,,,,,,,,1.91,1.66,0.96*07

$GPGSV,4,1,13,27,75,094,12,08,64,305,15,10,56,094,18,18,37,058,18*70

$GPGSV,4,2,13,16,34,177,17,11,24,268,15,21,13,067,,01,13,248,*79

$GPGSV,4,3,13,07,12,280,,30,10,314,,26,09,167,,15,04,029,*70

$GPGSV,4,4,13,32,03,127,*4D

$GPRMC,145934.000,A,4709.3553,N,00138.2593,W,1.83,101.29,180717,,,A*76

$GPVTG,101.29,T,,M,1.83,N,3.39,K,A*35

$GPGGA,145935.000,4709.3561,N,00138.2607,W,1,05,1.66,6.2,M,48.7,M,,*78

$GPGLL,4709.3561,N,00138.2607,W,145935.000,A,A*46

$GPGSA,A,3,10,18,27,08,16,,,,,,,,1.91,1.66,0.96*07

$GPGSV,4,1,13,27,75,094,12,08,64,305,16,10,56,094,18,18,37,058,18*73

$GPGSV,4,2,13,16,34,177,17,11,24,268,15,21,13,067,,01,13,248,*79

$GPGSV,4,3,13,07,12,280,,30,10,314,,26,09,167,,15,04,029,*70

$GPGSV,4,4,13,32,03,127,*4D

$GPRMC,145935.000,A,4709.3561,N,00138.2607,W,1.63,99.76,180717,,,A*4C

$GPVTG,99.76,T,,M,1.63,N,3.03,K,A*08

$GPGGA,145936.000,4709.3578,N,00138.2649,W,1,05,1.66,5.8,M,48.7,M,,*70

$GPGLL,4709.3578,N,00138.2649,W,145936.000,A,A*47

$GPGSA,A,3,10,18,27,08,16,,,,,,,,1.91,1.66,0.96*07

$GPGSV,4,1,13,27,75,094,13,08,64,305,17,10,56,094,18,18,37,058,18*73

$GPGSV,4,2,13,16,34,177,17,11,24,268,14,21,13,067,,01,13,248,*78

$GPGSV,4,3,13,07,12,280,,30,10,314,,26,09,167,,15,04,029,*70

$GPGSV,4,4,13,32,03,127,*4D

$GPRMC,145936.000,A,4709.3578,N,00138.2649,W,1.18,93.06,180717,,,A*4C

$GPVTG,93.06,T,,M,1.18,N,2.19,K,A*03

$GPGGA,145937.000,4709.3592,N,00138.2680,W,1,05,1.66,5.5,M,48.7,M,,*7D

$GPGLL,4709.3592,N,00138.2680,W,145937.000,A,A*47

$GPGSA,A,3,10,18,27,08,16,,,,,,,,1.91,1.66,0.96*07

$GPGSV,4,1,13,27,75,095,13,08,64,305,17,10,56,094,18,18,37,058,18*72

$GPGSV,4,2,13,16,34,177,17,11,24,268,14,21,13,067,,01,13,248,*78

$GPGSV,4,3,13,07,12,280,,30,10,314,,26,09,167,,15,04,029,*70

$GPGSV,4,4,13,32,03,127,*4D

$GPRMC,145937.000,A,4709.3592,N,00138.2680,W,0.86,82.14,180717,,,A*49

$GPVTG,82.14,T,,M,0.86,N,1.59,K,A*01

$GPGGA,145938.000,4709.3604,N,00138.2708,W,1,05,1.66,5.2,M,48.7,M,,*78

$GPGLL,4709.3604,N,00138.2708,W,145938.000,A,A*45

$GPGSA,A,3,10,18,27,08,16,,,,,,,,1.91,1.66,0.96*07

$GPGSV,4,1,13,27,75,095,13,08,64,305,16,10,56,094,18,18,37,058,18*73

$GPGSV,4,2,13,16,34,177,17,11,24,268,13,21,13,067,,01,13,248,*7F

$GPGSV,4,3,13,07,12,280,,30,10,314,,26,09,167,,15,04,029,*70

$GPGSV,4,4,13,32,03,127,*4D

$GPRMC,145938.000,A,4709.3604,N,00138.2708,W,0.63,65.65,180717,,,A*4F

$GPVTG,65.65,T,,M,0.63,N,1.17,K,A*0F

$GPGGA,145939.000,4709.3616,N,00138.2734,W,1,05,1.66,4.9,M,48.7,M,,*7F

$GPGLL,4709.3616,N,00138.2734,W,145939.000,A,A*48

$GPGSA,A,3,10,18,27,08,16,,,,,,,,1.91,1.66,0.96*07

$GPGSV,4,1,13,27,75,095,13,08,64,305,16,10,56,094,18,18,37,058,18*73

$GPGSV,4,2,13,16,34,177,17,11,24,268,14,21,13,067,,01,13,248,*78

$GPGSV,4,3,13,07,12,280,,30,10,314,,26,09,167,,15,04,029,*70

$GPGSV,4,4,13,32,03,127,*4D

$GPRMC,145939.000,A,4709.3616,N,00138.2734,W,0.50,42.26,180717,,,A*40

$GPVTG,42.26,T,,M,0.50,N,0.94,K,A*07

$GPGGA,145940.000,4709.3624,N,00138.2741,W,1,05,1.66,4.9,M,48.7,M,,*72

$GPGLL,4709.3624,N,00138.2741,W,145940.000,A,A*45

$GPGSA,A,3,10,18,27,08,16,,,,,,,,1.91,1.66,0.96*07

$GPGSV,4,1,13,27,75,095,13,08,64,305,16,10,56,094,18,18,37,058,18*73

$GPGSV,4,2,13,16,34,177,17,11,24,268,15,21,13,067,,01,13,248,*79

$GPGSV,4,3,13,07,12,280,,30,10,314,,26,09,167,,15,04,029,*70

$GPGSV,4,4,13,32,03,127,*4D

$GPRMC,145940.000,A,4709.3624,N,00138.2741,W,0.47,20.95,180717,,,A*47

$GPVTG,20.95,T,,M,0.47,N,0.88,K,A*00

$GPGGA,145941.000,4709.3631,N,00138.2748,W,1,05,1.66,4.6,M,48.7,M,,*71

$GPGLL,4709.3631,N,00138.2748,W,145941.000,A,A*49

$GPGSA,A,3,10,18,27,08,16,,,,,,,,1.91,1.66,0.96*07

$GPGSV,4,1,13,27,75,095,13,08,64,305,16,10,56,094,19,18,37,058,18*72

$GPGSV,4,2,13,16,34,177,17,11,24,268,15,21,13,067,,01,13,248,*79

$GPGSV,4,3,13,07,12,280,,30,10,314,,26,09,167,,15,04,029,*70

$GPGSV,4,4,13,32,03,127,*4D

$GPRMC,145941.000,A,4709.3631,N,00138.2748,W,0.47,2.73,180717,,,A*73

$GPVTG,2.73,T,,M,0.47,N,0.88,K,A*38

$GPGGA,145942.000,4709.3639,N,00138.2756,W,1,05,1.82,4.6,M,48.7,M,,*7F

$GPGLL,4709.3639,N,00138.2756,W,145942.000,A,A*4D

$GPGSA,A,3,10,18,27,08,16,,,,,,,,3.72,1.82,3.24*08

$GPGSV,4,1,13,27,75,095,13,08,64,305,17,10,56,094,19,18,37,058,19*72

$GPGSV,4,2,13,16,34,177,17,11,24,268,15,21,13,067,,01,13,248,*79

$GPGSV,4,3,13,07,12,280,,30,10,314,,26,09,167,,15,04,029,*70

$GPGSV,4,4,13,32,03,126,*4C

$GPRMC,145942.000,A,4709.3639,N,00138.2756,W,0.57,345.81,180717,,,A*7B

$GPVTG,345.81,T,,M,0.57,N,1.05,K,A*30

$GPGGA,145943.000,4709.3641,N,00138.2757,W,1,05,1.82,4.5,M,48.7,M,,*73

$GPGLL,4709.3641,N,00138.2757,W,145943.000,A,A*42

$GPGSA,A,3,10,18,27,08,16,,,,,,,,3.72,1.82,3.24*08

$GPGSV,4,1,13,27,75,095,13,08,64,305,17,10,56,094,19,18,37,058,19*72

$GPGSV,4,2,13,16,34,177,17,11,24,268,15,21,13,067,,01,13,248,*79

$GPGSV,4,3,13,07,12,280,,30,10,314,,26,09,167,,15,04,029,*70

$GPGSV,4,4,13,32,03,126,*4C

$GPRMC,145943.000,A,4709.3641,N,00138.2757,W,0.63,337.69,180717,,,A*70

$GPVTG,337.69,T,,M,0.63,N,1.17,K,A*37

$GPGGA,145944.000,4709.3646,N,00138.2766,W,1,05,1.66,4.3,M,48.7,M,,*7D

$GPGLL,4709.3646,N,00138.2766,W,145944.000,A,A*40

$GPGSA,A,3,10,18,27,08,16,,,,,,,,1.91,1.66,0.96*07

$GPGSV,4,1,13,27,75,095,13,08,64,305,19,10,56,094,19,18,37,058,18*7D

$GPGSV,4,2,13,16,34,177,18,11,24,268,15,21,13,067,,01,13,248,*76

$GPGSV,4,3,13,07,12,280,,30,10,314,,26,09,167,,15,04,029,*70

$GPGSV,4,4,13,32,03,126,*4C

$GPRMC,145944.000,A,4709.3646,N,00138.2766,W,0.72,333.31,180717,,,A*7B

$GPVTG,333.31,T,,M,0.72,N,1.34,K,A*3F

$GPGGA,145945.000,4709.3650,N,00138.2777,W,1,05,1.66,4.0,M,48.7,M,,*78

$GPGLL,4709.3650,N,00138.2777,W,145945.000,A,A*46

$GPGSA,A,3,10,18,27,08,16,,,,,,,,1.91,1.66,0.96*07

$GPGSV,4,1,13,27,75,095,14,08,64,305,19,10,56,094,19,18,37,058,17*75

$GPGSV,4,2,13,16,34,177,18,11,24,268,15,21,13,067,,01,13,248,*76

$GPGSV,4,3,13,07,12,280,,30,10,314,,26,09,167,,15,04,029,*70

$GPGSV,4,4,13,32,03,126,*4C

$GPRMC,145945.000,A,4709.3650,N,00138.2777,W,0.78,326.68,180717,,,A*7F

$GPVTG,326.68,T,,M,0.78,N,1.45,K,A*3B

$GPGGA,145946.000,4709.3656,N,00138.2785,W,1,05,1.66,3.9,M,48.7,M,,*7E

$GPGLL,4709.3656,N,00138.2785,W,145946.000,A,A*4E

$GPGSA,A,3,10,18,27,08,16,,,,,,,,1.91,1.66,0.96*07

$GPGSV,4,1,13,27,75,095,15,08,64,305,19,10,56,094,19,18,37,058,18*7B

$GPGSV,4,2,13,16,34,177,18,11,24,268,15,21,13,067,,01,13,248,*76

$GPGSV,4,3,13,07,12,280,,30,10,314,,26,09,167,,15,04,029,*70

$GPGSV,4,4,13,32,03,126,*4C

$GPRMC,145946.000,A,4709.3656,N,00138.2785,W,0.86,325.29,180717,,,A*70

$GPVTG,325.29,T,,M,0.86,N,1.59,K,A*31

$GPGGA,145947.000,4709.3662,N,00138.2788,W,1,05,1.66,3.8,M,48.7,M,,*74

$GPGLL,4709.3662,N,00138.2788,W,145947.000,A,A*45

$GPGSA,A,3,10,18,27,08,16,,,,,,,,1.91,1.66,0.96*07

$GPGSV,4,1,13,27,75,095,15,08,64,305,19,10,56,094,19,18,37,058,18*7B

$GPGSV,4,2,13,16,34,177,18,11,24,268,14,21,13,067,,01,13,248,*77

$GPGSV,4,3,13,07,12,280,,30,10,314,,26,09,167,,15,04,029,*70

$GPGSV,4,4,13,32,03,126,*4C

$GPRMC,145947.000,A,4709.3662,N,00138.2788,W,0.91,328.68,180717,,,A*75

$GPVTG,328.68,T,,M,0.91,N,1.70,K,A*34

$GPGGA,145948.000,4709.3665,N,00138.2792,W,1,05,1.66,4.1,M,48.7,M,,*79

$GPGLL,4709.3665,N,00138.2792,W,145948.000,A,A*46

$GPGSA,A,3,10,18,27,08,16,,,,,,,,1.91,1.66,0.96*07

$GPGSV,4,1,13,27,75,095,16,08,64,305,19,10,56,094,19,18,37,058,18*78

$GPGSV,4,2,13,16,34,177,17,11,24,268,14,21,13,067,,01,13,248,*78

$GPGSV,4,3,13,07,12,280,,30,10,314,,26,09,167,,15,04,029,*70

$GPGSV,4,4,13,32,03,126,*4C

$GPRMC,145948.000,A,4709.3665,N,00138.2792,W,0.93,328.48,180717,,,A*76

$GPVTG,328.48,T,,M,0.93,N,1.72,K,A*36

$GPGGA,145949.000,4709.3670,N,00138.2792,W,1,05,1.66,3.9,M,48.7,M,,*73

$GPGLL,4709.3670,N,00138.2792,W,145949.000,A,A*43

$GPGSA,A,3,10,18,27,08,16,,,,,,,,1.91,1.66,0.96*07

$GPGSV,4,1,13,27,75,095,17,08,64,305,19,10,56,094,19,18,37,058,18*79

$GPGSV,4,2,13,16,34,177,17,11,24,268,15,21,13,067,,01,13,248,*79

$GPGSV,4,3,13,07,12,280,,30,10,314,,26,09,167,,15,04,029,*70

$GPGSV,4,4,13,32,03,126,*4C

$GPRMC,145949.000,A,4709.3670,N,00138.2792,W,0.95,331.67,180717,,,A*70

$GPVTG,331.67,T,,M,0.95,N,1.76,K,A*31

$GPGGA,145950.000,4709.3675,N,00138.2795,W,1,05,1.66,3.9,M,48.7,M,,*79

$GPGLL,4709.3675,N,00138.2795,W,145950.000,A,A*49

$GPGSA,A,3,10,18,27,08,16,,,,,,,,1.91,1.66,0.96*07

$GPGSV,4,1,13,27,75,095,16,08,64,305,19,10,56,094,19,18,37,058,18*78

$GPGSV,4,2,13,16,34,177,17,11,24,268,15,21,13,067,,01,13,248,*79

$GPGSV,4,3,13,07,12,280,,30,10,314,,26,09,167,,15,04,029,*70

$GPGSV,4,4,13,32,03,126,*4C

$GPRMC,145950.000,A,4709.3675,N,00138.2795,W,0.99,333.60,180717,,,A*73

$GPVTG,333.60,T,,M,0.99,N,1.83,K,A*32

$GPGGA,145951.000,4709.3677,N,00138.2798,W,1,05,1.66,3.8,M,48.7,M,,*76

$GPGLL,4709.3677,N,00138.2798,W,145951.000,A,A*47

$GPGSA,A,3,10,18,27,08,16,,,,,,,,1.91,1.66,0.96*07

$GPGSV,4,1,13,27,75,095,15,08,64,305,18,10,56,094,18,18,37,058,18*7B

$GPGSV,4,2,13,16,34,177,17,11,24,268,15,21,13,067,,01,13,248,*79

$GPGSV,4,3,13,07,12,280,,30,10,314,,26,09,167,,15,04,029,*70

$GPGSV,4,4,13,32,03,126,*4C

$GPRMC,145951.000,A,4709.3677,N,00138.2798,W,0.97,332.43,180717,,,A*73

$GPVTG,332.43,T,,M,0.97,N,1.80,K,A*3F

$GPGGA,145952.000,4709.3680,N,00138.2800,W,1,05,1.66,3.7,M,48.7,M,,*7C

$GPGLL,4709.3680,N,00138.2800,W,145952.000,A,A*42

$GPGSA,A,3,10,18,27,08,16,,,,,,,,1.91,1.66,0.96*07

$GPGSV,4,1,13,27,75,095,17,08,64,305,17,10,56,094,18,18,37,058,18*76

$GPGSV,4,2,13,16,34,177,17,11,24,268,15,21,13,067,,01,13,248,*79

$GPGSV,4,3,13,07,12,280,,30,10,314,,26,09,167,,15,04,029,*70

$GPGSV,4,4,13,32,03,126,*4C

$GPRMC,145952.000,A,4709.3680,N,00138.2800,W,0.91,331.95,180717,,,A*78

$GPVTG,331.95,T,,M,0.91,N,1.68,K,A*37

$GPGGA,145953.000,4709.3685,N,00138.2818,W,1,06,1.27,3.3,M,48.7,M,,*73

$GPGLL,4709.3685,N,00138.2818,W,145953.000,A,A*4F

$GPGSA,A,3,07,10,18,27,08,16,,,,,,,1.55,1.27,0.88*02

$GPGSV,4,1,13,27,75,095,16,08,64,305,17,10,56,094,17,18,37,058,18*78

$GPGSV,4,2,13,16,34,177,17,11,24,268,15,21,13,067,,01,13,248,*79

$GPGSV,4,3,13,07,12,280,14,30,10,314,,26,09,167,,15,04,029,*75

$GPGSV,4,4,13,32,03,126,*4C

$GPRMC,145953.000,A,4709.3685,N,00138.2818,W,0.99,325.88,180717,,,A*74

$GPVTG,325.88,T,,M,0.99,N,1.84,K,A*34

$GPGGA,145954.000,4709.3689,N,00138.2832,W,1,06,1.27,2.9,M,48.7,M,,*7B

$GPGLL,4709.3689,N,00138.2832,W,145954.000,A,A*4C

$GPGSA,A,3,07,10,18,27,08,16,,,,,,,1.55,1.27,0.88*02

$GPGSV,4,1,13,27,75,095,15,08,64,305,16,10,56,094,17,18,37,058,18*7A

$GPGSV,4,2,13,16,34,177,17,11,24,268,14,21,13,067,,01,13,248,*78

$GPGSV,4,3,13,07,12,280,13,30,10,314,,26,09,167,,15,04,029,*72

$GPGSV,4,4,13,32,03,126,*4C

$GPRMC,145954.000,A,4709.3689,N,00138.2832,W,1.08,320.64,180717,,,A*79

$GPVTG,320.64,T,,M,1.08,N,2.01,K,A*34

$GPGGA,145955.000,4709.3695,N,00138.2841,W,1,06,1.27,2.4,M,48.7,M,,*7E

$GPGLL,4709.3695,N,00138.2841,W,145955.000,A,A*44

$GPGSA,A,3,07,10,18,27,08,16,,,,,,,1.55,1.27,0.88*02

$GPGSV,4,1,13,27,75,095,15,08,64,305,16,10,56,093,17,18,37,058,18*7D

$GPGSV,4,2,13,16,34,177,17,11,24,268,14,21,13,067,,01,13,248,*78

$GPGSV,4,3,13,07,12,280,15,30,10,314,,26,09,167,,15,04,029,*74

$GPGSV,4,4,13,32,03,126,*4C

$GPRMC,145955.000,A,4709.3695,N,00138.2841,W,1.18,319.78,180717,,,A*77

$GPVTG,319.78,T,,M,1.18,N,2.18,K,A*3A

$GPGGA,145956.000,4709.3693,N,00138.2832,W,1,06,1.27,2.1,M,48.7,M,,*7A

$GPGLL,4709.3693,N,00138.2832,W,145956.000,A,A*45

$GPGSA,A,3,07,10,18,27,08,16,,,,,,,1.55,1.27,0.88*02

$GPGSV,4,1,13,27,75,095,17,08,64,305,17,10,56,093,17,18,37,058,18*7E

$GPGSV,4,2,13,16,34,177,17,11,24,268,14,21,13,067,,01,13,248,*78

$GPGSV,4,3,13,07,12,280,15,30,10,314,,26,09,167,,15,04,029,*74

$GPGSV,4,4,13,32,03,126,*4C

$GPRMC,145956.000,A,4709.3693,N,00138.2832,W,1.03,323.50,180717,,,A*7F

$GPVTG,323.50,T,,M,1.03,N,1.92,K,A*32

$GPGGA,145957.000,4709.3690,N,00138.2824,W,1,06,1.27,1.9,M,48.7,M,,*74

$GPGLL,4709.3690,N,00138.2824,W,145957.000,A,A*40

$GPGSA,A,3,07,10,18,27,08,16,,,,,,,1.55,1.27,0.88*02

$GPGSV,4,1,13,27,75,095,16,08,64,305,17,10,56,093,17,18,37,058,18*7F

$GPGSV,4,2,13,16,34,177,17,11,24,268,14,21,13,067,,01,13,248,*78

$GPGSV,4,3,13,07,12,280,15,30,10,314,,26,09,167,,15,04,029,*74

$GPGSV,4,4,13,32,03,126,*4C

$GPRMC,145957.000,A,4709.3690,N,00138.2824,W,0.89,327.55,180717,,,A*78

$GPVTG,327.55,T,,M,0.89,N,1.64,K,A*39

$GPGGA,145958.000,4709.3687,N,00138.2817,W,1,06,1.27,1.7,M,48.7,M,,*73

$GPGLL,4709.3687,N,00138.2817,W,145958.000,A,A*49

$GPGSA,A,3,07,10,18,27,08,16,,,,,,,1.55,1.27,0.88*02

$GPGSV,4,1,13,27,75,095,16,08,64,305,16,10,56,093,17,18,37,058,18*7E

$GPGSV,4,2,13,16,34,177,17,11,24,268,14,21,13,067,,01,13,248,*78

$GPGSV,4,3,13,07,12,280,15,30,10,314,,26,09,167,,15,04,029,*74

$GPGSV,4,4,13,32,03,126,*4C

$GPRMC,145958.000,A,4709.3687,N,00138.2817,W,0.75,332.17,180717,,,A*70

$GPVTG,332.17,T,,M,0.75,N,1.39,K,A*30

$GPGGA,145959.000,4709.3683,N,00138.2809,W,1,06,1.27,1.4,M,48.7,M,,*7A

$GPGLL,4709.3683,N,00138.2809,W,145959.000,A,A*43

$GPGSA,A,3,07,10,18,27,08,16,,,,,,,1.55,1.27,0.88*02

$GPGSV,4,1,13,27,75,095,18,08,64,305,17,10,56,093,18,18,37,058,18*7E

$GPGSV,4,2,13,16,34,177,18,11,24,268,15,21,13,067,,01,13,248,*76

$GPGSV,4,3,13,07,12,280,15,30,10,314,,26,09,167,,15,04,029,*74

$GPGSV,4,4,13,32,03,126,*4C

$GPRMC,145959.000,A,4709.3683,N,00138.2809,W,0.56,342.30,180717,,,A*79

$GPVTG,342.30,T,,M,0.56,N,1.03,K,A*3A

$GPGGA,150000.000,4709.3681,N,00138.2806,W,1,07,1.17,1.2,M,48.7,M,,*72

$GPGLL,4709.3681,N,00138.2806,W,150000.000,A,A*4F

$GPGSA,A,3,07,10,21,18,27,08,16,,,,,,1.42,1.17,0.80*0C

$GPGSV,4,1,13,27,75,095,18,08,64,305,18,10,56,093,19,18,37,058,18*70

$GPGSV,4,2,13,16,34,177,19,11,24,268,15,21,13,067,17,01,13,248,*71

$GPGSV,4,3,13,07,12,280,15,30,10,314,,26,09,167,,15,04,028,*75

$GPGSV,4,4,13,32,03,126,*4C

$GPRMC,150000.000,A,4709.3681,N,00138.2806,W,0.48,346.98,180717,,,A*7C

$GPVTG,346.98,T,,M,0.48,N,0.88,K,A*31

$GPGGA,150001.000,4709.3677,N,00138.2801,W,1,07,1.18,1.1,M,48.7,M,,*71

$GPGLL,4709.3677,N,00138.2801,W,150001.000,A,A*40

$GPGSA,A,3,07,10,21,18,27,08,16,,,,,,1.79,1.18,1.35*04

$GPGSV,4,1,13,27,75,095,18,08,64,305,19,10,56,093,19,18,37,058,18*71

$GPGSV,4,2,13,16,34,177,19,11,24,268,15,21,13,067,14,01,13,248,*72

$GPGSV,4,3,13,07,12,280,15,30,10,314,,26,09,167,,15,04,028,*75

$GPGSV,4,4,13,32,03,126,*4C

$GPRMC,150001.000,A,4709.3677,N,00138.2801,W,0.37,356.39,180717,,,A*71

$GPVTG,356.39,T,,M,0.37,N,0.68,K,A*3D

$GPGGA,150002.000,4709.3674,N,00138.2798,W,1,07,1.18,1.0,M,48.7,M,,*7F

$GPGLL,4709.3674,N,00138.2798,W,150002.000,A,A*4F

$GPGSA,A,3,07,10,21,18,27,08,16,,,,,,1.79,1.18,1.35*04

$GPGSV,4,1,13,27,75,095,18,08,64,305,20,10,56,093,19,18,37,058,18*7B

$GPGSV,4,2,13,16,34,177,19,11,24,268,15,21,13,067,13,01,13,248,*75

$GPGSV,4,3,13,07,12,280,15,30,10,314,,26,09,167,,15,04,028,*75

$GPGSV,4,4,13,32,03,126,*4C

$GPRMC,150002.000,A,4709.3674,N,00138.2798,W,0.32,2.35,180717,,,A*75

$GPVTG,2.35,T,,M,0.32,N,0.59,K,A*34

$GPGGA,150003.000,4709.3675,N,00138.2798,W,1,07,1.18,0.9,M,48.7,M,,*77

$GPGLL,4709.3675,N,00138.2798,W,150003.000,A,A*4F

$GPGSA,A,3,07,10,21,18,27,08,16,,,,,,1.79,1.18,1.35*04

$GPGSV,4,1,13,27,75,095,18,08,64,305,20,10,56,093,19,18,36,058,18*7A

$GPGSV,4,2,13,16,34,177,19,11,24,268,16,21,13,067,13,01,13,248,*76

$GPGSV,4,3,13,07,12,280,15,30,10,314,,26,09,167,,15,04,028,*75

$GPGSV,4,4,13,32,03,126,*4C

$GPRMC,150003.000,A,4709.3675,N,00138.2798,W,0.28,8.27,180717,,,A*77

$GPVTG,8.27,T,,M,0.28,N,0.53,K,A*3C

$GPGGA,150004.000,4709.3676,N,00138.2798,W,1,07,1.18,0.9,M,48.7,M,,*73

$GPGLL,4709.3676,N,00138.2798,W,150004.000,A,A*4B

$GPGSA,A,3,07,10,21,18,27,08,16,,,,,,1.79,1.18,1.35*04

$GPGSV,4,1,13,27,75,095,18,08,64,305,20,10,56,093,19,18,36,058,18*7A

$GPGSV,4,2,13,16,34,177,19,11,24,268,16,21,13,067,13,01,13,248,*76

$GPGSV,4,3,13,07,12,280,15,30,10,314,,26,09,167,,15,04,028,*75

$GPGSV,4,4,13,32,03,126,*4C

$GPRMC,150004.000,A,4709.3676,N,00138.2798,W,0.25,13.19,180717,,,A*49

$GPVTG,13.19,T,,M,0.25,N,0.46,K,A*02

$GPGGA,150005.000,4709.3677,N,00138.2798,W,1,08,0.97,0.9,M,48.7,M,,*7A

$GPGLL,4709.3677,N,00138.2798,W,150005.000,A,A*4B

$GPGSA,A,3,07,26,10,21,18,27,08,16,,,,,1.53,0.97,1.18*01

$GPGSV,4,1,13,27,75,095,18,08,64,305,20,10,56,093,19,18,36,058,18*7A

$GPGSV,4,2,13,16,34,177,19,11,24,268,15,21,13,067,14,01,13,248,*72

$GPGSV,4,3,13,07,12,280,15,30,10,314,,26,09,167,15,15,04,028,*71

$GPGSV,4,4,13,32,03,126,*4C

$GPRMC,150005.000,A,4709.3677,N,00138.2798,W,0.18,21.05,180717,,,A*4B

$GPVTG,21.05,T,,M,0.18,N,0.34,K,A*05

$GPGGA,150006.000,4709.3677,N,00138.2797,W,1,08,0.96,0.9,M,48.7,M,,*77

$GPGLL,4709.3677,N,00138.2797,W,150006.000,A,A*47

$GPGSA,A,3,07,26,10,21,18,27,08,16,,,,,1.22,0.96,0.76*0F

$GPGSV,4,1,13,27,75,095,18,08,64,305,20,10,56,093,19,18,36,058,18*7A

$GPGSV,4,2,13,16,34,177,19,11,24,268,15,21,13,067,16,01,13,248,*70

$GPGSV,4,3,13,07,12,280,15,30,10,314,,26,09,167,14,15,04,028,*70

$GPGSV,4,4,13,32,03,126,*4C

$GPRMC,150006.000,A,4709.3677,N,00138.2797,W,0.07,23.12,180717,,,A*4D

$GPVTG,23.12,T,,M,0.07,N,0.12,K,A*0B

$GPGGA,150007.000,4709.3677,N,00138.2797,W,1,08,0.96,0.9,M,48.7,M,,*76

$GPGLL,4709.3677,N,00138.2797,W,150007.000,A,A*46

$GPGSA,A,3,07,26,10,21,18,27,08,16,,,,,1.22,0.96,0.76*0F

$GPGSV,4,1,13,27,75,095,18,08,64,305,21,10,56,093,19,18,36,058,18*7B

$GPGSV,4,2,13,16,34,177,20,11,24,268,15,21,13,067,16,01,13,248,*7A

$GPGSV,4,3,13,07,12,280,15,30,10,314,,26,09,167,12,15,04,028,*76

$GPGSV,4,4,13,32,03,126,*4C

$GPRMC,150007.000,A,4709.3677,N,00138.2797,W,0.05,206.58,180717,,,A*75

$GPVTG,206.58,T,,M,0.05,N,0.09,K,A*38

$GPGGA,150008.000,4709.3677,N,00138.2797,W,1,08,0.96,0.9,M,48.7,M,,*79

$GPGLL,4709.3677,N,00138.2797,W,150008.000,A,A*49

$GPGSA,A,3,07,26,10,21,18,27,08,16,,,,,1.23,0.96,0.76*0E

$GPGSV,4,1,13,27,75,095,18,08,64,305,23,10,56,093,19,18,36,058,19*78

$GPGSV,4,2,13,16,34,177,20,11,24,268,15,21,13,067,14,01,13,248,*78

$GPGSV,4,3,13,07,12,280,15,30,10,314,,26,09,167,13,15,04,028,*77

$GPGSV,4,4,13,32,03,126,*4C

$GPRMC,150008.000,A,4709.3677,N,00138.2797,W,0.11,209.43,180717,,,A*7A

$GPVTG,209.43,T,,M,0.11,N,0.20,K,A*33

$GPGGA,150009.000,4709.3677,N,00138.2798,W,1,08,0.96,0.9,M,48.7,M,,*77

$GPGLL,4709.3677,N,00138.2798,W,150009.000,A,A*47

$GPGSA,A,3,07,26,10,21,18,27,08,16,,,,,1.22,0.96,0.76*0F

$GPGSV,4,1,13,27,75,095,18,08,64,305,20,10,56,093,18,18,36,058,19*7A

$GPGSV,4,2,13,16,34,177,20,11,24,268,15,21,13,067,12,01,13,248,*7E

$GPGSV,4,3,13,07,12,280,14,30,10,314,,26,09,167,13,15,04,028,*76

$GPGSV,4,4,13,32,03,126,*4C

$GPRMC,150009.000,A,4709.3677,N,00138.2798,W,0.17,199.54,180717,,,A*7E

$GPVTG,199.54,T,,M,0.17,N,0.31,K,A*39

$GPGGA,150010.000,4709.3676,N,00138.2798,W,1,08,0.96,0.9,M,48.7,M,,*7E

$GPGLL,4709.3676,N,00138.2798,W,150010.000,A,A*4E

$GPGSA,A,3,07,26,10,21,18,27,08,16,,,,,1.22,0.96,0.76*0F

$GPGSV,4,1,13,27,75,095,18,08,64,305,22,10,56,093,18,18,36,058,19*78

$GPGSV,4,2,13,16,34,177,19,11,24,268,15,21,13,067,12,01,13,248,*74

$GPGSV,4,3,13,07,12,280,14,30,10,314,,26,09,167,14,15,04,028,*71

$GPGSV,4,4,13,32,03,126,*4C

$GPRMC,150010.000,A,4709.3676,N,00138.2798,W,0.18,172.90,180717,,,A*75

$GPVTG,172.90,T,,M,0.18,N,0.33,K,A*39

$GPGGA,150011.000,4709.3676,N,00138.2798,W,1,08,0.96,0.9,M,48.7,M,,*7F

$GPGLL,4709.3676,N,00138.2798,W,150011.000,A,A*4F

$GPGSA,A,3,07,26,10,21,18,27,08,16,,,,,1.22,0.96,0.76*0F

$GPGSV,4,1,13,27,75,095,18,08,64,305,23,10,56,093,18,18,36,058,19*79

$GPGSV,4,2,13,16,34,177,20,11,24,268,15,21,13,067,14,01,13,248,*78

$GPGSV,4,3,13,07,12,280,15,30,10,314,,26,08,167,14,15,04,028,*71

$GPGSV,4,4,13,32,03,126,*4C

$GPRMC,150011.000,A,4709.3676,N,00138.2798,W,0.16,182.41,180717,,,A*79

$GPVTG,182.41,T,,M,0.16,N,0.30,K,A*37

$GPGGA,150012.000,4709.3675,N,00138.2798,W,1,08,0.96,0.9,M,48.7,M,,*7F

$GPGLL,4709.3675,N,00138.2798,W,150012.000,A,A*4F

$GPGSA,A,3,07,26,10,21,18,27,08,16,,,,,1.23,0.96,0.76*0E

$GPGSV,4,1,13,27,74,095,18,08,64,305,23,10,56,093,18,18,36,058,19*78

$GPGSV,4,2,13,16,34,177,20,11,24,268,15,21,13,067,15,01,13,248,*79

$GPGSV,4,3,13,07,12,280,16,30,10,314,,26,08,167,14,15,04,028,*72

$GPGSV,4,4,13,32,03,126,*4C

$GPRMC,150012.000,A,4709.3675,N,00138.2798,W,0.10,175.15,180717,,,A*76

$GPVTG,175.15,T,,M,0.10,N,0.19,K,A*33

$GPGGA,150013.000,4709.3675,N,00138.2798,W,1,08,0.96,0.9,M,48.7,M,,*7E

$GPGLL,4709.3675,N,00138.2798,W,150013.000,A,A*4E

$GPGSA,A,3,07,26,10,21,18,27,08,16,,,,,1.23,0.96,0.76*0E

$GPGSV,4,1,13,27,74,095,18,08,64,305,19,10,56,093,18,18,36,058,19*71

$GPGSV,4,2,13,16,34,177,19,11,24,268,15,21,13,067,14,01,13,248,*72

$GPGSV,4,3,13,07,12,280,13,30,10,314,,26,08,167,13,15,04,028,*70

$GPGSV,4,4,13,32,03,126,*4C

$GPRMC,150013.000,A,4709.3675,N,00138.2798,W,0.12,180.15,180717,,,A*7F

$GPVTG,180.15,T,,M,0.12,N,0.23,K,A*32

$GPGGA,150014.000,4709.3675,N,00138.2798,W,1,08,0.96,0.9,M,48.7,M,,*79

$GPGLL,4709.3675,N,00138.2798,W,150014.000,A,A*49

$GPGSA,A,3,07,26,10,21,18,27,08,16,,,,,1.23,0.96,0.76*0E

$GPGSV,4,1,13,27,74,095,18,08,64,305,19,10,56,093,17,18,36,058,19*7E

$GPGSV,4,2,13,16,34,177,19,11,24,268,15,21,13,067,14,01,13,248,*72

$GPGSV,4,3,13,07,12,280,14,30,10,314,,26,08,167,11,15,04,028,*75

$GPGSV,4,4,13,32,03,126,*4C

$GPRMC,150014.000,A,4709.3675,N,00138.2798,W,0.15,185.96,180717,,,A*71

$GPVTG,185.96,T,,M,0.15,N,0.28,K,A*30

$GPGGA,150015.000,4709.3674,N,00138.2798,W,1,08,0.96,0.9,M,48.7,M,,*79

$GPGLL,4709.3674,N,00138.2798,W,150015.000,A,A*49

$GPGSA,A,3,07,26,10,21,18,27,08,16,,,,,1.23,0.96,0.76*0E

$GPGSV,4,1,13,27,74,095,17,08,64,305,19,10,56,093,17,18,36,058,19*71

$GPGSV,4,2,13,16,34,177,19,11,24,268,14,21,13,067,11,01,13,248,*76

$GPGSV,4,3,13,07,12,280,15,30,10,313,,26,08,167,12,15,04,028,13*72

$GPGSV,4,4,13,32,03,126,*4C

$GPRMC,150015.000,A,4709.3674,N,00138.2798,W,0.14,198.53,180717,,,A*75

$GPVTG,198.53,T,,M,0.14,N,0.26,K,A*3A

$GPGGA,150016.000,4709.3674,N,00138.2798,W,1,08,0.96,0.9,M,48.7,M,,*7A

$GPGLL,4709.3674,N,00138.2798,W,150016.000,A,A*4A

$GPGSA,A,3,07,26,10,21,18,27,08,16,,,,,1.23,0.96,0.76*0E

$GPGSV,4,1,13,27,74,095,17,08,64,305,19,10,56,093,17,18,36,058,18*70

$GPGSV,4,2,13,16,34,177,19,11,24,268,14,21,13,067,14,01,13,248,*73

$GPGSV,4,3,13,07,12,280,14,30,10,313,,26,08,167,12,15,04,028,11*71

$GPGSV,4,4,13,32,03,126,*4C

$GPRMC,150016.000,A,4709.3674,N,00138.2798,W,0.13,208.12,180717,,,A*7E

$GPVTG,208.12,T,,M,0.13,N,0.25,K,A*31

$GPGGA,150017.000,4709.3673,N,00138.2798,W,1,08,0.96,0.9,M,48.7,M,,*7C

$GPGLL,4709.3673,N,00138.2798,W,150017.000,A,A*4C

$GPGSA,A,3,07,26,10,21,18,27,08,16,,,,,1.22,0.96,0.76*0F

$GPGSV,4,1,13,27,74,095,16,08,64,305,19,10,56,093,16,18,36,058,18*70

$GPGSV,4,2,13,16,34,177,18,11,24,268,13,21,13,067,15,01,13,248,*74

$GPGSV,4,3,13,07,12,280,17,30,10,313,,26,08,167,12,15,04,028,11*72

$GPGSV,4,4,13,32,03,126,*4C

$GPRMC,150017.000,A,4709.3673,N,00138.2798,W,0.10,206.91,180717,,,A*7E

$GPVTG,206.91,T,,M,0.10,N,0.19,K,A*38

$GPGGA,150018.000,4709.3673,N,00138.2798,W,1,08,0.96,0.9,M,48.7,M,,*73

$GPGLL,4709.3673,N,00138.2798,W,150018.000,A,A*43

$GPGSA,A,3,07,26,10,21,18,27,08,16,,,,,1.22,0.96,0.76*0F

$GPGSV,4,1,13,27,74,095,16,08,64,305,19,10,56,093,16,18,36,058,18*70

$GPGSV,4,2,13,16,34,177,18,11,24,268,13,21,13,067,14,01,13,248,*75

$GPGSV,4,3,13,07,12,280,15,30,10,313,,26,08,167,15,15,04,028,12*74

$GPGSV,4,4,13,32,03,126,*4C

$GPRMC,150018.000,A,4709.3673,N,00138.2798,W,0.09,196.91,180717,,,A*73

$GPVTG,196.91,T,,M,0.09,N,0.17,K,A*34

$GPGGA,150019.000,4709.3673,N,00138.2799,W,1,08,0.96,0.9,M,48.7,M,,*73

$GPGLL,4709.3673,N,00138.2799,W,150019.000,A,A*43

$GPGSA,A,3,07,26,10,21,18,27,08,16,,,,,1.22,0.96,0.76*0F

$GPGSV,4,1,13,27,74,095,16,08,64,305,19,10,56,093,16,18,36,058,18*70

$GPGSV,4,2,13,16,34,177,18,11,24,268,13,21,13,067,13,01,13,248,*72

$GPGSV,4,3,13,07,12,280,14,30,10,313,,26,08,167,14,15,04,028,13*75

$GPGSV,4,4,13,32,03,126,*4C

$GPRMC,150019.000,A,4709.3673,N,00138.2799,W,0.08,240.34,180717,,,A*75

$GPVTG,240.34,T,,M,0.08,N,0.14,K,A*31

$GPGGA,150020.000,4709.3673,N,00138.2799,W,1,08,0.96,0.9,M,48.7,M,,*79

$GPGLL,4709.3673,N,00138.2799,W,150020.000,A,A*49

$GPGSA,A,3,07,26,10,21,18,27,08,16,,,,,1.22,0.96,0.76*0F

$GPGSV,4,1,13,27,74,095,16,08,64,305,19,10,56,093,16,18,36,058,18*70

$GPGSV,4,2,13,16,34,177,18,11,24,268,13,21,13,067,12,01,13,248,*73

$GPGSV,4,3,13,07,12,280,14,30,10,313,,26,08,167,14,15,04,028,14*72

$GPGSV,4,4,13,32,03,126,*4C

$GPRMC,150020.000,A,4709.3673,N,00138.2799,W,0.16,275.75,180717,,,A*73

$GPVTG,275.75,T,,M,0.16,N,0.30,K,A*3B

$GPGGA,150021.000,4709.3673,N,00138.2800,W,1,08,0.96,0.9,M,48.7,M,,*77

$GPGLL,4709.3673,N,00138.2800,W,150021.000,A,A*47

$GPGSA,A,3,07,26,10,21,18,27,08,16,,,,,1.22,0.96,0.76*0F

$GPGSV,4,1,13,27,74,095,16,08,64,305,20,10,56,093,16,18,36,058,18*7A

$GPGSV,4,2,13,16,34,177,18,11,24,268,13,21,13,067,11,01,13,248,*70

$GPGSV,4,3,13,07,12,280,16,30,10,313,,26,08,167,15,15,04,028,14*71

$GPGSV,4,4,13,32,03,126,*4C

$GPRMC,150021.000,A,4709.3673,N,00138.2800,W,0.22,280.66,180717,,,A*72

$GPVTG,280.66,T,,M,0.22,N,0.40,K,A*33

$GPGGA,150022.000,4709.3673,N,00138.2801,W,1,08,0.96,0.9,M,48.7,M,,*75

$GPGLL,4709.3673,N,00138.2801,W,150022.000,A,A*45

$GPGSA,A,3,07,26,10,21,18,27,08,16,,,,,1.22,0.96,0.76*0F

$GPGSV,4,1,13,27,74,095,16,08,64,305,19,10,56,093,15,18,36,058,18*73

$GPGSV,4,2,13,16,34,177,18,11,24,268,12,21,13,067,14,01,13,248,*74

$GPGSV,4,3,13,07,12,280,15,30,10,313,,26,08,167,14,15,04,028,14*73

$GPGSV,4,4,13,32,03,126,*4C

$GPRMC,150022.000,A,4709.3673,N,00138.2801,W,0.23,281.76,180717,,,A*71

$GPVTG,281.76,T,,M,0.23,N,0.43,K,A*31

$GPGGA,150023.000,4709.3673,N,00138.2802,W,1,08,0.96,0.9,M,48.7,M,,*77

$GPGLL,4709.3673,N,00138.2802,W,150023.000,A,A*47

$GPGSA,A,3,07,26,10,21,18,27,08,16,,,,,1.22,0.96,0.76*0F

$GPGSV,4,1,13,27,74,095,16,08,64,305,19,10,56,093,15,18,36,058,18*73

$GPGSV,4,2,13,16,34,177,18,11,24,268,12,21,13,067,15,01,13,248,*75

$GPGSV,4,3,13,07,12,280,15,30,10,313,,26,08,167,11,15,04,028,14*76

$GPGSV,4,4,13,32,03,126,*4C

$GPRMC,150023.000,A,4709.3673,N,00138.2802,W,0.20,301.37,180717,,,A*7C

$GPVTG,301.37,T,,M,0.20,N,0.38,K,A*32

$GPGGA,150024.000,4709.3674,N,00138.2802,W,1,08,0.96,0.9,M,48.7,M,,*77

$GPGLL,4709.3674,N,00138.2802,W,150024.000,A,A*47

$GPGSA,A,3,07,26,10,21,18,27,08,16,,,,,1.22,0.96,0.76*0F

$GPGSV,4,1,13,27,74,095,16,08,64,305,19,10,56,093,15,18,36,058,18*73

$GPGSV,4,2,13,16,34,177,18,11,24,268,12,21,13,067,16,01,13,248,*76

$GPGSV,4,3,13,07,12,280,16,30,10,313,,26,08,167,12,15,04,028,14*76

$GPGSV,4,4,13,32,03,126,*4C

$GPRMC,150024.000,A,4709.3674,N,00138.2802,W,0.20,295.96,180717,,,A*7B

$GPVTG,295.96,T,,M,0.20,N,0.37,K,A*3A

$GPGGA,150025.000,4709.3674,N,00138.2803,W,1,08,0.96,0.9,M,48.7,M,,*77

$GPGLL,4709.3674,N,00138.2803,W,150025.000,A,A*47

$GPGSA,A,3,07,26,10,21,18,27,08,16