,061,22*72

$GPGSV,3,2,12,16,38,177,24,11,21,266,,21,16,065,16,07,14,283,14*7F

$GPGSV,3,3,12,26,12,167,17,30,10,317,,01,10,246,,15,05,031,17*79

$GPRMC,145215.000,A,4709.3581,N,00138.2736,W,0.41,306.06,180717,,,A*7B

$GPVTG,306.06,T,,M,0.41,N,0.76,K,A*3A

$GPGGA,145216.000,4709.3582,N,00138.2737,W,1,08,0.96,55.9,M,48.7,M,,*43

$GPGLL,4709.3582,N,00138.2737,W,145216.000,A,A*43

$GPGSA,A,3,26,10,07,18,21,27,08,16,,,,,1.24,0.96,0.78*07

$GPGSV,3,1,12,27,78,085,23,08,61,304,21,10,56,100,21,18,39,061,22*71

$GPGSV,3,2,12,16,38,177,23,11,21,266,,21,16,065,16,07,14,283,15*79

$GPGSV,3,3,12,26,12,167,17,30,10,317,,01,10,246,,15,05,031,17*79

$GPRMC,145216.000,A,4709.3582,N,00138.2737,W,0.42,308.75,180717,,,A*73

$GPVTG,308.75,T,,M,0.42,N,0.78,K,A*3D

$GPGGA,145217.000,4709.3582,N,00138.2738,W,1,08,0.96,55.9,M,48.7,M,,*4D

$GPGLL,4709.3582,N,00138.2738,W,145217.000,A,A*4D

$GPGSA,A,3,26,10,07,18,21,27,08,16,,,,,1.24,0.96,0.78*07

$GPGSV,3,1,12,27,78,085,23,08,61,304,21,10,56,100,20,18,39,061,22*70

$GPGSV,3,2,12,16,38,177,23,11,21,266,,21,16,065,16,07,14,283,15*79

$GPGSV,3,3,12,26,12,167,17,30,10,317,,01,10,246,,15,05,031,17*79

$GPRMC,145217.000,A,4709.3582,N,00138.2738,W,0.48,301.96,180717,,,A*73

$GPVTG,301.96,T,,M,0.48,N,0.90,K,A*35

$GPGGA,145218.000,4709.3583,N,00138.2740,W,1,08,0.96,55.9,M,48.7,M,,*4C

$GPGLL,4709.3583,N,00138.2740,W,145218.000,A,A*4C

$GPGSA,A,3,26,10,07,18,21,27,08,16,,,,,1.24,0.96,0.78*07

$GPGSV,3,1,12,27,78,085,23,08,61,304,21,10,56,100,20,18,39,061,22*70

$GPGSV,3,2,12,16,38,177,23,11,21,266,,21,16,065,16,07,14,283,14*78

$GPGSV,3,3,12,26,12,167,17,30,10,317,,01,10,246,,15,05,031,17*79

$GPRMC,145218.000,A,4709.3583,N,00138.2740,W,0.48,304.15,180717,,,A*7C

$GPVTG,304.15,T,,M,0.48,N,0.89,K,A*33

$GPGGA,145219.000,4709.3584,N,00138.2742,W,1,08,0.96,55.9,M,48.7,M,,*48

$GPGLL,4709.3584,N,00138.2742,W,145219.000,A,A*48

$GPGSA,A,3,26,10,07,18,21,27,08,16,,,,,1.24,0.96,0.78*07

$GPGSV,3,1,12,27,78,085,23,08,61,304,22,10,56,100,20,18,39,061,21*70

$GPGSV,3,2,12,16,38,177,23,11,21,266,,21,16,065,16,07,14,283,15*79

$GPGSV,3,3,12,26,12,167,17,30,10,317,,01,10,246,,15,05,031,17*79

$GPRMC,145219.000,A,4709.3584,N,00138.2742,W,0.51,311.37,180717,,,A*74

$GPVTG,311.37,T,,M,0.51,N,0.95,K,A*32

$GPGGA,145220.000,4709.3585,N,00138.2743,W,1,08,0.96,55.9,M,48.7,M,,*42

$GPGLL,4709.3585,N,00138.2743,W,145220.000,A,A*42

$GPGSA,A,3,26,10,07,18,21,27,08,16,,,,,1.24,0.96,0.78*07

$GPGSV,3,1,12,27,78,085,23,08,61,304,22,10,56,100,21,18,39,061,21*71

$GPGSV,3,2,12,16,38,177,23,11,21,266,,21,16,065,14,07,14,283,14*7A

$GPGSV,3,3,12,26,12,167,17,30,10,317,,01,10,246,,15,05,031,17*79

$GPRMC,145220.000,A,4709.3585,N,00138.2743,W,0.55,317.04,180717,,,A*7C

$GPVTG,317.04,T,,M,0.55,N,1.03,K,A*3E

$GPGGA,145221.000,4709.3586,N,00138.2745,W,1,08,0.96,55.9,M,48.7,M,,*46

$GPGLL,4709.3586,N,00138.2745,W,145221.000,A,A*46

$GPGSA,A,3,26,10,07,18,21,27,08,16,,,,,1.24,0.96,0.78*07

$GPGSV,3,1,12,27,78,085,22,08,61,304,21,10,56,100,19,18,39,061,20*79

$GPGSV,3,2,12,16,38,177,22,11,22,266,,21,16,065,14,07,14,283,14*78

$GPGSV,3,3,12,26,12,167,17,30,10,317,,01,10,246,,15,05,031,17*79

$GPRMC,145221.000,A,4709.3586,N,00138.2745,W,0.56,324.66,180717,,,A*7F

$GPVTG,324.66,T,,M,0.56,N,1.03,K,A*39

$GPGGA,145222.000,4709.3587,N,00138.2746,W,1,08,0.96,55.9,M,48.7,M,,*47

$GPGLL,4709.3587,N,00138.2746,W,145222.000,A,A*47

$GPGSA,A,3,26,10,07,18,21,27,08,16,,,,,1.24,0.96,0.78*07

$GPGSV,3,1,12,27,78,085,22,08,61,304,21,10,56,100,20,18,39,061,20*73

$GPGSV,3,2,12,16,38,177,22,11,22,266,,21,16,065,14,07,14,283,14*78

$GPGSV,3,3,12,26,12,167,17,30,10,317,,01,10,246,,15,05,031,17*79

$GPRMC,145222.000,A,4709.3587,N,00138.2746,W,0.57,320.93,180717,,,A*71

$GPVTG,320.93,T,,M,0.57,N,1.06,K,A*33

$GPGGA,145223.000,4709.3589,N,00138.2748,W,1,08,0.96,55.9,M,48.7,M,,*46

$GPGLL,4709.3589,N,00138.2748,W,145223.000,A,A*46

$GPGSA,A,3,26,10,07,18,21,27,08,16,,,,,1.24,0.96,0.78*07

$GPGSV,3,1,12,27,78,085,22,08,61,304,20,10,56,100,19,18,39,061,20*78

$GPGSV,3,2,12,16,38,177,22,11,22,266,,21,16,065,15,07,14,283,16*7B

$GPGSV,3,3,12,26,12,167,17,30,10,317,,01,10,246,,15,05,031,17*79

$GPRMC,145223.000,A,4709.3589,N,00138.2748,W,0.57,316.26,180717,,,A*7B

$GPVTG,316.26,T,,M,0.57,N,1.06,K,A*38

$GPGGA,145224.000,4709.3590,N,00138.2749,W,1,08,0.96,55.9,M,48.7,M,,*48

$GPGLL,4709.3590,N,00138.2749,W,145224.000,A,A*48

$GPGSA,A,3,26,10,07,18,21,27,08,16,,,,,1.24,0.96,0.78*07

$GPGSV,3,1,12,27,78,085,23,08,61,304,21,10,56,100,19,18,39,061,20*78

$GPGSV,3,2,12,16,38,177,22,11,22,266,,21,16,065,12,07,14,283,13*79

$GPGSV,3,3,12,26,12,167,17,30,10,317,,01,10,246,,15,05,031,17*79

$GPRMC,145224.000,A,4709.3590,N,00138.2749,W,0.58,309.73,180717,,,A*74

$GPVTG,309.73,T,,M,0.58,N,1.07,K,A*38

$GPGGA,145225.000,4709.3591,N,00138.2751,W,1,08,0.96,55.9,M,48.7,M,,*41

$GPGLL,4709.3591,N,00138.2751,W,145225.000,A,A*41

$GPGSA,A,3,26,10,07,18,21,27,08,16,,,,,1.24,0.96,0.78*07

$GPGSV,3,1,12,27,78,085,23,08,61,304,21,10,56,100,20,18,39,061,20*72

$GPGSV,3,2,12,16,38,177,22,11,22,266,,21,16,065,16,07,14,283,15*7B

$GPGSV,3,3,12,26,12,167,17,30,10,317,,01,10,246,,15,05,031,17*79

$GPRMC,145225.000,A,4709.3591,N,00138.2751,W,0.63,304.58,180717,,,A*71

$GPVTG,304.58,T,,M,0.63,N,1.16,K,A*34

$GPGGA,145226.000,4709.3592,N,00138.2758,W,1,08,0.96,55.7,M,48.7,M,,*46

$GPGLL,4709.3592,N,00138.2758,W,145226.000,A,A*48

$GPGSA,A,3,26,10,07,18,21,27,08,16,,,,,1.24,0.96,0.78*07

$GPGSV,3,1,12,27,78,085,23,08,61,304,22,10,56,100,20,18,39,061,20*71

$GPGSV,3,2,12,16,38,177,22,11,22,266,,21,16,065,16,07,14,283,14*7A

$GPGSV,3,3,12,26,12,167,18,30,10,317,,01,10,246,,15,05,031,17*76

$GPRMC,145226.000,A,4709.3592,N,00138.2758,W,0.66,300.91,180717,,,A*7C

$GPVTG,300.91,T,,M,0.66,N,1.21,K,A*34

$GPGGA,145227.000,4709.3593,N,00138.2766,W,1,08,0.96,55.5,M,48.7,M,,*49

$GPGLL,4709.3593,N,00138.2766,W,145227.000,A,A*45

$GPGSA,A,3,26,10,07,18,21,27,08,16,,,,,1.24,0.96,0.78*07

$GPGSV,3,1,12,27,78,085,24,08,61,304,22,10,56,100,20,18,39,061,20*76

$GPGSV,3,2,12,16,38,177,22,11,22,266,,21,16,065,12,07,14,283,16*7C

$GPGSV,3,3,12,26,12,167,18,30,10,317,,01,10,246,,15,05,031,17*76

$GPRMC,145227.000,A,4709.3593,N,00138.2766,W,0.67,297.89,180717,,,A*76

$GPVTG,297.89,T,,M,0.67,N,1.24,K,A*36

$GPGGA,145228.000,4709.3593,N,00138.2774,W,1,08,0.96,55.4,M,48.7,M,,*44

$GPGLL,4709.3593,N,00138.2774,W,145228.000,A,A*49

$GPGSA,A,3,26,10,07,18,21,27,08,16,,,,,1.24,0.96,0.78*07

$GPGSV,3,1,12,27,78,085,24,08,61,304,22,10,56,100,21,18,39,061,20*77

$GPGSV,3,2,12,16,38,177,22,11,22,266,,21,16,065,17,07,14,283,15*7A

$GPGSV,3,3,12,26,12,167,18,30,10,317,,01,10,246,,15,05,031,17*76

$GPRMC,145228.000,A,4709.3593,N,00138.2774,W,0.68,294.55,180717,,,A*77

$GPVTG,294.55,T,,M,0.68,N,1.25,K,A*3A

$GPGGA,145229.000,4709.3595,N,00138.2780,W,1,08,0.96,55.2,M,48.7,M,,*4E

$GPGLL,4709.3595,N,00138.2780,W,145229.000,A,A*45

$GPGSA,A,3,26,10,07,18,21,27,08,16,,,,,1.24,0.96,0.78*07

$GPGSV,3,1,12,27,78,085,24,08,61,304,22,10,56,100,22,18,39,061,20*74

$GPGSV,3,2,12,16,38,177,22,11,22,266,,21,16,065,17,07,14,283,15*7A

$GPGSV,3,3,12,26,12,167,18,30,10,317,,01,10,246,,15,05,031,17*76

$GPRMC,145229.000,A,4709.3595,N,00138.2780,W,0.70,298.36,180717,,,A*7B

$GPVTG,298.36,T,,M,0.70,N,1.29,K,A*36

$GPGGA,145230.000,4709.3596,N,00138.2786,W,1,08,0.96,55.1,M,48.7,M,,*40

$GPGLL,4709.3596,N,00138.2786,W,145230.000,A,A*48

$GPGSA,A,3,26,10,07,18,21,27,08,16,,,,,1.24,0.96,0.78*07

$GPGSV,3,1,12,27,78,085,24,08,61,304,22,10,56,100,22,18,39,061,20*74

$GPGSV,3,2,12,16,38,177,22,11,22,266,,21,16,065,17,07,14,283,16*79

$GPGSV,3,3,12,26,12,167,18,30,10,317,,01,10,246,,15,05,031,17*76

$GPRMC,145230.000,A,4709.3596,N,00138.2786,W,0.69,296.46,180717,,,A*77

$GPVTG,296.46,T,,M,0.69,N,1.28,K,A*36

$GPGGA,145231.000,4709.3597,N,00138.2793,W,1,08,0.96,55.0,M,48.7,M,,*45

$GPGLL,4709.3597,N,00138.2793,W,145231.000,A,A*4C

$GPGSA,A,3,26,10,07,18,21,27,08,16,,,,,1.24,0.96,0.78*07

$GPGSV,3,1,12,27,78,085,24,08,61,304,22,10,56,100,21,18,39,061,20*77

$GPGSV,3,2,12,16,38,177,22,11,22,266,,21,15,065,17,07,14,283,13*7F

$GPGSV,3,3,12,26,12,167,18,30,10,317,,01,10,246,,15,05,031,17*76

$GPRMC,145231.000,A,4709.3597,N,00138.2793,W,0.70,297.42,180717,,,A*7E

$GPVTG,297.42,T,,M,0.70,N,1.30,K,A*32

$GPGGA,145232.000,4709.3598,N,00138.2799,W,1,08,0.96,54.9,M,48.7,M,,*4B

$GPGLL,4709.3598,N,00138.2799,W,145232.000,A,A*4A

$GPGSA,A,3,26,10,07,18,21,27,08,16,,,,,1.24,0.96,0.78*07

$GPGSV,3,1,12,27,78,085,24,08,61,304,23,10,56,100,21,18,39,061,19*7C

$GPGSV,3,2,12,16,38,177,22,11,22,266,,21,15,065,17,07,14,283,13*7F

$GPGSV,3,3,12,26,12,167,17,30,10,317,,01,10,246,,15,05,031,17*79

$GPRMC,145232.000,A,4709.3598,N,00138.2799,W,0.67,297.12,180717,,,A*7B

$GPVTG,297.12,T,,M,0.67,N,1.24,K,A*34

$GPGGA,145233.000,4709.3598,N,00138.2805,W,1,08,0.96,54.8,M,48.7,M,,*41

$GPGLL,4709.3598,N,00138.2805,W,145233.000,A,A*41

$GPGSA,A,3,26,10,07,18,21,27,08,16,,,,,1.24,0.96,0.78*07

$GPGSV,3,1,12,27,78,085,24,08,61,304,23,10,56,100,21,18,39,061,19*7C

$GPGSV,3,2,12,16,38,177,22,11,22,266,,21,15,065,16,07,14,283,16*7B

$GPGSV,3,3,12,26,12,167,17,30,10,317,,01,10,246,,15,05,031,17*79

$GPRMC,145233.000,A,4709.3598,N,00138.2805,W,0.64,294.25,180717,,,A*74

$GPVTG,294.25,T,,M,0.64,N,1.18,K,A*3F

$GPGGA,145234.000,4709.3599,N,00138.2812,W,1,08,0.96,54.7,M,48.7,M,,*4E

$GPGLL,4709.3599,N,00138.2812,W,145234.000,A,A*41

$GPGSA,A,3,26,10,07,18,21,27,08,16,,,,,1.24,0.96,0.78*07

$GPGSV,3,1,12,27,78,085,24,08,61,304,22,10,56,100,21,18,39,061,19*7D

$GPGSV,3,2,12,16,38,177,22,11,22,266,,21,15,065,16,07,14,283,16*7B

$GPGSV,3,3,12,26,12,167,17,30,10,317,,01,10,246,,15,05,031,17*79

$GPRMC,145234.000,A,4709.3599,N,00138.2812,W,0.69,294.36,180717,,,A*7B

$GPVTG,294.36,T,,M,0.69,N,1.28,K,A*33

$GPGGA,145235.000,4709.3600,N,00138.2818,W,1,08,0.96,54.6,M,48.7,M,,*47

$GPGLL,4709.3600,N,00138.2818,W,145235.000,A,A*49

$GPGSA,A,3,26,10,07,18,21,27,08,16,,,,,1.24,0.96,0.78*07

$GPGSV,3,1,12,27,78,085,24,08,61,304,21,10,56,100,22,18,39,061,19*7D

$GPGSV,3,2,12,16,38,177,22,11,22,266,,21,15,065,15,07,14,283,14*7A

$GPGSV,3,3,12,26,12,167,17,30,10,317,,01,10,246,,15,05,031,17*79

$GPRMC,145235.000,A,4709.3600,N,00138.2818,W,0.71,294.13,180717,,,A*7D

$GPVTG,294.13,T,,M,0.71,N,1.32,K,A*36

$GPGGA,145236.000,4709.3600,N,00138.2823,W,1,08,0.96,54.5,M,48.7,M,,*4F

$GPGLL,4709.3600,N,00138.2823,W,145236.000,A,A*42

$GPGSA,A,3,26,10,07,18,21,27,08,16,,,,,1.24,0.96,0.78*07

$GPGSV,3,1,12,27,78,085,24,08,61,304,21,10,56,100,22,18,39,061,19*7D

$GPGSV,3,2,12,16,38,177,22,11,22,266,,21,15,065,14,07,14,283,14*7B

$GPGSV,3,3,12,26,12,167,17,30,10,317,,01,10,246,,15,05,031,17*79

$GPRMC,145236.000,A,4709.3600,N,00138.2823,W,0.66,292.82,180717,,,A*7E

$GPVTG,292.82,T,,M,0.66,N,1.22,K,A*3F

$GPGGA,145237.000,4709.3600,N,00138.2827,W,1,08,0.96,54.5,M,48.7,M,,*4A

$GPGLL,4709.3600,N,00138.2827,W,145237.000,A,A*47

$GPGSA,A,3,26,10,07,18,21,27,08,16,,,,,1.24,0.96,0.78*07

$GPGSV,3,1,12,27,77,085,25,08,61,304,21,10,56,100,22,18,39,061,19*73

$GPGSV,3,2,12,16,38,177,22,11,22,266,,21,15,065,15,07,14,283,15*7B

$GPGSV,3,3,12,26,12,167,17,30,10,317,,01,10,246,,15,05,031,17*79

$GPRMC,145237.000,A,4709.3600,N,00138.2827,W,0.61,288.18,180717,,,A*74

$GPVTG,288.18,T,,M,0.61,N,1.13,K,A*32

$GPGGA,145238.000,4709.3601,N,00138.2831,W,1,08,0.96,54.5,M,48.7,M,,*43

$GPGLL,4709.3601,N,00138.2831,W,145238.000,A,A*4E

$GPGSA,A,3,26,10,07,18,21,27,08,16,,,,,1.24,0.96,0.78*07

$GPGSV,3,1,12,27,77,085,25,08,61,304,21,10,56,100,22,18,39,061,19*73

$GPGSV,3,2,12,16,38,177,22,11,22,266,,21,15,065,12,07,14,283,13*7A

$GPGSV,3,3,12,26,12,167,17,30,10,317,,01,10,246,,15,05,031,17*79

$GPRMC,145238.000,A,4709.3601,N,00138.2831,W,0.62,286.44,180717,,,A*79

$GPVTG,286.44,T,,M,0.62,N,1.14,K,A*31

$GPGGA,145239.000,4709.3601,N,00138.2836,W,1,08,0.96,54.4,M,48.7,M,,*44

$GPGLL,4709.3601,N,00138.2836,W,145239.000,A,A*48

$GPGSA,A,3,26,10,07,18,21,27,08,16,,,,,1.24,0.96,0.78*07

$GPGSV,3,1,12,27,77,085,24,08,61,304,22,10,56,100,23,18,39,061,19*70

$GPGSV,3,2,12,16,38,177,22,11,22,266,,21,15,065,12,07,14,283,16*7F

$GPGSV,3,3,12,26,12,167,17,30,10,317,,01,10,246,,15,05,031,17*79

$GPRMC,145239.000,A,4709.3601,N,00138.2836,W,0.57,282.76,180717,,,A*7C

$GPVTG,282.76,T,,M,0.57,N,1.07,K,A*30

$GPGGA,145240.000,4709.3602,N,00138.2838,W,1,08,0.96,54.3,M,48.7,M,,*40

$GPGLL,4709.3602,N,00138.2838,W,145240.000,A,A*4B

$GPGSA,A,3,26,10,07,18,21,27,08,16,,,,,1.24,0.96,0.78*07

$GPGSV,3,1,12,27,77,085,25,08,61,304,21,10,56,100,23,18,39,061,19*72

$GPGSV,3,2,12,16,38,177,22,11,22,266,,21,15,065,12,07,14,283,16*7F

$GPGSV,3,3,12,26,12,167,17,30,10,316,,01,10,246,,15,05,031,17*78

$GPRMC,145240.000,A,4709.3602,N,00138.2838,W,0.53,285.69,180717,,,A*72

$GPVTG,285.69,T,,M,0.53,N,0.99,K,A*3B

$GPGGA,145241.000,4709.3601,N,00138.2841,W,1,08,0.96,54.3,M,48.7,M,,*4C

$GPGLL,4709.3601,N,00138.2841,W,145241.000,A,A*47

$GPGSA,A,3,26,10,07,18,21,27,08,16,,,,,1.24,0.96,0.78*07

$GPGSV,3,1,12,27,77,085,25,08,61,304,21,10,56,100,22,18,39,061,19*73

$GPGSV,3,2,12,16,38,177,22,11,22,266,,21,15,065,15,07,14,283,16*78

$GPGSV,3,3,12,26,12,167,17,30,10,316,,01,10,246,,15,05,031,17*78

$GPRMC,145241.000,A,4709.3601,N,00138.2841,W,0.53,284.59,180717,,,A*7C

$GPVTG,284.59,T,,M,0.53,N,0.98,K,A*38

$GPGGA,145242.000,4709.3601,N,00138.2847,W,1,08,0.96,54.2,M,48.7,M,,*48

$GPGLL,4709.3601,N,00138.2847,W,145242.000,A,A*42

$GPGSA,A,3,26,10,07,18,21,27,08,16,,,,,1.24,0.96,0.78*07

$GPGSV,4,1,13,27,77,085,25,08,61,304,21,10,56,100,22,18,39,061,19*75

$GPGSV,4,2,13,16,38,177,22,11,22,266,,21,15,065,15,07,14,283,13*7B

$GPGSV,4,3,13,26,12,167,17,30,10,316,,01,10,246,,15,05,031,17*7E

$GPGSV,4,4,13,32,01,128,*40

$GPRMC,145242.000,A,4709.3601,N,00138.2847,W,0.55,283.51,180717,,,A*70

$GPVTG,283.51,T,,M,0.55,N,1.02,K,A*33

$GPGGA,145243.000,4709.3601,N,00138.2849,W,1,08,0.96,54.2,M,48.7,M,,*47

$GPGLL,4709.3601,N,00138.2849,W,145243.000,A,A*4D

$GPGSA,A,3,26,10,07,18,21,27,08,16,,,,,1.24,0.96,0.78*07

$GPGSV,4,1,13,27,77,085,25,08,61,304,22,10,56,100,22,18,39,061,19*76

$GPGSV,4,2,13,16,38,177,22,11,22,266,,21,15,065,14,07,14,283,13*7A

$GPGSV,4,3,13,26,12,167,17,30,10,316,,01,10,246,,15,05,031,17*7E

$GPGSV,4,4,13,32,01,128,*40

$GPRMC,145243.000,A,4709.3601,N,00138.2849,W,0.56,283.99,180717,,,A*78

$GPVTG,283.99,T,,M,0.56,N,1.04,K,A*32

$GPGGA,145244.000,4709.3602,N,00138.2852,W,1,08,0.96,54.2,M,48.7,M,,*49

$GPGLL,4709.3602,N,00138.2852,W,145244.000,A,A*43

$GPGSA,A,3,26,10,07,18,21,27,08,16,,,,,1.24,0.96,0.78*07

$GPGSV,4,1,13,27,77,085,25,08,61,304,22,10,56,100,22,18,39,061,19*76

$GPGSV,4,2,13,16,38,177,22,11,22,266,,21,15,065,15,07,14,283,15*7D

$GPGSV,4,3,13,26,12,167,17,30,10,316,,01,10,246,,15,05,031,17*7E

$GPGSV,4,4,13,32,01,128,*40

$GPRMC,145244.000,A,4709.3602,N,00138.2852,W,0.57,280.45,180717,,,A*75

$GPVTG,280.45,T,,M,0.57,N,1.06,K,A*33

$GPGGA,145245.000,4709.3602,N,00138.2854,W,1,08,0.96,54.2,M,48.7,M,,*4E

$GPGLL,4709.3602,N,00138.2854,W,145245.000,A,A*44

$GPGSA,A,3,26,10,07,18,21,27,08,16,,,,,1.24,0.96,0.78*07

$GPGSV,4,1,13,27,77,085,25,08,61,304,22,10,56,100,22,18,39,061,19*76

$GPGSV,4,2,13,16,38,177,21,11,22,266,,21,15,065,15,07,14,283,16*7D

$GPGSV,4,3,13,26,12,167,17,30,10,316,,01,10,246,,15,05,031,17*7E

$GPGSV,4,4,13,32,01,128,*40

$GPRMC,145245.000,A,4709.3602,N,00138.2854,W,0.51,278.49,180717,,,A*7F

$GPVTG,278.49,T,,M,0.51,N,0.95,K,A*35

$GPGGA,145246.000,4709.3602,N,00138.2856,W,1,08,0.96,54.2,M,48.7,M,,*4F

$GPGLL,4709.3602,N,00138.2856,W,145246.000,A,A*45

$GPGSA,A,3,26,10,07,18,21,27,08,16,,,,,1.24,0.96,0.78*07

$GPGSV,4,1,13,27,77,085,25,08,61,304,22,10,56,100,22,18,39,061,19*76

$GPGSV,4,2,13,16,38,177,21,11,22,266,,21,15,065,15,07,14,283,16*7D

$GPGSV,4,3,13,26,12,167,17,30,10,316,,01,10,246,,15,05,031,17*7E

$GPGSV,4,4,13,32,01,128,*40

$GPRMC,145246.000,A,4709.3602,N,00138.2856,W,0.48,270.19,180717,,,A*7B

$GPVTG,270.19,T,,M,0.48,N,0.90,K,A*35

$GPGGA,145247.000,4709.3602,N,00138.2858,W,1,08,0.96,54.2,M,48.7,M,,*40

$GPGLL,4709.3602,N,00138.2858,W,145247.000,A,A*4A

$GPGSA,A,3,26,10,07,18,21,27,08,16,,,,,1.24,0.96,0.78*07

$GPGSV,4,1,14,27,77,085,25,08,61,304,23,10,56,100,23,18,39,061,19*71

$GPGSV,4,2,14,16,38,177,21,37,31,149,,11,22,266,,21,15,065,14*7D

$GPGSV,4,3,14,07,14,283,14,26,12,167,17,30,10,316,,01,10,246,*72

$GPGSV,4,4,14,15,05,031,17,32,01,128,*72

$GPRMC,145247.000,A,4709.3602,N,00138.2858,W,0.50,267.54,180717,,,A*72

$GPVTG,267.54,T,,M,0.50,N,0.93,K,A*30

$GPGGA,145248.000,4709.3602,N,00138.2860,W,1,08,0.96,54.2,M,48.7,M,,*44

$GPGLL,4709.3602,N,00138.2860,W,145248.000,A,A*4E

$GPGSA,A,3,26,10,07,18,21,27,08,16,,,,,1.24,0.96,0.78*07

$GPGSV,4,1,14,27,77,085,25,08,61,304,23,10,56,100,23,18,39,061,19*71

$GPGSV,4,2,14,16,38,177,21,37,31,149,,11,22,266,,21,15,065,13*7A

$GPGSV,4,3,14,07,14,283,15,26,12,167,17,30,10,316,,01,10,246,*73

$GPGSV,4,4,14,15,05,031,17,32,01,128,*72

$GPRMC,145248.000,A,4709.3602,N,00138.2860,W,0.43,267.98,180717,,,A*74

$GPVTG,267.98,T,,M,0.43,N,0.79,K,A*36

$GPGGA,145249.000,4709.3602,N,00138.2862,W,1,08,0.96,54.2,M,48.7,M,,*47

$GPGLL,4709.3602,N,00138.2862,W,145249.000,A,A*4D

$GPGSA,A,3,26,10,07,18,21,27,08,16,,,,,1.24,0.96,0.78*07

$GPGSV,4,1,14,27,77,085,25,08,61,304,23,10,56,100,23,18,39,061,18*70

$GPGSV,4,2,14,16,38,177,21,37,31,149,,11,22,266,,21,15,065,14*7D

$GPGSV,4,3,14,07,14,283,15,26,12,167,17,30,10,316,,01,10,246,*73

$GPGSV,4,4,14,15,05,031,17,32,01,128,*72

$GPRMC,145249.000,A,4709.3602,N,00138.2862,W,0.35,273.50,180717,,,A*77

$GPVTG,273.50,T,,M,0.35,N,0.65,K,A*3B

$GPGGA,145250.000,4709.3602,N,00138.2863,W,1,08,0.96,54.2,M,48.7,M,,*4E

$GPGLL,4709.3602,N,00138.2863,W,145250.000,A,A*44

$GPGSA,A,3,26,10,07,18,21,27,08,16,,,,,1.24,0.96,0.78*07

$GPGSV,4,1,14,27,77,085,25,08,61,304,23,10,56,100,23,18,39,061,18*70

$GPGSV,4,2,14,16,38,177,21,37,31,149,,11,22,266,,21,15,065,10*79

$GPGSV,4,3,14,07,14,283,15,26,12,167,17,30,10,316,,01,10,246,*73

$GPGSV,4,4,14,15,05,031,17,32,01,128,*72

$GPRMC,145250.000,A,4709.3602,N,00138.2863,W,0.28,267.65,180717,,,A*71

$GPVTG,267.65,T,,M,0.28,N,0.52,K,A*30

$GPGGA,145251.000,4709.3602,N,00138.2864,W,1,08,0.96,54.2,M,48.7,M,,*48

$GPGLL,4709.3602,N,00138.2864,W,145251.000,A,A*42

$GPGSA,A,3,26,10,07,18,21,27,08,16,,,,,1.24,0.96,0.78*07

$GPGSV,4,1,14,27,77,085,26,08,61,304,23,10,56,100,23,18,39,061,18*73

$GPGSV,4,2,14,16,38,177,21,37,31,149,,11,22,266,,21,15,065,13*7A

$GPGSV,4,3,14,07,14,283,16,26,12,167,17,30,10,316,,01,10,246,*70

$GPGSV,4,4,14,15,05,031,17,32,01,128,*72

$GPRMC,145251.000,A,4709.3602,N,00138.2864,W,0.20,250.63,180717,,,A*7D

$GPVTG,250.63,T,,M,0.20,N,0.38,K,A*36

$GPGGA,145252.000,4709.3602,N,00138.2865,W,1,08,0.96,54.2,M,48.7,M,,*4A

$GPGLL,4709.3602,N,00138.2865,W,145252.000,A,A*40

$GPGSA,A,3,26,10,07,18,21,27,08,16,,,,,1.24,0.96,0.78*07

$GPGSV,4,1,14,27,77,085,26,08,61,304,23,10,56,100,23,18,39,061,18*73

$GPGSV,4,2,14,16,38,177,21,37,31,149,,11,22,266,,21,15,065,15*7C

$GPGSV,4,3,14,07,13,283,16,26,12,167,17,30,10,316,,01,10,246,*77

$GPGSV,4,4,14,15,05,031,17,32,01,128,*72

$GPRMC,145252.000,A,4709.3602,N,00138.2865,W,0.17,234.00,180717,,,A*7C

$GPVTG,234.00,T,,M,0.17,N,0.32,K,A*3F

$GPGGA,145253.000,4709.3601,N,00138.2865,W,1,08,0.96,54.2,M,48.7,M,,*48

$GPGLL,4709.3601,N,00138.2865,W,145253.000,A,A*42

$GPGSA,A,3,26,10,07,18,21,27,08,16,,,,,1.24,0.96,0.78*07

$GPGSV,4,1,14,27,77,085,26,08,61,304,23,10,56,100,23,18,39,061,18*73

$GPGSV,4,2,14,16,38,177,21,37,31,149,,11,22,266,,21,15,065,14*7D

$GPGSV,4,3,14,07,13,283,16,26,12,167,17,30,10,316,,01,10,246,*77

$GPGSV,4,4,14,15,05,031,17,32,01,128,*72

$GPRMC,145253.000,A,4709.3601,N,00138.2865,W,0.18,232.33,180717,,,A*77

$GPVTG,232.33,T,,M,0.18,N,0.33,K,A*37

$GPGGA,145254.000,4709.3601,N,00138.2866,W,1,08,0.96,54.2,M,48.7,M,,*4C

$GPGLL,4709.3601,N,00138.2866,W,145254.000,A,A*46

$GPGSA,A,3,26,10,07,18,21,27,08,16,,,,,1.24,0.96,0.78*07

$GPGSV,4,1,14,27,77,085,26,08,61,304,23,10,56,100,24,18,39,061,18*74

$GPGSV,4,2,14,16,38,177,20,37,31,149,,11,22,266,,21,15,065,14*7C

$GPGSV,4,3,14,07,13,283,16,26,12,167,17,30,10,316,,01,10,246,*77

$GPGSV,4,4,14,15,05,031,17,32,01,128,*72

$GPRMC,145254.000,A,4709.3601,N,00138.2866,W,0.17,233.91,180717,,,A*75

$GPVTG,233.91,T,,M,0.17,N,0.32,K,A*30

$GPGGA,145255.000,4709.3601,N,00138.2867,W,1,08,0.96,54.2,M,48.7,M,,*4C

$GPGLL,4709.3601,N,00138.2867,W,145255.000,A,A*46

$GPGSA,A,3,26,10,07,18,21,27,08,16,,,,,1.24,0.96,0.78*07

$GPGSV,4,1,14,27,77,085,26,08,61,304,24,10,56,099,24,18,39,061,18*72

$GPGSV,4,2,14,16,38,177,19,37,31,149,,11,22,266,,21,15,065,15*77

$GPGSV,4,3,14,07,13,283,16,26,12,167,18,30,10,316,,01,10,246,*78

$GPGSV,4,4,14,15,05,031,17,32,01,128,*72

$GPRMC,145255.000,A,4709.3601,N,00138.2867,W,0.11,224.28,180717,,,A*77

$GPVTG,224.28,T,,M,0.11,N,0.21,K,A*30

$GPGGA,145256.000,4709.3601,N,00138.2867,W,1,08,0.96,54.2,M,48.7,M,,*4F

$GPGLL,4709.3601,N,00138.2867,W,145256.000,A,A*45

$GPGSA,A,3,26,10,07,18,21,27,08,16,,,,,1.24,0.96,0.78*07

$GPGSV,4,1,13,27,77,085,26,08,61,304,24,10,56,099,24,18,39,061,18*75

$GPGSV,4,2,13,16,38,177,19,11,22,267,,21,15,065,14,07,13,283,16*71

$GPGSV,4,3,13,26,12,167,18,30,10,316,,01,10,246,,15,05,031,17*71

$GPGSV,4,4,13,32,01,128,*40

$GPRMC,145256.000,A,4709.3601,N,00138.2867,W,0.06,297.10,180717,,,A*71

$GPVTG,297.10,T,,M,0.06,N,0.12,K,A*35

$GPGGA,145257.000,4709.3601,N,00138.2867,W,1,08,0.96,54.2,M,48.7,M,,*4E

$GPGLL,4709.3601,N,00138.2867,W,145257.000,A,A*44

$GPGSA,A,3,26,10,07,18,21,27,08,16,,,,,1.24,0.96,0.78*07

$GPGSV,4,1,13,27,77,085,26,08,61,304,24,10,56,099,24,18,39,061,18*75

$GPGSV,4,2,13,16,38,177,19,11,22,267,,21,15,065,15,07,13,283,16*70

$GPGSV,4,3,13,26,12,167,18,30,10,316,,01,10,246,,15,05,031,17*71

$GPGSV,4,4,13,32,01,128,*40

$GPRMC,145257.000,A,4709.3601,N,00138.2867,W,0.05,22.80,180717,,,A*46

$GPVTG,22.80,T,,M,0.05,N,0.10,K,A*01

$GPGGA,145258.000,4709.3601,N,00138.2867,W,1,08,0.96,54.2,M,48.7,M,,*41

$GPGLL,4709.3601,N,00138.2867,W,145258.000,A,A*4B

$GPGSA,A,3,26,10,07,18,21,27,08,16,,,,,1.24,0.96,0.78*07

$GPGSV,4,1,14,27,77,085,26,08,61,304,24,10,56,099,24,18,39,061,18*72

$GPGSV,4,2,14,16,38,177,19,39,29,145,,11,22,267,,21,15,065,14*7C

$GPGSV,4,3,14,07,13,283,16,26,12,167,18,30,10,316,,01,10,246,*78

$GPGSV,4,4,14,15,05,031,17,32,01,128,*72

$GPRMC,145258.000,A,4709.3601,N,00138.2867,W,0.13,353.22,180717,,,A*73

$GPVTG,353.22,T,,M,0.13,N,0.24,K,A*3C

$GPGGA,145259.000,4709.3601,N,00138.2867,W,1,08,0.97,54.2,M,48.7,M,,*41

$GPGLL,4709.3601,N,00138.2867,W,145259.000,A,A*4A

$GPGSA,A,3,26,10,07,18,21,27,08,16,,,,,1.58,0.97,1.24*05

$GPGSV,4,1,14,27,77,085,26,08,61,304,24,10,56,099,24,18,39,061,18*72

$GPGSV,4,2,14,16,38,177,19,39,29,145,,11,22,267,,21,15,065,15*7D

$GPGSV,4,3,14,07,13,283,16,26,12,167,18,30,10,316,,01,10,246,*78

$GPGSV,4,4,14,15,05,031,17,32,01,128,*72

$GPRMC,145259.000,A,4709.3601,N,00138.2867,W,0.15,357.07,180717,,,A*77

$GPVTG,357.07,T,,M,0.15,N,0.28,K,A*35

$GPGGA,145300.000,4709.3602,N,00138.2867,W,1,08,0.97,54.2,M,48.7,M,,*4F

$GPGLL,4709.3602,N,00138.2867,W,145300.000,A,A*44

$GPGSA,A,3,26,10,07,18,21,27,08,16,,,,,1.58,0.97,1.24*05

$GPGSV,4,1,14,27,77,085,26,08,61,304,24,10,56,099,24,18,39,061,18*72

$GPGSV,4,2,14,16,38,177,19,39,29,145,,11,22,267,,21,15,065,16*7E

$GPGSV,4,3,14,07,13,283,16,26,12,167,18,30,10,316,,01,10,246,*78

$GPGSV,4,4,14,15,04,031,17,32,01,128,*73

$GPRMC,145300.000,A,4709.3602,N,00138.2867,W,0.14,24.33,180717,,,A*48

$GPVTG,24.33,T,,M,0.14,N,0.25,K,A*09

$GPGGA,145301.000,4709.3602,N,00138.2867,W,1,08,0.96,54.2,M,48.7,M,,*4F

$GPGLL,4709.3602,N,00138.2867,W,145301.000,A,A*45

$GPGSA,A,3,26,10,07,18,21,27,08,16,,,,,1.24,0.96,0.78*07

$GPGSV,4,1,14,27,77,085,26,08,61,304,24,10,56,099,24,18,39,061,18*72

$GPGSV,4,2,14,16,37,177,19,39,29,145,,11,22,267,,21,15,065,15*72

$GPGSV,4,3,14,07,13,283,16,26,12,167,18,30,10,316,,01,10,246,*78

$GPGSV,4,4,14,15,04,031,17,32,01,128,*73

$GPRMC,145301.000,A,4709.3602,N,00138.2867,W,0.08,4.76,180717,,,A*77

$GPVTG,4.76,T,,M,0.08,N,0.14,K,A*35

$GPGGA,145302.000,4709.3602,N,00138.2867,W,1,08,0.97,54.2,M,48.7,M,,*4D

$GPGLL,4709.3602,N,00138.2867,W,145302.000,A,A*46

$GPGSA,A,3,26,10,07,18,21,27,08,16,,,,,1.58,0.97,1.24*05

$GPGSV,4,1,14,27,77,085,26,08,61,304,24,10,56,099,24,18,39,061,18*72

$GPGSV,4,2,14,16,37,177,19,39,29,145,,11,22,267,,21,15,065,13*74

$GPGSV,4,3,14,07,13,283,16,26,12,167,18,30,10,316,,01,10,246,*78

$GPGSV,4,4,14,15,04,031,17,32,01,128,*73

$GPRMC,145302.000,A,4709.3602,N,00138.2867,W,0.03,158.22,180717,,,A*76

$GPVTG,158.22,T,,M,0.03,N,0.06,K,A*34

$GPGGA,145303.000,4709.3602,N,00138.2866,W,1,08,0.96,54.2,M,48.7,M,,*4C

$GPGLL,4709.3602,N,00138.2866,W,145303.000,A,A*46

$GPGSA,A,3,26,10,07,18,21,27,08,16,,,,,1.24,0.96,0.78*07

$GPGSV,4,1,14,27,77,085,26,08,61,304,24,10,56,099,24,18,38,061,18*73

$GPGSV,4,2,14,16,37,177,19,39,29,145,,11,22,267,,21,15,065,15*72

$GPGSV,4,3,14,07,13,283,16,26,12,167,18,30,10,316,,01,10,246,*78

$GPGSV,4,4,14,15,04,031,17,32,01,128,*73

$GPRMC,145303.000,A,4709.3602,N,00138.2866,W,0.06,141.43,180717,,,A*7C

$GPVTG,141.43,T,,M,0.06,N,0.12,K,A*3B

$GPGGA,145304.000,4709.3602,N,00138.2866,W,1,08,0.96,54.2,M,48.7,M,,*4B

$GPGLL,4709.3602,N,00138.2866,W,145304.000,A,A*41

$GPGSA,A,3,26,10,07,18,21,27,08,16,,,,,1.24,0.96,0.78*07

$GPGSV,4,1,14,27,77,085,26,08,61,304,24,10,56,099,24,18,38,061,18*73

$GPGSV,4,2,14,16,37,177,19,39,29,145,,11,22,267,,21,15,065,15*72

$GPGSV,4,3,14,07,13,283,16,26,12,167,18,30,10,316,,01,10,246,*78

$GPGSV,4,4,14,15,04,031,17,32,01,128,*73

$GPRMC,145304.000,A,4709.3602,N,00138.2866,W,0.16,116.97,180717,,,A*71

$GPVTG,116.97,T,,M,0.16,N,0.30,K,A*31

$GPGGA,145305.000,4709.3602,N,00138.2866,W,1,08,0.96,54.2,M,48.7,M,,*4A

$GPGLL,4709.3602,N,00138.2866,W,145305.000,A,A*40

$GPGSA,A,3,26,10,07,18,21,27,08,16,,,,,1.24,0.96,0.78*07

$GPGSV,4,1,14,27,77,085,26,08,61,304,24,10,56,099,24,18,38,061,18*73

$GPGSV,4,2,14,16,37,177,19,39,29,145,,11,22,267,,21,15,065,15*72

$GPGSV,4,3,14,07,13,283,17,26,12,167,18,30,10,316,,01,10,246,*79

$GPGSV,4,4,14,15,04,031,17,32,01,128,*73

$GPRMC,145305.000,A,4709.3602,N,00138.2866,W,0.15,127.02,180717,,,A*7D

$GPVTG,127.02,T,,M,0.15,N,0.29,K,A*34

$GPGGA,145306.000,4709.3602,N,00138.2865,W,1,08,0.96,54.2,M,48.7,M,,*4A

$GPGLL,4709.3602,N,00138.2865,W,145306.000,A,A*40

$GPGSA,A,3,26,10,07,18,21,27,08,16,,,,,1.24,0.96,0.78*07

$GPGSV,4,1,14,27,77,085,26,08,61,304,24,10,56,099,24,18,38,061,18*73

$GPGSV,4,2,14,16,37,177,18,39,29,145,,11,22,267,,21,15,066,15*70

$GPGSV,4,3,14,07,13,283,17,26,12,167,18,30,10,316,,01,10,246,*79

$GPGSV,4,4,14,15,04,031,17,32,01,128,*73

$GPRMC,145306.000,A,4709.3602,N,00138.2865,W,0.13,126.73,180717,,,A*7C

$GPVTG,126.73,T,,M,0.13,N,0.24,K,A*38

$GPGGA,145307.000,4709.3601,N,00138.2865,W,1,08,0.96,54.2,M,48.7,M,,*48

$GPGLL,4709.3601,N,00138.2865,W,145307.000,A,A*42

$GPGSA,A,3,26,10,07,18,21,27,08,16,,,,,1.24,0.96,0.78*07

$GPGSV,4,1,14,27,77,085,26,08,61,304,25,10,56,099,24,18,38,061,18*72

$GPGSV,4,2,14,16,37,177,18,39,29,145,,11,22,267,,21,15,066,16*73

$GPGSV,4,3,14,07,13,283,17,26,12,167,18,30,10,316,,01,10,246,*79

$GPGSV,4,4,14,15,04,031,17,32,01,128,*73

$GPRMC,145307.000,A,4709.3601,N,00138.2865,W,0.09,119.73,180717,,,A*79

$GPVTG,119.73,T,,M,0.09,N,0.16,K,A*3E

$GPGGA,145308.000,4709.3601,N,00138.2864,W,1,08,0.96,54.2,M,48.7,M,,*46

$GPGLL,4709.3601,N,00138.2864,W,145308.000,A,A*4C

$GPGSA,A,3,26,10,07,18,21,27,08,16,,,,,1.24,0.96,0.78*07

$GPGSV,4,1,14,27,77,085,26,08,61,304,25,10,56,099,24,18,38,061,18*72

$GPGSV,4,2,14,16,37,177,18,11,22,267,,21,15,066,16,07,13,283,17*78

$GPGSV,4,3,14,26,12,167,18,30,10,316,,01,10,246,,40,07,108,*79

$GPGSV,4,4,14,15,04,031,17,32,01,128,*73

$GPRMC,145308.000,A,4709.3601,N,00138.2864,W,0.12,98.97,180717,,,A*4F

$GPVTG,98.97,T,,M,0.12,N,0.23,K,A*00

$GPGGA,145309.000,4709.3601,N,00138.2864,W,1,08,0.96,54.2,M,48.7,M,,*47

$GPGLL,4709.3601,N,00138.2864,W,145309.000,A,A*4D

$GPGSA,A,3,26,10,07,18,21,27,08,16,,,,,1.24,0.96,0.78*07

$GPGSV,4,1,14,27,77,085,26,08,61,304,25,10,56,099,24,18,38,061,18*72

$GPGSV,4,2,14,16,37,177,18,11,22,267,,21,15,066,16,07,13,283,17*78

$GPGSV,4,3,14,26,12,167,18,30,10,316,,01,10,246,,40,07,108,*79

$GPGSV,4,4,14,15,04,031,17,32,01,128,*73

$GPRMC,145309.000,A,4709.3601,N,00138.2864,W,0.07,33.29,180717,,,A*4E

$GPVTG,33.29,T,,M,0.07,N,0.13,K,A*03

$GPGGA,145310.000,4709.3601,N,00138.2863,W,1,08,0.96,54.2,M,48.7,M,,*48

$GPGLL,4709.3601,N,00138.2863,W,145310.000,A,A*42

$GPGSA,A,3,26,10,07,18,21,27,08,16,,,,,1.24,0.96,0.78*07

$GPGSV,4,1,14,27,77,085,26,08,61,304,25,10,56,099,24,18,38,061,18*72

$GPGSV,4,2,14,16,37,177,18,11,22,267,,21,15,066,16,07,13,283,17*78

$GPGSV,4,3,14,26,12,167,18,30,10,316,,01,10,246,,40,07,108,*79

$GPGSV,4,4,14,15,04,031,17,32,01,128,*73

$GPRMC,145310.000,A,4709.3601,N,00138.2863,W,0.12,358.19,180717,,,A*78

$GPVTG,358.19,T,,M,0.12,N,0.23,K,A*39

$GPGGA,145311.000,4709.3602,N,00138.2863,W,1,08,0.97,54.2,M,48.7,M,,*4B

$GPGLL,4709.3602,N,00138.2863,W,145311.000,A,A*40

$GPGSA,A,3,26,10,07,18,21,27,08,16,,,,,1.57,0.97,1.24*0A

$GPGSV,4,1,14,27,77,085,25,08,61,304,25,10,56,099,24,18,38,061,18*71

$GPGSV,4,2,14,16,37,177,18,11,22,267,,21,15,066,16,07,13,283,17*78

$GPGSV,4,3,14,26,11,167,18,30,10,316,,01,10,246,,40,07,108,*7A

$GPGSV,4,4,14,15,04,031,17,32,01,128,*73

$GPRMC,145311.000,A,4709.3602,N,00138.2863,W,0.32,10.18,180717,,,A*46

$GPVTG,10.18,T,,M,0.32,N,0.60,K,A*02

$GPGGA,145312.000,4709.3603,N,00138.2863,W,1,08,0.97,54.2,M,48.7,M,,*49

$GPGLL,4709.3603,N,00138.2863,W,145312.000,A,A*42

$GPGSA,A,3,26,10,07,18,21,27,08,16,,,,,1.58,0.97,1.24*05

$GPGSV,4,1,14,27,77,086,25,08,61,304,25,10,56,099,24,18,38,061,18*72

$GPGSV,4,2,14,16,37,177,18,11,22,267,,21,15,066,15,07,13,283,16*7A

$GPGSV,4,3,14,26,11,167,18,30,10,316,,01,10,246,,40,07,108,*7A

$GPGSV,4,4,14,15,04,031,17,32,01,128,*73

$GPRMC,145312.000,A,4709.3603,N,00138.2863,W,0.29,14.84,180717,,,A*4F

$GPVTG,14.84,T,,M,0.29,N,0.53,K,A*09

$GPGGA,145313.000,4709.3604,N,00138.2863,W,1,08,0.97,54.2,M,48.7,M,,*4F

$GPGLL,4709.3604,N,00138.2863,W,145313.000,A,A*44

$GPGSA,A,3,26,10,07,18,21,27,08,16,,,,,1.58,0.97,1.24*05

$GPGSV,4,1,14,27,77,086,25,08,61,304,25,10,56,099,24,18,38,061,18*72

$GPGSV,4,2,14,16,37,177,17,11,22,267,,21,15,066,15,07,13,283,15*76

$GPGSV,4,3,14,26,11,167,18,30,10,316,,01,10,246,,40,07,108,*7A

$GPGSV,4,4,14,15,04,031,17,32,01,128,*73

$GPRMC,145313.000,A,4709.3604,N,00138.2863,W,0.27,11.26,180717,,,A*4A

$GPVTG,11.26,T,,M,0.27,N,0.50,K,A*09

$GPGGA,145314.000,4709.3604,N,00138.2863,W,1,08,0.97,54.2,M,48.7,M,,*48

$GPGLL,4709.3604,N,00138.2863,W,145314.000,A,A*43

$GPGSA,A,3,26,10,07,18,21,27,08,16,,,,,1.57,0.97,1.24*0A

$GPGSV,4,1,14,27,77,086,25,08,61,304,25,10,56,099,24,18,38,061,18*72

$GPGSV,4,2,14,16,37,177,17,11,22,267,,21,15,066,13,07,13,283,16*73

$GPGSV,4,3,14,26,11,167,18,30,10,316,,01,10,246,,40,07,108,*7A

$GPGSV,4,4,14,15,04,031,17,32,01,128,*73

$GPRMC,145314.000,A,4709.3604,N,00138.2863,W,0.27,19.10,180717,,,A*40

$GPVTG,19.10,T,,M,0.27,N,0.50,K,A*04

$GPGGA,145315.000,4709.3605,N,00138.2862,W,1,08,0.96,54.2,M,48.7,M,,*48

$GPGLL,4709.3605,N,00138.2862,W,145315.000,A,A*42

$GPGSA,A,3,26,10,07,18,21,27,08,16,,,,,1.24,0.96,0.78*07

$GPGSV,4,1,14,27,77,086,25,08,61,304,25,10,56,099,24,18,38,061,18*72

$GPGSV,4,2,14,16,37,177,17,11,22,267,,21,15,066,15,07,13,283,16*75

$GPGSV,4,3,14,26,11,167,18,30,10,316,,01,10,246,,40,07,108,*7A

$GPGSV,4,4,14,15,04,031,18,32,01,128,*7C

$GPRMC,145315.000,A,4709.3605,N,00138.2862,W,0.41,25.73,180717,,,A*4B

$GPVTG,25.73,T,,M,0.41,N,0.77,K,A*0B

$GPGGA,145316.000,4709.3607,N,00138.2861,W,1,08,0.96,54.2,M,48.7,M,,*4A

$GPGLL,4709.3607,N,00138.2861,W,145316.000,A,A*40

$GPGSA,A,3,26,10,07,18,21,27,08,16,,,,,1.24,0.96,0.78*07

$GPGSV,4,1,14,27,77,086,26,08,61,304,25,10,56,099,24,18,38,061,18*71

$GPGSV,4,2,14,16,37,177,17,11,22,267,,21,15,066,16,07,13,283,16*76

$GPGSV,4,3,14,26,11,167,18,30,10,316,,01,10,246,,40,07,108,*7A

$GPGSV,4,4,14,15,04,031,18,32,01,128,*7C

$GPRMC,145316.000,A,4709.3607,N,00138.2861,W,0.54,26.27,180717,,,A*4F

$GPVTG,26.27,T,,M,0.54,N,1.01,K,A*0D

$GPGGA,145317.000,4709.3608,N,00138.2860,W,1,08,0.96,54.2,M,48.7,M,,*45

$GPGLL,4709.3608,N,00138.2860,W,145317.000,A,A*4F

$GPGSA,A,3,26,10,07,18,21,27,08,16,,,,,1.24,0.96,0.78*07

$GPGSV,4,1,14,27,77,086,26,08,61,304,25,10,56,099,24,18,38,061,18*71

$GPGSV,4,2,14,16,37,177,17,11,22,267,,21,15,066,15,07,13,283,16*75

$GPGSV,4,3,14,26,11,167,18,30,10,316,,01,10,246,,44,06,107,*70

$GPGSV,4,4,14,15,04,031,18,32,01,128,*7C

$GPRMC,145317.000,A,4709.3608,N,00138.2860,W,0.50,35.84,180717,,,A*4F

$GPVTG,35.84,T,,M,0.50,N,0.93,K,A*08

$GPGGA,145318.000,4709.3609,N,00138.2859,W,1,08,0.96,54.2,M,48.7,M,,*41

$GPGLL,4709.3609,N,00138.2859,W,145318.000,A,A*4B

$GPGSA,A,3,26,10,07,18,21,27,08,16,,,,,1.24,0.96,0.78*07

$GPGSV,4,1,14,27,77,086,26,08,61,304,25,10,56,099,24,18,38,061,18*71

$GPGSV,4,2,14,16,37,177,18,11,22,267,,21,15,066,13,07,13,283,16*7C

$GPGSV,4,3,14,26,11,167,18,30,10,316,,01,10,246,,44,06,107,*70

$GPGSV,4,4,14,15,04,031,18,32,01,128,*7C

$GPRMC,145318.000,A,4709.3609,N,00138.2859,W,0.44,35.62,180717,,,A*46

$GPVTG,35.62,T,,M,0.44,N,0.82,K,A*05

$GPGGA,145319.000,4709.3610,N,00138.2858,W,1,08,0.96,54.2,M,48.7,M,,*49

$GPGLL,4709.3610,N,00138.2858,W,145319.000,A,A*43

$GPGSA,A,3,26,10,07,18,21,27,08,16,,,,,1.24,0.96,0.78*07

$GPGSV,4,1,14,27,77,086,26,08,61,304,25,10,56,099,24,18,38,061,18*71

$GPGSV,4,2,14,16,37,177,18,11,22,267,,21,15,066,14,07,13,283,17*7A

$GPGSV,4,3,14,26,11,167,18,30,10,316,,01,10,246,,44,06,107,*70

$GPGSV,4,4,14,15,04,031,18,32,01,128,*7C

$GPRMC,145319.000,A,4709.3610,N,00138.2858,W,0.43,39.34,180717,,,A*46

$GPVTG,39.34,T,,M,0.43,N,0.80,K,A*0F

$GPGGA,145320.000,4709.3611,N,00138.2857,W,1,08,0.96,54.2,M,48.7,M,,*4D

$GPGLL,4709.3611,N,00138.2857,W,145320.000,A,A*47

$GPGSA,A,3,26,10,07,18,21,27,08,16,,,,,1.24,0.96,0.78*07

$GPGSV,4,1,14,27,77,086,25,08,61,304,25,10,56,099,24,18,38,061,18*72

$GPGSV,4,2,14,16,37,177,18,11,22,267,,21,15,066,15,07,13,283,17*7B

$GPGSV,4,3,14,26,11,167,18,30,10,316,,01,10,246,,44,06,107,*70

$GPGSV,4,4,14,15,04,031,18,32,01,128,*7C

$GPRMC,145320.000,A,4709.3611,N,00138.2857,W,0.40,34.54,180717,,,A*4A

$GPVTG,34.54,T,,M,0.40,N,0.74,K,A*0C

$GPGGA,145321.000,4709.3612,N,00138.2856,W,1,08,0.96,54.2,M,48.7,M,,*4E

$GPGLL,4709.3612,N,00138.2856,W,145321.000,A,A*44

$GPGSA,A,3,26,10,07,18,21,27,08,16,,,,,1.24,0.96,0.78*07

$GPGSV,4,1,14,27,77,086,25,08,61,304,25,10,56,099,24,18,38,061,17*7D

$GPGSV,4,2,14,16,37,177,18,11,22,267,,21,15,066,14,07,13,283,17*7A

$GPGSV,4,3,14,26,11,167,18,30,10,316,,01,10,246,,44,06,107,*70

$GPGSV,4,4,14,15,04,031,17,32,01,128,*73

$GPRMC,145321.000,A,4709.3612,N,00138.2856,W,0.38,32.25,180717,,,A*46

$GPVTG,32.25,T,,M,0.38,N,0.71,K,A*06

$GPGGA,145322.000,4709.3613,N,00138.2855,W,1,08,0.96,54.2,M,48.7,M,,*4F

$GPGLL,4709.3613,N,00138.2855,W,145322.000,A,A*45

$GPGSA,A,3,26,10,07,18,21,27,08,16,,,,,1.24,0.96,0.78*07

$GPGSV,4,1,14,27,77,086,25,08,61,304,25,10,56,099,24,18,38,061,17*7D

$GPGSV,4,2,14,16,37,177,18,11,22,267,,21,15,066,15,07,13,283,17*7B

$GPGSV,4,3,14,26,11,167,18,30,10,316,,01,10,246,,44,06,107,*70

$GPGSV,4,4,14,15,04,031,17,32,01,128,*73

$GPRMC,145322.000,A,4709.3613,N,00138.2855,W,0.53,23.71,180717,,,A*4B

$GPVTG,23.71,T,,M,0.53,N,0.98,K,A*0D

$GPGGA,145323.000,4709.3615,N,00138.2854,W,1,08,0.96,54.2,M,48.7,M,,*49

$GPGLL,4709.3615,N,00138.2854,W,145323.000,A,A*43

$GPGSA,A,3,26,10,07,18,21,27,08,16,,,,,1.24,0.96,0.78*07

$GPGSV,4,1,14,27,77,086,25,08,61,304,25,10,56,099,25,18,38,061,17*7C

$GPGSV,4,2,14,16,37,177,17,11,22,267,,21,15,066,13,07,13,283,17*72

$GPGSV,4,3,14,26,11,167,19,30,10,316,,01,10,246,,44,06,107,*71

$GPGSV,4,4,14,15,04,031,17,32,01,128,*73

$GPRMC,145323.000,A,4709.3615,N,00138.2854,W,0.66,18.75,180717,,,A*47

$GPVTG,18.75,T,,M,0.66,N,1.22,K,A*07

$GPGGA,145324.000,4709.3614,N,00138.2856,W,1,08,0.96,54.3,M,48.7,M,,*4C

$GPGLL,4709.3614,N,00138.2856,W,145324.000,A,A*47

$GPGSA,A,3,26,10,07,18,21,27,08,16,,,,,1.24,0.96,0.78*07

$GPGSV,4,1,14,27,77,086,25,08,61,304,25,10,56,099,25,18,38,061,17*7C

$GPGSV,4,2,14,16,37,177,16,11,22,267,,21,15,066,15,07,13,283,17*75

$GPGSV,4,3,14,26,11,167,19,30,10,316,,01,10,246,,44,06,107,*71

$GPGSV,4,4,14,15,04,031,17,32,01,128,*73

$GPRMC,145324.000,A,4709.3614,N,00138.2856,W,0.59,10.49,180717,,,A*48

$GPVTG,10.49,T,,M,0.59,N,1.08,K,A*04

$GPGGA,145325.000,4709.3613,N,00138.2857,W,1,08,0.97,54.3,M,48.7,M,,*4A

$GPGLL,4709.3613,N,00138.2857,W,145325.000,A,A*40

$GPGSA,A,3,26,10,07,18,21,27,08,16,,,,,1.57,0.97,1.24*0A

$GPGSV,4,1,14,27,77,086,25,08,61,304,25,10,56,099,25,18,38,061,17*7C

$GPGSV,4,2,14,16,37,177,17,11,22,267,,21,15,066,12,07,13,283,17*73

$GPGSV,4,3,14,26,11,167,18,30,10,316,,01,10,246,,44,06,107,*70

$GPGSV,4,4,14,15,04,031,17,32,01,128,*73

$GPRMC,145325.000,A,4709.3613,N,00138.2857,W,0.53,7.42,180717,,,A*78

$GPVTG,7.42,T,,M,0.53,N,0.98,K,A*3B

$GPGGA,145326.000,4709.3613,N,00138.2855,W,1,08,0.97,54.3,M,48.7,M,,*4B

$GPGLL,4709.3613,N,00138.2855,W,145326.000,A,A*41

$GPGSA,A,3,26,10,07,18,21,27,08,16,,,,,1.57,0.97,1.24*0A

$GPGSV,4,1,14,27,77,086,25,08,61,304,25,10,56,099,23,18,38,061,17*7A

$GPGSV,4,2,14,16,37,177,17,11,22,267,,21,15,066,13,07,13,283,17*72

$GPGSV,4,3,14,26,11,167,18,30,10,316,,01,10,246,,44,06,107,*70

$GPGSV,4,4,14,15,04,031,17,32,01,128,*73

$GPRMC,145326.000,A,4709.3613,N,00138.2855,W,0.48,12.86,180717,,,A*4F

$GPVTG,12.86,T,,M,0.48,N,0.89,K,A*0D

$GPGGA,145327.000,4709.3614,N,00138.2855,W,1,08,0.97,54.3,M,48.7,M,,*4D

$GPGLL,4709.3614,N,00138.2855,W,145327.000,A,A*47

$GPGSA,A,3,26,10,07,18,21,27,08,16,,,,,1.57,0.97,1.24*0A

$GPGSV,4,1,13,27,77,086,25,08,61,304,25,10,56,099,23,18,38,061,17*7D

$GPGSV,4,2,13,16,37,177,17,11,22,267,,21,15,066,11,07,13,283,17*77

$GPGSV,4,3,13,26,11,167,18,30,10,316,,01,10,246,,15,04,031,17*73

$GPGSV,4,4,13,32,01,128,*40

$GPRMC,145327.000,A,4709.3614,N,00138.2855,W,0.46,8.64,180717,,,A*70

$GPVTG,8.64,T,,M,0.46,N,0.86,K,A*3B

$GPGGA,145328.000,4709.3615,N,00138.2853,W,1,08,0.97,54.4,M,48.7,M,,*42

$GPGLL,4709.3615,N,00138.2853,W,145328.000,A,A*4F

$GPGSA,A,3,26,10,07,18,21,27,08,16,,,,,1.57,0.97,1.24*0A

$GPGSV,4,1,14,27,77,086,25,08,61,304,25,10,56,099,23,18,38,061,17*7A

$GPGSV,4,2,14,16,37,177,17,11,22,267,,21,15,066,13,07,13,283,17*72

$GPGSV,4,3,14,26,11,167,18,30,10,316,,01,10,246,,15,04,031,17*74

$GPGSV,4,4,14,32,01,128,,34,,,*40

$GPRMC,145328.000,A,4709.3615,N,00138.2853,W,0.44,12.12,180717,,,A*40

$GPVTG,12.12,T,,M,0.44,N,0.81,K,A*04

$GPGGA,145329.000,4709.3616,N,00138.2852,W,1,08,0.97,54.4,M,48.7,M,,*41

$GPGLL,4709.3616,N,00138.2852,W,145329.000,A,A*4C

$GPGSA,A,3,26,10,07,18,21,27,08,16,,,,,1.57,0.97,1.24*0A

$GPGSV,4,1,14,27,77,086,25,08,61,304,25,10,56,099,24,18,38,061,17*7D

$GPGSV,4,2,14,16,37,177,17,11,22,267,,21,15,066,14,07,13,283,17*75

$GPGSV,4,3,14,26,11,167,18,30,10,316,,01,10,246,,15,04,031,17*74

$GPGSV,4,4,14,32,01,128,,34,,,*40

$GPRMC,145329.000,A,4709.3616,N,00138.2852,W,0.39,359.97,180717,,,A*78

$GPVTG,359.97,T,,M,0.39,N,0.73,K,A*32

$GPGGA,145330.000,4709.3617,N,00138.2852,W,1,08,0.97,54.4,M,48.7,M,,*48

$GPGLL,4709.3617,N,00138.2852,W,145330.000,A,A*45

$GPGSA,A,3,26,10,07,18,21,27,08,16,,,,,1.57,0.97,1.24*0A

$GPGSV,4,1,14,27,77,086,25,08,61,304,25,10,56,099,24,18,38,061,17*7D

$GPGSV,4,2,14,16,37,177,16,11,22,267,,21,15,066,13,07,13,283,16*72

$GPGSV,4,3,14,26,11,167,18,30,10,316,,01,10,246,,15,04,031,17*74

$GPGSV,4,4,14,32,01,128,,34,,,*40

$GPRMC,145330.000,A,4709.3617,N,00138.2852,W,0.33,358.74,180717,,,A*77

$GPVTG,358.74,T,,M,0.33,N,0.62,K,A*34

$GPGGA,145331.000,4709.3618,N,00138.2852,W,1,08,0.97,54.4,M,48.7,M,,*46

$GPGLL,4709.3618,N,00138.2852,W,145331.000,A,A*4B

$GPGSA,A,3,26,10,07,18,21,27,08,16,,,,,1.57,0.97,1.24*0A

$GPGSV,4,1,14,27,77,086,25,08,61,304,25,10,56,099,24,18,38,061,17*7D

$GPGSV,4,2,14,16,37,177,15,11,22,267,,21,15,066,15,07,13,283,16*77

$GPGSV,4,3,14,26,11,167,18,30,10,316,,01,10,246,,15,04,031,17*74

$GPGSV,4,4,14,32,01,128,,34,,,*40

$GPRMC,145331.000,A,4709.3618,N,00138.2852,W,0.42,339.44,180717,,,A*7B

$GPVTG,339.44,T,,M,0.42,N,0.78,K,A*3D

$GPGGA,145332.000,4709.3619,N,00138.2853,W,1,08,0.96,54.4,M,48.7,M,,*44

$GPGLL,4709.3619,N,00138.2853,W,145332.000,A,A*48

$GPGSA,A,3,26,10,07,18,21,27,08,16,,,,,1.24,0.96,0.78*07

$GPGSV,4,1,14,27,77,086,25,08,61,304,25,10,56,099,24,18,38,061,17*7D

$GPGSV,4,2,14,16,37,177,13,11,22,267,,21,15,066,14,07,13,283,15*73

$GPGSV,4,3,14,26,11,167,18,30,10,316,,01,10,246,,15,04,031,17*74

$GPGSV,4,4,14,32,01,128,,34,,,*40

$GPRMC,145332.000,A,4709.3619,N,00138.2853,W,0.51,323.00,180717,,,A*71

$GPVTG,323.00,T,,M,0.51,N,0.94,K,A*36

$GPGGA,145333.000,4709.3620,N,00138.2854,W,1,08,0.96,54.4,M,48.7,M,,*48

$GPGLL,4709.3620,N,00138.2854,W,145333.000,A,A*44

$GPGSA,A,3,26,10,07,18,21,27,08,16,,,,,1.24,0.96,0.78*07

$GPGSV,4,1,14,27,77,086,25,08,61,304,25,10,56,099,24,18,38,061,17*7D

$GPGSV,4,2,14,16,37,177,13,11,22,267,,21,15,066,12,07,13,283,15*75

$GPGSV,4,3,14,26,11,167,18,30,10,316,,01,10,246,,15,04,031,17*74

$GPGSV,4,4,14,32,01,128,,34,,,*40

$GPRMC,145333.000,A,4709.3620,N,00138.2854,W,0.51,317.24,180717,,,A*7C

$GPVTG,317.24,T,,M,0.51,N,0.94,K,A*37

$GPGGA,145334.000,4709.3621,N,00138.2856,W,1,08,0.96,54.4,M,48.7,M,,*4C

$GPGLL,4709.3621,N,00138.2856,W,145334.000,A,A*40

$GPGSA,A,3,26,10,07,18,21,27,08,16,,,,,1.24,0.96,0.78*07

$GPGSV,4,1,14,27,77,086,25,08,61,304,25,10,56,099,24,18,38,061,17*7D

$GPGSV,4,2,14,16,37,177,14,11,22,267,,21,15,066,15,07,13,283,15*75

$GPGSV,4,3,14,26,11,167,18,30,10,316,,01,10,246,,15,04,031,17*74

$GPGSV,4,4,14,32,01,128,,34,,,*40

$GPRMC,145334.000,A,4709.3621,N,00138.2856,W,0.51,313.12,180717,,,A*79

$GPVTG,313.12,T,,M,0.51,N,0.94,K,A*36

$GPGGA,145335.000,4709.3622,N,00138.2857,W,1,08,0.96,54.4,M,48.7,M,,*4F

$GPGLL,4709.3622,N,00138.2857,W,145335.000,A,A*43

$GPGSA,A,3,26,10,07,18,21,27,08,16,,,,,1.24,0.96,0.78*07

$GPGSV,4,1,13,27,77,086,25,08,61,304,25,10,56,099,24,18,38,061,17*7A

$GPGSV,4,2,13,16,37,177,14,11,22,267,,21,15,066,14,07,13,283,16*70

$GPGSV,4,3,13,26,11,167,18,30,10,316,,01,10,246,,15,04,031,17*73

$GPGSV,4,4,13,32,01,128,*40

$GPRMC,145335.000,A,4709.3622,N,00138.2857,W,0.45,312.80,180717,,,A*75

$GPVTG,312.80,T,,M,0.45,N,0.83,K,A*3F

$GPGGA,145336.000,4709.3623,N,00138.2859,W,1,08,0.96,54.4,M,48.7,M,,*43

$GPGLL,4709.3623,N,00138.2859,W,145336.000,A,A*4F

$GPGSA,A,3,26,10,07,18,21,27,08,16,,,,,1.24,0.96,0.78*07

$GPGSV,4,1,13,27,77,086,25,08,61,304,25,10,56,099,24,18,38,061,17*7A

$GPGSV,4,2,13,16,37,177,13,11,22,267,,21,15,066,15,07,13,283,16*76

$GPGSV,4,3,13,26,11,167,18,30,10,316,,01,10,246,,15,04,031,17*73

$GPGSV,4,4,13,32,01,128,*40

$GPRMC,145336.000,A,4709.3623,N,00138.2859,W,0.43,317.10,180717,,,A*73

$GPVTG,317.10,T,,M,0.43,N,0.80,K,A*36

$GPGGA,145337.000,4709.3624,N,00138.2860,W,1,08,0.96,54.4,M,48.7,M,,*4F

$GPGLL,4709.3624,N,00138.2860,W,145337.000,A,A*43

$GPGSA,A,3,26,10,07,18,21,27,08,16,,,,,1.24,0.96,0.78*07

$GPGSV,4,1,14,27,77,086,25,08,61,304,25,10,56,099,24,18,38,061,17*7D

$GPGSV,4,2,14,16,37,177,13,11,22,267,,21,15,066,15,07,13,283,17*70

$GPGSV,4,3,14,26,11,167,18,30,10,316,,01,10,246,,15,04,031,17*74

$GPGSV,4,4,14,32,01,128,,35,,,*41

$GPRMC,145337.000,A,4709.3624,N,00138.2860,W,0.40,316.18,180717,,,A*75

$GPVTG,316.18,T,,M,0.40,N,0.74,K,A*37

$GPGGA,145338.000,4709.3625,N,00138.2861,W,1,08,0.96,54.4,M,48.7,M,,*40

$GPGLL,4709.3625,N,00138.2861,W,145338.000,A,A*4C

$GPGSA,A,3,26,10,07,18,21,27,08,16,,,,,1.24,0.96,0.78*07

$GPGSV,4,1,14,27,77,086,25,08,61,304,25,10,56,099,24,18,38,060,17*7C

$GPGSV,4,2,14,16,37,177,14,11,22,267,,21,15,066,15,07,13,283,17*77

$GPGSV,4,3,14,26,11,167,18,30,10,316,,01,10,246,,15,04,031,17*74

$GPGSV,4,4,14,32,01,128,,35,,,*41

$GPRMC,145338.000,A,4709.3625,N,00138.2861,W,0.36,308.47,180717,,,A*7E

$GPVTG,308.47,T,,M,0.36,N,0.67,K,A*31

$GPGGA,145339.000,4709.3625,N,00138.2862,W,1,08,0.96,54.4,M,48.7,M,,*42

$GPGLL,4709.3625,N,00138.2862,W,145339.000,A,A*4E

$GPGSA,A,3,26,10,07,18,21,27,08,16,,,,,1.24,0.96,0.78*07

$GPGSV,4,1,14,27,77,086,25,08,61,304,25,10,56,099,24,18,38,060,17*7C

$GPGSV,4,2,14,16,37,177,14,11,22,267,,21,15,066,15,07,13,283,17*77

$GPGSV,4,3,14,26,11,167,18,30,10,316,,01,10,246,,15,04,031,17*74

$GPGSV,4,4,14,32,01,128,,35,,,*41

$GPRMC,145339.000,A,4709.3625,N,00138.2862,W,0.28,303.98,180717,,,A*7A

$GPVTG,303.98,T,,M,0.28,N,0.53,K,A*30

$GPGGA,145340.000,4709.3626,N,00138.2863,W,1,08,0.96,54.4,M,48.7,M,,*4E

$GPGLL,4709.3626,N,00138.2863,W,145340.000,A,A*42

$GPGSA,A,3,26,10,07,18,21,27,08,16,,,,,1.24,0.96,0.78*07

$GPGSV,4,1,14,27,77,086,25,08,61,304,25,10,56,099,24,18,38,060,17*7C

$GPGSV,4,2,14,16,37,177,12,11,22,267,,21,15,066,14,07,13,283,16*71

$GPGSV,4,3,14,26,11,167,18,30,10,316,,01,10,246,,15,04,031,17*74

$GPGSV,4,4,14,32,01,128,,35,,,*41

$GPRMC,145340.000,A,4709.3626,N,00138.2863,W,0.26,306.79,180717,,,A*72

$GPVTG,306.79,T,,M,0.26,N,0.49,K,A*3F

$GPGGA,145341.000,4709.3626,N,00138.2864,W,1,08,0.96,54.4,M,48.7,M,,*48

$GPGLL,4709.3626,N,00138.2864,W,145341.000,A,A*44

$GPGSA,A,3,26,10,07,18,21,27,08,16,,,,,1.24,0.96,0.78*07

$GPGSV,4,1,14,27,77,086,25,08,61,304,25,10,56,099,24,18,38,060,17*7C

$GPGSV,4,2,14,16,37,177,12,11,22,267,,21,15,066,13,07,13,283,17*77

$GPGSV,4,3,14,26,11,167,18,30,10,316,,01,10,246,,15,04,031,17*74

$GPGSV,4,4,14,32,01,128,,35,,,*41

$GPRMC,145341.000,A,4709.3626,N,00138.2864,W,0.21,312.69,180717,,,A*77

$GPVTG,312.69,T,,M,0.21,N,0.39,K,A*3B

$GPGGA,145342.000,4709.3627,N,00138.2864,W,1,08,0.96,54.4,M,48.7,M,,*4A

$GPGLL,4709.3627,N,00138.2864,W,145342.000,A,A*46

$GPGSA,A,3,26,10,07,18,21,27,08,16,,,,,1.24,0.96,0.78*07

$GPGSV,4,1,14,27,77,086,25,08,61,304,25,10,56,099,23,18,38,060,17*7B

$GPGSV,4,2,14,16,37,177,13,11,22,267,,21,15,066,14,07,13,283,17*71

$GPGSV,4,3,14,26,11,167,18,30,10,316,,01,10,246,,15,04,031,17*74

$GPGSV,4,4,14,32,01,128,,35,,,*41

$GPRMC,145342.000,A,4709.3627,N,00138.2864,W,0.21,320.08,180717,,,A*73

$GPVTG,320.08,T,,M,0.21,N,0.38,K,A*3C

$GPGGA,145343.000,4709.3627,N,00138.2865,W,1,08,0.96,54.4,M,48.7,M,,*4A

$GPGLL,4709.3627,N,00138.2865,W,145343.000,A,A*46

$GPGSA,A,3,26,10,07,18,21,27,08,16,,,,,1.24,0.96,0.78*07

$GPGSV,4,1,13,27,77,086,25,08,61,304,25,10,56,099,23,18,38,060,17*7C

$GPGSV,4,2,13,16,37,177,12,11,22,267,,21,15,066,14,07,13,283,17*77

$GPGSV,4,3,13,26,11,167,18,30,10,316,,01,10,246,,15,04,031,17*73

$GPGSV,4,4,13,32,01,128,*40

$GPRMC,145343.000,A,4709.3627,N,00138.2865,W,0.26,315.00,180717,,,A*7A

$GPVTG,315.00,T,,M,0.26,N,0.49,K,A*33

$GPGGA,145344.000,4709.3627,N,00138.2866,W,1,08,0.96,54.4,M,48.7,M,,*4E

$GPGLL,4709.3627,N,00138.2866,W,145344.000,A,A*42

$GPGSA,A,3,26,10,07,18,21,27,08,16,,,,,1.24,0.96,0.78*07

$GPGSV,4,1,13,27,77,086,25,08,61,304,25,10,56,099,22,18,38,060,17*7D

$GPGSV,4,2,13,16,37,177,11,11,22,267,,21,15,066,14,07,13,283,17*74

$GPGSV,4,3,13,26,11,167,18,30,10,316,,01,10,246,,15,04,031,17*73

$GPGSV,4,4,13,32,01,128,*40

$GPRMC,145344.000,A,4709.3627,N,00138.2866,W,0.28,316.85,180717,,,A*7E

$GPVTG,316.85,T,,M,0.28,N,0.52,K,A*39

$GPGGA,145345.000,4709.3628,N,00138.2867,W,1,08,0.96,54.4,M,48.7,M,,*41

$GPGLL,4709.3628,N,00138.2867,W,145345.000,A,A*4D

$GPGSA,A,3,26,10,07,18,21,27,08,16,,,,,1.24,0.96,0.78*07

$GPGSV,4,1,14,27,77,086,25,08,61,304,25,10,56,099,22,18,38,060,17*7A

$GPGSV,4,2,14,16,37,177,13,11,22,267,,21,15,066,15,07,13,283,17*70

$GPGSV,4,3,14,26,11,167,18,30,10,316,,01,10,246,,15,04,031,17*74

$GPGSV,4,4,14,32,01,128,,36,,,*42

$GPRMC,145345.000,A,4709.3628,N,00138.2867,W,0.36,319.35,180717,,,A*7A

$GPVTG,319.35,T,,M,0.36,N,0.67,K,A*34

$GPGGA,145346.000,4709.3629,N,00138.2868,W,1,08,0.96,54.4,M,48.7,M,,*4C

$GPGLL,4709.3629,N,00138.2868,W,145346.000,A,A*40

$GPGSA,A,3,26,10,07,18,21,27,08,16,,,,,1.24,0.96,0.78*07

$GPGSV,4,1,14,27,77,086,25,08,61,304,25,10,56,099,22,18,38,060,16*7B

$GPGSV,4,2,14,16,37,177,13,11,22,267,,21,15,066,16,07,13,283,16*72

$GPGSV,4,3,14,26,11,167,18,30,10,316,,01,10,246,,15,04,031,17*74

$GPGSV,4,4,14,32,01,128,,36,,,*42

$GPRMC,145346.000,A,4709.3629,N,00138.2868,W,0.36,320.67,180717,,,A*7A

$GPVTG,320.67,T,,M,0.36,N,0.67,K,A*39

$GPGGA,145347.000,4709.3630,N,00138.2869,W,1,08,0.96,54.4,M,48.7,M,,*44

$GPGLL,4709.3630,N,00138.2869,W,145347.000,A,A*48

$GPGSA,A,3,26,10,07,18,21,27,08,16,,,,,1.24,0.96,0.78*07

$GPGSV,4,1,14,27,77,087,25,08,61,304,25,10,56,099,21,18,38,060,16*79

$GPGSV,4,2,14,16,37,177,13,11,22,267,,21,15,066,16,07,13,283,14*70

$GPGSV,4,3,14,26,11,167,18,30,10,316,,01,10,246,,15,04,031,17*74

$GPGSV,4,4,14,32,01,128,,36,,,*42

$GPRMC,145347.000,A,4709.3630,N,00138.2869,W,0.27,319.03,180717,,,A*7A

$GPVTG,319.03,T,,M,0.27,N,0.49,K,A*3D

$GPGGA,145348.000,4709.3630,N,00138.2869,W,1,08,0.96,54.4,M,48.7,M,,*4B

$GPGLL,4709.3630,N,00138.2869,W,145348.000,A,A*47

$GPGSA,A,3,26,10,07,18,21,27,08,16,,,,,1.24,0.96,0.78*07

$GPGSV,4,1,14,27,77,087,25,08,61,304,25,10,56,099,21,18,38,060,15*7A

$GPGSV,4,2,14,16,37,177,12,11,22,267,,21,15,066,15,07,13,283,13*75

$GPGSV,4,3,14,26,11,167,18,30,10,316,,01,10,246,,15,04,031,17*74

$GPGSV,4,4,14,32,01,128,,36,,,*42

$GPRMC,145348.000,A,4709.3630,N,00138.2869,W,0.27,304.70,180717,,,A*7D

$GPVTG,304.70,T,,M,0.27,N,0.50,K,A*3D

$GPGGA,145349.000,4709.3630,N,00138.2870,W,1,08,0.96,54.4,M,48.7,M,,*42

$GPGLL,4709.3630,N,00138.2870,W,145349.000,A,A*4E

$GPGSA,A,3,26,10,07,18,21,27,08,16,,,,,1.24,0.96,0.78*07

$GPGSV,4,1,14,27,77,087,25,08,61,304,25,10,56,099,21,18,38,060,15*7A

$GPGSV,4,2,14,16,37,177,13,11,22,267,,21,15,066,17,07,13,283,14*71

$GPGSV,4,3,14,26,11,167,19,30,10,316,,01,10,246,,15,04,031,17*75

$GPGSV,4,4,14,32,01,128,,36,,,*42

$GPRMC,145349.000,A,4709.3630,N,00138.2870,W,0.24,289.08,180717,,,A*7C

$GPVTG,289.08,T,,M,0.24,N,0.45,K,A*31

$GPGGA,145350.000,4709.3630,N,00138.2871,W,1,08,0.96,54.4,M,48.7,M,,*4B

$GPGLL,4709.3630,N,00138.2871,W,145350.000,A,A*47

$GPGSA,A,3,26,10,07,18,21,27,08,16,,,,,1.24,0.96,0.78*07

$GPGSV,4,1,14,27,77,087,25,08,61,304,25,10,56,099,22,18,38,060,15*79

$GPGSV,4,2,14,16,37,177,14,11,22,267,,21,15,066,17,07,13,283,16*74

$GPGSV,4,3,14,26,11,167,19,30,10,316,,01,10,246,,15,04,031,17*75

$GPGSV,4,4,14,32,01,128,,36,,,*42

$GPRMC,145350.000,A,4709.3630,N,00138.2871,W,0.28,270.21,180717,,,A*74

$GPVTG,270.21,T,,M,0.28,N,0.53,K,A*37

$GPGGA,145351.000,4709.3630,N,00138.2873,W,1,08,0.96,54.4,M,48.7,M,,*48

$GPGLL,4709.3630,N,00138.2873,W,145351.000,A,A*44

$GPGSA,A,3,26,10,07,18,21,27,08,16,,,,,1.24,0.96,0.78*07

$GPGSV,4,1,14,27,77,087,25,08,61,304,24,10,56,099,22,18,38,060,16*7B

$GPGSV,4,2,14,16,37,177,14,11,22,267,,21,15,066,17,07,13,283,16*74

$GPGSV,4,3,14,26,11,167,19,30,10,316,,01,10,246,,15,04,031,17*75

$GPGSV,4,4,14,32,01,128,,36,,,*42

$GPRMC,145351.000,A,4709.3630,N,00138.2873,W,0.32,257.72,180717,,,A*7F

$GPVTG,257.72,T,,M,0.32,N,0.59,K,A*35

$GPGGA,145352.000,4709.3630,N,00138.2874,W,1,08,0.96,54.4,M,48.7,M,,*4C

$GPGLL,4709.3630,N,00138.2874,W,145352.000,A,A*40

$GPGSA,A,3,26,10,07,18,21,27,08,16,,,,,1.24,0.96,0.78*07

$GPGSV,4,1,13,27,77,087,25,08,61,304,24,10,56,099,22,18,38,060,16*7C

$GPGSV,4,2,13,16,37,177,12,11,22,267,,21,15,066,14,07,13,283,14*74

$GPGSV,4,3,13,26,11,167,19,30,10,316,,01,10,246,,15,04,031,18*7D

$GPGSV,4,4,13,32,01,128,*40

$GPRMC,145352.000,A,4709.3630,N,00138.2874,W,0.27,259.35,180717,,,A*72

$GPVTG,259.35,T,,M,0.27,N,0.50,K,A*35

$GPGGA,145353.000,4709.3630,N,00138.2875,W,1,08,0.96,54.4,M,48.7,M,,*4C

$GPGLL,4709.3630,N,00138.2875,W,145353.000,A,A*40

$GPGSA,A,3,26,10,07,18,21,27,08,16,,,,,1.24,0.96,0.78*07

$GPGSV,4,1,13,27,77,087,2