
$GPGSV,4,1,14,27,74,097,20,08,65,306,20,10,56,092,18,18,36,058,12*7D

$GPGSV,4,2,14,16,33,177,15,11,25,269,,01,13,248,,21,12,067,*7E

$GPGSV,4,3,14,07,12,280,16,30,10,313,,26,08,167,,15,04,028,16*70

$GPGSV,4,4,14,32,03,126,,22,01,203,*7B

$GPRMC,150203.000,A,4709.3463,N,00138.2942,W,0.31,162.47,180717,,,A*7A

$GPVTG,162.47,T,,M,0.31,N,0.57,K,A*3B

$GPGGA,150204.000,4709.3462,N,00138.2941,W,1,06,1.27,1.6,M,48.7,M,,*7F

$GPGLL,4709.3462,N,00138.2941,W,150204.000,A,A*44

$GPGSA,A,3,07,10,18,27,08,16,,,,,,,1.54,1.27,0.88*03

$GPGSV,4,1,14,27,74,097,20,08,65,306,20,10,56,092,18,18,36,058,12*7D

$GPGSV,4,2,14,16,33,177,15,11,25,269,,01,13,248,,21,12,067,*7E

$GPGSV,4,3,14,07,12,280,16,30,10,313,,26,08,167,,15,04,028,16*70

$GPGSV,4,4,14,32,03,126,,22,01,203,*7B

$GPRMC,150204.000,A,4709.3462,N,00138.2941,W,0.32,149.11,180717,,,A*76

$GPVTG,149.11,T,,M,0.32,N,0.59,K,A*3C

$GPGGA,150205.000,4709.3461,N,00138.2941,W,1,06,1.27,1.6,M,48.7,M,,*7D

$GPGLL,4709.3461,N,00138.2941,W,150205.000,A,A*46

$GPGSA,A,3,07,10,18,27,08,16,,,,,,,1.54,1.27,0.88*03

$GPGSV,4,1,14,27,74,097,20,08,65,306,19,10,56,092,18,18,36,058,11*74

$GPGSV,4,2,14,16,33,177,15,11,25,269,,01,13,248,,21,12,067,*7E

$GPGSV,4,3,14,07,12,280,16,30,10,313,,26,08,167,,15,04,028,16*70

$GPGSV,4,4,14,32,03,126,,22,01,203,*7B

$GPRMC,150205.000,A,4709.3461,N,00138.2941,W,0.33,136.47,180717,,,A*7E

$GPVTG,136.47,T,,M,0.33,N,0.61,K,A*3D

$GPGGA,150206.000,4709.3461,N,00138.2940,W,1,06,1.27,1.6,M,48.7,M,,*7F

$GPGLL,4709.3461,N,00138.2940,W,150206.000,A,A*44

$GPGSA,A,3,07,10,18,27,08,16,,,,,,,1.54,1.27,0.88*03

$GPGSV,4,1,14,27,74,097,19,08,65,306,19,10,56,092,18,18,36,058,11*7E

$GPGSV,4,2,14,16,33,177,16,11,25,269,,01,14,249,,21,12,067,*7B

$GPGSV,4,3,14,07,12,280,16,30,10,313,,26,08,167,,15,04,028,16*70

$GPGSV,4,4,14,32,03,126,,22,01,203,*7B

$GPRMC,150206.000,A,4709.3461,N,00138.2940,W,0.34,124.88,180717,,,A*7B

$GPVTG,124.88,T,,M,0.34,N,0.63,K,A*38

$GPGGA,150207.000,4709.3460,N,00138.2938,W,1,06,1.27,1.6,M,48.7,M,,*70

$GPGLL,4709.3460,N,00138.2938,W,150207.000,A,A*4B

$GPGSA,A,3,07,10,18,27,08,16,,,,,,,1.54,1.27,0.88*03

$GPGSV,4,1,14,27,74,097,19,08,65,306,19,10,56,092,18,18,36,058,11*7E

$GPGSV,4,2,14,16,33,177,16,11,25,269,,01,14,249,,21,12,067,*7B

$GPGSV,4,3,14,07,12,280,16,30,10,313,,26,08,167,,15,04,028,16*70

$GPGSV,4,4,14,32,03,126,,22,01,203,*7B

$GPRMC,150207.000,A,4709.3460,N,00138.2938,W,0.41,120.49,180717,,,A*7F

$GPVTG,120.49,T,,M,0.41,N,0.77,K,A*36

$GPGGA,150208.000,4709.3460,N,00138.2937,W,1,06,1.26,1.6,M,48.7,M,,*71

$GPGLL,4709.3460,N,00138.2937,W,150208.000,A,A*4B

$GPGSA,A,3,07,10,18,27,08,16,,,,,,,1.54,1.26,0.88*02

$GPGSV,4,1,14,27,74,097,19,08,65,306,19,10,56,092,18,18,36,058,11*7E

$GPGSV,4,2,14,16,33,177,16,11,25,269,,01,14,249,,21,12,067,*7B

$GPGSV,4,3,14,07,12,280,16,30,10,313,,26,08,167,,15,04,028,16*70

$GPGSV,4,4,14,32,03,126,,22,01,203,*7B

$GPRMC,150208.000,A,4709.3460,N,00138.2937,W,0.47,123.51,180717,,,A*73

$GPVTG,123.51,T,,M,0.47,N,0.88,K,A*3A

$GPGGA,150209.000,4709.3459,N,00138.2935,W,1,06,1.26,1.6,M,48.7,M,,*78

$GPGLL,4709.3459,N,00138.2935,W,150209.000,A,A*42

$GPGSA,A,3,07,10,18,27,08,16,,,,,,,1.54,1.26,0.88*02

$GPGSV,4,1,14,27,74,097,19,08,65,306,19,10,56,092,18,18,36,058,11*7E

$GPGSV,4,2,14,16,33,177,16,11,25,269,,01,14,249,,21,12,067,*7B

$GPGSV,4,3,14,07,12,280,16,30,10,313,,26,08,167,,15,04,028,16*70

$GPGSV,4,4,14,32,03,126,,22,01,203,*7B

$GPRMC,150209.000,A,4709.3459,N,00138.2935,W,0.49,129.79,180717,,,A*74

$GPVTG,129.79,T,,M,0.49,N,0.91,K,A*3C

$GPGGA,150210.000,4709.3458,N,00138.2934,W,1,06,1.27,1.6,M,48.7,M,,*71

$GPGLL,4709.3458,N,00138.2934,W,150210.000,A,A*4A

$GPGSA,A,3,07,10,18,27,08,16,,,,,,,1.54,1.27,0.88*03

$GPGSV,4,1,14,27,74,097,18,08,65,306,18,10,56,092,18,18,36,058,11*7E

$GPGSV,4,2,14,16,33,177,16,11,25,269,,01,14,249,,21,12,067,*7B

$GPGSV,4,3,14,07,12,280,16,30,10,313,,26,08,167,,15,04,028,16*70

$GPGSV,4,4,14,32,03,126,,22,01,203,*7B

$GPRMC,150210.000,A,4709.3458,N,00138.2934,W,0.50,132.93,180717,,,A*7A

$GPVTG,132.93,T,,M,0.50,N,0.92,K,A*39

$GPGGA,150211.000,4709.3457,N,00138.2932,W,1,06,1.27,1.6,M,48.7,M,,*79

$GPGLL,4709.3457,N,00138.2932,W,150211.000,A,A*42

$GPGSA,A,3,07,10,18,27,08,16,,,,,,,1.54,1.27,0.88*03

$GPGSV,4,1,14,27,74,097,18,08,65,306,17,10,56,092,18,18,36,058,11*71

$GPGSV,4,2,14,16,33,177,17,11,25,269,,01,14,249,,21,12,067,*7A

$GPGSV,4,3,14,07,12,280,15,30,10,313,,26,08,167,,15,04,028,15*70

$GPGSV,4,4,14,32,03,126,,22,01,203,*7B

$GPRMC,150211.000,A,4709.3457,N,00138.2932,W,0.51,133.75,180717,,,A*7A

$GPVTG,133.75,T,,M,0.51,N,0.94,K,A*37

$GPGGA,150212.000,4709.3456,N,00138.2931,W,1,06,1.26,1.6,M,48.7,M,,*79

$GPGLL,4709.3456,N,00138.2931,W,150212.000,A,A*43

$GPGSA,A,3,07,10,18,27,08,16,,,,,,,1.54,1.26,0.88*02

$GPGSV,4,1,14,27,74,097,18,08,65,306,17,10,56,092,18,18,36,058,11*71

$GPGSV,4,2,14,16,33,177,17,11,25,269,,01,14,249,,21,12,067,*7A

$GPGSV,4,3,14,07,12,279,15,30,10,313,,26,08,167,,15,04,028,15*76

$GPGSV,4,4,14,32,03,126,,22,01,203,*7B

$GPRMC,150212.000,A,4709.3456,N,00138.2931,W,0.48,136.64,180717,,,A*76

$GPVTG,136.64,T,,M,0.48,N,0.90,K,A*3E

$GPGGA,150213.000,4709.3455,N,00138.2929,W,1,06,1.27,1.6,M,48.7,M,,*73

$GPGLL,4709.3455,N,00138.2929,W,150213.000,A,A*48

$GPGSA,A,3,07,10,18,27,08,16,,,,,,,1.54,1.27,0.88*03

$GPGSV,4,1,14,27,74,097,18,08,65,306,17,10,56,092,17,18,36,058,11*7E

$GPGSV,4,2,14,16,33,177,17,11,25,269,,01,14,249,,21,12,067,*7A

$GPGSV,4,3,14,07,12,279,15,30,10,313,,26,08,167,,15,04,028,15*76

$GPGSV,4,4,14,32,03,126,,22,01,203,*7B

$GPRMC,150213.000,A,4709.3455,N,00138.2929,W,0.53,140.67,180717,,,A*75

$GPVTG,140.67,T,,M,0.53,N,0.98,K,A*3E

$GPGGA,150214.000,4709.3454,N,00138.2928,W,1,06,1.26,1.6,M,48.7,M,,*75

$GPGLL,4709.3454,N,00138.2928,W,150214.000,A,A*4F

$GPGSA,A,3,07,10,18,27,08,16,,,,,,,1.54,1.26,0.88*02

$GPGSV,4,1,14,27,74,097,18,08,65,306,17,10,56,092,17,18,36,058,11*7E

$GPGSV,4,2,14,16,33,177,17,11,25,269,,01,14,249,,21,12,067,*7A

$GPGSV,4,3,14,07,12,279,14,30,10,313,,26,08,167,,15,04,028,15*77

$GPGSV,4,4,14,32,03,126,,22,01,203,*7B

$GPRMC,150214.000,A,4709.3454,N,00138.2928,W,0.57,140.47,180717,,,A*74

$GPVTG,140.47,T,,M,0.57,N,1.06,K,A*3E

$GPGGA,150215.000,4709.3452,N,00138.2926,W,1,06,1.26,1.6,M,48.7,M,,*7C

$GPGLL,4709.3452,N,00138.2926,W,150215.000,A,A*46

$GPGSA,A,3,07,10,18,27,08,16,,,,,,,1.54,1.26,0.88*02

$GPGSV,4,1,14,27,74,097,18,08,65,306,17,10,56,091,17,18,36,058,11*7D

$GPGSV,4,2,14,16,33,177,17,11,25,269,17,01,14,249,,21,12,067,*7C

$GPGSV,4,3,14,07,12,279,14,30,10,313,,26,08,167,,15,04,028,15*77

$GPGSV,4,4,14,32,03,126,,22,01,203,*7B

$GPRMC,150215.000,A,4709.3452,N,00138.2926,W,0.63,141.54,180717,,,A*79

$GPVTG,141.54,T,,M,0.63,N,1.17,K,A*3A

$GPGGA,150216.000,4709.3444,N,00138.2917,W,1,06,1.26,1.6,M,48.7,M,,*7A

$GPGLL,4709.3444,N,00138.2917,W,150216.000,A,A*40

$GPGSA,A,3,07,10,18,27,08,16,,,,,,,1.54,1.26,0.88*02

$GPGSV,4,1,14,27,74,097,18,08,65,306,17,10,56,091,17,18,36,058,11*7D

$GPGSV,4,2,14,16,33,177,17,11,25,269,14,01,14,249,,21,12,067,*7F

$GPGSV,4,3,14,07,12,279,14,30,10,313,,26,08,167,,15,04,028,15*77

$GPGSV,4,4,14,32,03,126,,22,01,203,*7B

$GPRMC,150216.000,A,4709.3444,N,00138.2917,W,0.77,140.25,180717,,,A*7D

$GPVTG,140.25,T,,M,0.77,N,1.43,K,A*39

$GPGGA,150217.000,4709.3442,N,00138.2915,W,1,06,1.26,1.6,M,48.7,M,,*7F

$GPGLL,4709.3442,N,00138.2915,W,150217.000,A,A*45

$GPGSA,A,3,07,10,18,27,08,16,,,,,,,1.54,1.26,0.88*02

$GPGSV,4,1,14,27,74,097,18,08,65,306,17,10,56,091,17,18,36,058,11*7D

$GPGSV,4,2,14,16,33,177,17,11,25,269,17,01,14,249,,21,12,067,*7C

$GPGSV,4,3,14,07,12,279,15,30,10,313,,26,08,167,,15,04,028,15*76

$GPGSV,4,4,14,32,03,126,,22,01,203,*7B

$GPRMC,150217.000,A,4709.3442,N,00138.2915,W,0.75,139.60,180717,,,A*75

$GPVTG,139.60,T,,M,0.75,N,1.40,K,A*37

$GPGGA,150218.000,4709.3443,N,00138.2902,W,1,06,1.26,1.6,M,48.7,M,,*77

$GPGLL,4709.3443,N,00138.2902,W,150218.000,A,A*4D

$GPGSA,A,3,07,10,18,27,08,16,,,,,,,1.54,1.26,0.88*02

$GPGSV,4,1,14,27,74,097,18,08,65,306,18,10,56,091,16,18,36,058,12*70

$GPGSV,4,2,14,16,33,177,16,11,25,269,17,01,14,249,,21,12,067,*7D

$GPGSV,4,3,14,07,12,279,15,30,10,313,,26,08,167,,15,04,028,16*75

$GPGSV,4,4,14,32,03,126,,22,01,203,*7B

$GPRMC,150218.000,A,4709.3443,N,00138.2902,W,0.78,132.29,180717,,,A*76

$GPVTG,132.29,T,,M,0.78,N,1.45,K,A*39

$GPGGA,150219.000,4709.3442,N,00138.2896,W,1,06,1.26,1.7,M,48.7,M,,*7A

$GPGLL,4709.3442,N,00138.2896,W,150219.000,A,A*41

$GPGSA,A,3,07,10,18,27,08,16,,,,,,,1.54,1.26,0.88*02

$GPGSV,4,1,14,27,74,097,18,08,65,306,18,10,56,091,15,18,36,058,13*72

$GPGSV,4,2,14,16,33,177,16,11,25,269,18,01,14,249,,21,12,067,*72

$GPGSV,4,3,14,07,12,279,15,30,10,313,,26,08,167,,15,04,028,16*75

$GPGSV,4,4,14,32,03,126,,22,01,203,*7B

$GPRMC,150219.000,A,4709.3442,N,00138.2896,W,0.77,130.03,180717,,,A*7F

$GPVTG,130.03,T,,M,0.77,N,1.43,K,A*3A

$GPGGA,150220.000,4709.3441,N,00138.2900,W,1,06,1.26,1.7,M,48.7,M,,*7D

$GPGLL,4709.3441,N,00138.2900,W,150220.000,A,A*46

$GPGSA,A,3,07,10,18,27,08,16,,,,,,,1.54,1.26,0.88*02

$GPGSV,4,1,14,27,74,097,18,08,65,306,18,10,56,091,14,18,36,058,14*74

$GPGSV,4,2,14,16,33,177,16,11,25,269,18,01,14,249,,21,12,067,*72

$GPGSV,4,3,14,07,12,279,14,30,10,313,,26,08,167,,15,04,028,16*74

$GPGSV,4,4,14,32,03,126,,22,01,203,*7B

$GPRMC,150220.000,A,4709.3441,N,00138.2900,W,0.64,135.90,180717,,,A*75

$GPVTG,135.90,T,,M,0.64,N,1.19,K,A*38

$GPGGA,150221.000,4709.3441,N,00138.2893,W,1,06,1.26,1.7,M,48.7,M,,*77

$GPGLL,4709.3441,N,00138.2893,W,150221.000,A,A*4C

$GPGSA,A,3,07,10,18,27,08,16,,,,,,,1.54,1.26,0.88*02

$GPGSV,4,1,14,27,74,097,18,08,65,306,18,10,56,091,15,18,36,058,14*75

$GPGSV,4,2,14,16,33,177,16,11,25,269,18,01,14,249,,21,12,067,*72

$GPGSV,4,3,14,07,12,279,15,30,10,313,,26,08,167,,15,04,028,16*75

$GPGSV,4,4,14,32,03,126,,22,01,203,*7B

$GPRMC,150221.000,A,4709.3441,N,00138.2893,W,0.66,134.28,180717,,,A*7F

$GPVTG,134.28,T,,M,0.66,N,1.22,K,A*30

$GPGGA,150222.000,4709.3440,N,00138.2887,W,1,06,1.26,1.7,M,48.7,M,,*70

$GPGLL,4709.3440,N,00138.2887,W,150222.000,A,A*4B

$GPGSA,A,3,07,10,18,27,08,16,,,,,,,1.54,1.26,0.88*02

$GPGSV,4,1,14,27,74,097,17,08,65,306,17,10,56,091,14,18,36,058,14*74

$GPGSV,4,2,14,16,33,177,16,11,25,269,18,01,14,249,,21,12,067,*72

$GPGSV,4,3,14,07,12,279,14,30,10,313,,26,08,167,,15,04,028,16*74

$GPGSV,4,4,14,32,03,126,,22,01,203,*7B

$GPRMC,150222.000,A,4709.3440,N,00138.2887,W,0.67,135.18,180717,,,A*7B

$GPVTG,135.18,T,,M,0.67,N,1.24,K,A*35

$GPGGA,150223.000,4709.3437,N,00138.2890,W,1,06,1.26,1.8,M,48.7,M,,*78

$GPGLL,4709.3437,N,00138.2890,W,150223.000,A,A*4C

$GPGSA,A,3,07,10,18,27,08,16,,,,,,,1.54,1.26,0.88*02

$GPGSV,4,1,14,27,74,097,17,08,65,306,17,10,56,091,12,18,36,057,14*7D

$GPGSV,4,2,14,16,33,177,16,11,25,269,18,01,14,249,,21,12,067,*72

$GPGSV,4,3,14,07,12,279,15,30,10,313,,26,08,167,,15,04,028,16*75

$GPGSV,4,4,14,32,03,126,,22,01,203,*7B

$GPRMC,150223.000,A,4709.3437,N,00138.2890,W,0.61,140.33,180717,,,A*71

$GPVTG,140.33,T,,M,0.61,N,1.14,K,A*3B

$GPGGA,150224.000,4709.3442,N,00138.2887,W,1,06,1.26,1.8,M,48.7,M,,*7B

$GPGLL,4709.3442,N,00138.2887,W,150224.000,A,A*4F

$GPGSA,A,3,07,10,18,27,08,16,,,,,,,1.54,1.26,0.88*02

$GPGSV,4,1,14,27,74,097,17,08,65,306,17,10,56,091,11,18,36,057,15*7F

$GPGSV,4,2,14,16,33,177,17,11,25,269,18,01,14,249,,21,12,067,*73

$GPGSV,4,3,14,07,12,279,16,30,10,313,,26,08,167,,15,04,028,16*76

$GPGSV,4,4,14,32,03,126,,22,01,203,*7B

$GPRMC,150224.000,A,4709.3442,N,00138.2887,W,0.48,135.36,180717,,,A*7E

$GPVTG,135.36,T,,M,0.48,N,0.90,K,A*3A

$GPGGA,150225.000,4709.3449,N,00138.2884,W,1,06,1.26,1.8,M,48.7,M,,*72

$GPGLL,4709.3449,N,00138.2884,W,150225.000,A,A*46

$GPGSA,A,3,07,10,18,27,08,16,,,,,,,1.54,1.26,0.88*02

$GPGSV,4,1,14,27,74,097,16,08,65,306,17,10,56,091,12,18,36,057,16*7E

$GPGSV,4,2,14,16,33,177,17,11,25,269,18,01,14,249,,21,12,067,*73

$GPGSV,4,3,14,07,12,279,15,30,10,313,,26,08,167,,15,04,028,16*75

$GPGSV,4,4,14,32,03,126,,22,01,203,*7B

$GPRMC,150225.000,A,4709.3449,N,00138.2884,W,0.33,116.83,180717,,,A*74

$GPVTG,116.83,T,,M,0.33,N,0.61,K,A*37

$GPGGA,150226.000,4709.3455,N,00138.2882,W,1,06,1.26,1.9,M,48.7,M,,*7B

$GPGLL,4709.3455,N,00138.2882,W,150226.000,A,A*4E

$GPGSA,A,3,07,10,18,27,08,16,,,,,,,1.54,1.26,0.88*02

$GPGSV,4,1,14,27,74,097,16,08,65,306,16,10,56,091,12,18,36,057,16*7F

$GPGSV,4,2,14,16,33,177,17,11,25,269,18,01,14,249,,21,12,067,*73

$GPGSV,4,3,14,07,12,279,16,30,10,313,,26,08,167,,15,04,028,16*76

$GPGSV,4,4,14,32,03,126,,22,01,203,*7B

$GPRMC,150226.000,A,4709.3455,N,00138.2882,W,0.28,93.27,180717,,,A*44

$GPVTG,93.27,T,,M,0.28,N,0.52,K,A*0F

$GPGGA,150227.000,4709.3461,N,00138.2878,W,1,06,1.26,1.9,M,48.7,M,,*78

$GPGLL,4709.3461,N,00138.2878,W,150227.000,A,A*4D

$GPGSA,A,3,07,10,18,27,08,16,,,,,,,1.54,1.26,0.88*02

$GPGSV,4,1,14,27,74,097,16,08,65,306,16,10,56,091,11,18,36,057,15*7F

$GPGSV,4,2,14,16,33,177,17,11,25,269,18,01,14,249,,21,12,067,*73

$GPGSV,4,3,14,07,12,279,15,30,10,313,,26,08,167,,15,04,028,16*75

$GPGSV,4,4,14,32,03,126,,22,01,203,*7B

$GPRMC,150227.000,A,4709.3461,N,00138.2878,W,0.33,65.19,180717,,,A*49

$GPVTG,65.19,T,,M,0.33,N,0.62,K,A*02

$GPGGA,150228.000,4709.3462,N,00138.2877,W,1,06,1.26,1.9,M,48.7,M,,*7B

$GPGLL,4709.3462,N,00138.2877,W,150228.000,A,A*4E

$GPGSA,A,3,07,10,18,27,08,16,,,,,,,1.54,1.26,0.88*02

$GPGSV,4,1,14,27,74,097,16,08,65,306,16,10,56,091,10,18,36,057,14*7F

$GPGSV,4,2,14,16,33,177,17,11,25,269,18,01,14,249,,21,12,067,*73

$GPGSV,4,3,14,07,12,279,14,30,10,313,,26,08,167,,15,04,028,16*74

$GPGSV,4,4,14,32,03,126,,22,01,203,*7B

$GPRMC,150228.000,A,4709.3462,N,00138.2877,W,0.39,57.14,180717,,,A*4C

$GPVTG,57.14,T,,M,0.39,N,0.72,K,A*05

$GPGGA,150229.000,4709.3462,N,00138.2876,W,1,06,1.26,1.9,M,48.7,M,,*7B

$GPGLL,4709.3462,N,00138.2876,W,150229.000,A,A*4E

$GPGSA,A,3,07,10,18,27,08,16,,,,,,,1.54,1.26,0.88*02

$GPGSV,4,1,14,27,74,097,16,08,65,306,16,10,56,091,09,18,36,057,11*72

$GPGSV,4,2,14,16,33,177,17,11,25,269,17,01,14,249,,21,12,067,*7C

$GPGSV,4,3,14,07,12,279,14,30,10,313,,26,08,167,,15,04,028,16*74

$GPGSV,4,4,14,32,03,126,,22,01,203,*7B

$GPRMC,150229.000,A,4709.3462,N,00138.2876,W,0.45,52.07,180717,,,A*40

$GPVTG,52.07,T,,M,0.45,N,0.83,K,A*07

$GPGGA,150230.000,4709.3463,N,00138.2874,W,1,06,1.26,1.9,M,48.7,M,,*70

$GPGLL,4709.3463,N,00138.2874,W,150230.000,A,A*45

$GPGSA,A,3,07,10,18,27,08,16,,,,,,,1.54,1.26,0.88*02

$GPGSV,4,1,14,27,74,097,16,08,65,306,16,10,56,091,09,18,36,057,13*70

$GPGSV,4,2,14,16,33,177,17,11,25,269,17,01,14,249,,21,12,067,*7C

$GPGSV,4,3,14,07,12,279,15,30,10,313,,26,08,167,,15,04,028,16*75

$GPGSV,4,4,14,32,03,126,,22,01,203,*7B

$GPRMC,150230.000,A,4709.3463,N,00138.2874,W,0.51,50.59,180717,,,A*47

$GPVTG,50.59,T,,M,0.51,N,0.95,K,A*0C

$GPGGA,150231.000,4709.3464,N,00138.2872,W,1,06,1.26,1.9,M,48.7,M,,*70

$GPGLL,4709.3464,N,00138.2872,W,150231.000,A,A*45

$GPGSA,A,3,07,10,18,27,08,16,,,,,,,1.54,1.26,0.88*02

$GPGSV,4,1,14,27,74,097,16,08,65,306,16,10,56,091,09,18,36,057,14*77

$GPGSV,4,2,14,16,33,177,18,11,25,269,17,01,14,249,,21,12,067,*73

$GPGSV,4,3,14,07,12,279,15,30,10,313,,26,08,167,,15,04,028,16*75

$GPGSV,4,4,14,32,03,126,,22,01,203,*7B

$GPRMC,150231.000,A,4709.3464,N,00138.2872,W,0.62,55.33,180717,,,A*4E

$GPVTG,55.33,T,,M,0.62,N,1.14,K,A*0D

$GPGGA,150232.000,4709.3468,N,00138.2862,W,1,06,1.26,1.8,M,48.7,M,,*7F

$GPGLL,4709.3468,N,00138.2862,W,150232.000,A,A*4B

$GPGSA,A,3,07,10,18,27,08,16,,,,,,,1.54,1.26,0.88*02

$GPGSV,4,1,14,27,74,098,16,08,65,306,16,10,56,091,09,18,36,057,13*7F

$GPGSV,4,2,14,16,33,177,18,11,25,269,17,01,14,249,,21,12,067,*73

$GPGSV,4,3,14,07,12,279,15,30,10,313,,26,08,167,,15,04,028,15*76

$GPGSV,4,4,14,32,03,126,,22,01,203,*7B

$GPRMC,150232.000,A,4709.3468,N,00138.2862,W,0.72,58.37,180717,,,A*48

$GPVTG,58.37,T,,M,0.72,N,1.34,K,A*07

$GPGGA,150233.000,4709.3469,N,00138.2848,W,1,06,1.26,1.8,M,48.7,M,,*77

$GPGLL,4709.3469,N,00138.2848,W,150233.000,A,A*43

$GPGSA,A,3,07,10,18,27,08,16,,,,,,,1.54,1.26,0.88*02

$GPGSV,4,1,14,27,74,098,16,08,65,306,16,10,56,091,09,18,36,057,13*7F

$GPGSV,4,2,14,16,33,177,18,11,25,269,17,01,14,249,,21,12,067,*73

$GPGSV,4,3,14,07,12,279,12,30,10,313,,26,08,167,,15,04,028,15*71

$GPGSV,4,4,14,32,03,126,,22,01,203,*7B

$GPRMC,150233.000,A,4709.3469,N,00138.2848,W,0.85,64.74,180717,,,A*40

$GPVTG,64.74,T,,M,0.85,N,1.57,K,A*02

$GPGGA,150234.000,4709.3468,N,00138.2839,W,1,06,1.26,1.8,M,48.7,M,,*77

$GPGLL,4709.3468,N,00138.2839,W,150234.000,A,A*43

$GPGSA,A,3,07,10,18,27,08,16,,,,,,,1.54,1.26,0.88*02

$GPGSV,4,1,14,27,74,098,15,08,65,306,16,10,56,091,09,18,36,057,13*7C

$GPGSV,4,2,14,16,33,177,18,11,25,269,17,01,14,249,,21,12,067,*73

$GPGSV,4,3,14,07,12,279,14,30,10,313,,26,08,167,,15,04,028,15*77

$GPGSV,4,4,14,32,03,126,,22,01,203,*7B

$GPRMC,150234.000,A,4709.3468,N,00138.2839,W,0.89,68.54,180717,,,A*42

$GPVTG,68.54,T,,M,0.89,N,1.65,K,A*01

$GPGGA,150235.000,4709.3471,N,00138.2836,W,1,06,1.26,1.8,M,48.7,M,,*71

$GPGLL,4709.3471,N,00138.2836,W,150235.000,A,A*45

$GPGSA,A,3,07,10,18,27,08,16,,,,,,,1.54,1.26,0.88*02

$GPGSV,4,1,14,27,74,098,15,08,65,306,16,10,56,091,08,18,36,057,12*7C

$GPGSV,4,2,14,16,33,177,18,11,25,269,17,01,14,249,,21,12,067,*73

$GPGSV,4,3,14,07,12,279,16,30,10,312,,26,08,167,,15,04,028,16*77

$GPGSV,4,4,14,32,03,126,,22,01,203,*7B

$GPRMC,150235.000,A,4709.3471,N,00138.2836,W,0.90,66.30,180717,,,A*40

$GPVTG,66.30,T,,M,0.90,N,1.66,K,A*06

$GPGGA,150236.000,4709.3475,N,00138.2834,W,1,06,1.26,1.9,M,48.7,M,,*75

$GPGLL,4709.3475,N,00138.2834,W,150236.000,A,A*40

$GPGSA,A,3,07,10,18,27,08,16,,,,,,,1.54,1.26,0.88*02

$GPGSV,4,1,14,27,74,098,15,08,65,306,16,10,56,091,08,18,36,057,12*7C

$GPGSV,4,2,14,16,33,177,18,11,25,269,17,01,14,249,,21,12,067,*73

$GPGSV,4,3,14,07,12,279,16,30,10,312,,26,08,167,,15,04,028,16*77

$GPGSV,4,4,14,32,03,126,,22,01,203,*7B

$GPRMC,150236.000,A,4709.3475,N,00138.2834,W,0.88,62.95,180717,,,A*47

$GPVTG,62.95,T,,M,0.88,N,1.62,K,A*00

$GPGGA,150237.000,4709.3479,N,00138.2838,W,1,07,1.16,1.9,M,48.7,M,,*76

$GPGLL,4709.3479,N,00138.2838,W,150237.000,A,A*41

$GPGSA,A,3,07,21,10,18,27,08,16,,,,,,1.41,1.16,0.80*0E

$GPGSV,4,1,14,27,74,098,15,08,65,306,16,10,56,091,07,18,36,057,12*73

$GPGSV,4,2,14,16,33,177,19,11,25,269,17,01,14,249,,21,12,067,14*77

$GPGSV,4,3,14,07,12,279,14,30,10,312,,26,08,167,,32,04,126,*78

$GPGSV,4,4,14,15,04,028,16,22,01,203,*71

$GPRMC,150237.000,A,4709.3479,N,00138.2838,W,0.72,55.09,180717,,,A*42

$GPVTG,55.09,T,,M,0.72,N,1.34,K,A*07

$GPGGA,150238.000,4709.3483,N,00138.2838,W,1,07,1.16,1.9,M,48.7,M,,*7C

$GPGLL,4709.3483,N,00138.2838,W,150238.000,A,A*4B

$GPGSA,A,3,07,21,10,18,27,08,16,,,,,,1.41,1.16,0.80*0E

$GPGSV,4,1,14,27,74,098,17,08,65,306,16,10,56,091,07,18,36,057,12*71

$GPGSV,4,2,14,16,33,177,19,11,25,269,17,01,14,249,,21,12,067,15*76

$GPGSV,4,3,14,07,12,279,14,30,10,312,,26,08,167,,32,04,126,*78

$GPGSV,4,4,14,15,04,028,16,22,01,203,*71

$GPRMC,150238.000,A,4709.3483,N,00138.2838,W,0.66,50.72,180717,,,A*44

$GPVTG,50.72,T,,M,0.66,N,1.22,K,A*0C

$GPGGA,150239.000,4709.3485,N,00138.2840,W,1,07,1.16,1.9,M,48.7,M,,*74

$GPGLL,4709.3485,N,00138.2840,W,150239.000,A,A*43

$GPGSA,A,3,07,21,10,18,27,08,16,,,,,,1.41,1.16,0.80*0E

$GPGSV,4,1,14,27,74,098,15,08,65,306,15,10,56,091,07,18,36,057,11*73

$GPGSV,4,2,14,16,33,177,19,11,25,269,17,01,14,249,,21,12,067,15*76

$GPGSV,4,3,14,07,12,279,13,30,10,312,,26,08,167,,32,04,126,*7F

$GPGSV,4,4,14,15,04,028,16,22,01,203,*71

$GPRMC,150239.000,A,4709.3485,N,00138.2840,W,0.60,46.13,180717,,,A*4A

$GPVTG,46.13,T,,M,0.60,N,1.10,K,A*0B

$GPGGA,150240.000,4709.3488,N,00138.2843,W,1,07,1.16,1.9,M,48.7,M,,*74

$GPGLL,4709.3488,N,00138.2843,W,150240.000,A,A*43

$GPGSA,A,3,07,21,10,18,27,08,16,,,,,,1.41,1.16,0.80*0E

$GPGSV,4,1,14,27,74,098,16,08,65,306,15,10,56,091,07,18,36,057,10*71

$GPGSV,4,2,14,16,33,177,19,11,25,269,17,01,14,249,,21,12,067,14*77

$GPGSV,4,3,14,07,12,279,14,30,10,312,,26,08,167,,32,04,126,*78

$GPGSV,4,4,14,15,04,028,16,22,01,203,*71

$GPRMC,150240.000,A,4709.3488,N,00138.2843,W,0.49,38.67,180717,,,A*4B

$GPVTG,38.67,T,,M,0.49,N,0.92,K,A*01

$GPGGA,150241.000,4709.3490,N,00138.2845,W,1,07,1.16,1.9,M,48.7,M,,*7A

$GPGLL,4709.3490,N,00138.2845,W,150241.000,A,A*4D

$GPGSA,A,3,07,21,10,18,27,08,16,,,,,,1.41,1.16,0.80*0E

$GPGSV,4,1,14,27,74,098,15,08,65,306,15,10,56,091,07,18,36,057,10*72

$GPGSV,4,2,14,16,33,177,19,11,25,269,17,01,14,249,,21,12,067,14*77

$GPGSV,4,3,14,07,12,279,14,30,10,312,,26,08,167,,32,04,126,*78

$GPGSV,4,4,14,15,04,028,16,22,01,203,*71

$GPRMC,150241.000,A,4709.3490,N,00138.2845,W,0.47,31.05,180717,,,A*46

$GPVTG,31.05,T,,M,0.47,N,0.87,K,A*06

$GPGGA,150242.000,4709.3496,N,00138.2846,W,1,07,1.16,1.9,M,48.7,M,,*7C

$GPGLL,4709.3496,N,00138.2846,W,150242.000,A,A*4B

$GPGSA,A,3,07,21,10,18,27,08,16,,,,,,1.41,1.16,0.80*0E

$GPGSV,4,1,14,27,74,098,13,08,65,306,15,10,56,091,07,18,36,057,10*74

$GPGSV,4,2,14,16,33,177,19,11,25,269,17,01,14,249,,21,12,067,16*75

$GPGSV,4,3,14,07,12,279,14,30,10,312,,26,08,167,,32,04,126,*78

$GPGSV,4,4,14,15,04,028,16,22,01,203,*71

$GPRMC,150242.000,A,4709.3496,N,00138.2846,W,0.55,22.11,180717,,,A*44

$GPVTG,22.11,T,,M,0.55,N,1.02,K,A*0E

$GPGGA,150243.000,4709.3499,N,00138.2846,W,1,07,1.16,1.9,M,48.7,M,,*72

$GPGLL,4709.3499,N,00138.2846,W,150243.000,A,A*45

$GPGSA,A,3,07,21,10,18,27,08,16,,,,,,1.41,1.16,0.80*0E

$GPGSV,4,1,14,27,74,098,14,08,65,306,15,10,56,091,07,18,36,057,10*73

$GPGSV,4,2,14,16,33,177,18,11,25,269,17,01,14,249,,21,12,067,16*74

$GPGSV,4,3,14,07,12,279,13,30,10,312,,26,08,167,,32,04,126,*7F

$GPGSV,4,4,14,15,04,028,16,22,01,203,*71

$GPRMC,150243.000,A,4709.3499,N,00138.2846,W,0.60,18.02,180717,,,A*47

$GPVTG,18.02,T,,M,0.60,N,1.11,K,A*01

$GPGGA,150244.000,4709.3500,N,00138.2839,W,1,07,1.16,1.9,M,48.7,M,,*7C

$GPGLL,4709.3500,N,00138.2839,W,150244.000,A,A*4B

$GPGSA,A,3,07,21,10,18,27,08,16,,,,,,1.41,1.16,0.80*0E

$GPGSV,4,1,14,27,74,098,13,08,65,306,15,10,56,091,07,18,36,057,10*74

$GPGSV,4,2,14,16,33,177,18,11,25,269,17,01,14,249,,21,12,067,14*76

$GPGSV,4,3,14,07,12,279,15,30,10,312,,26,08,167,,32,04,126,*79

$GPGSV,4,4,14,15,04,028,16,22,01,203,*71

$GPRMC,150244.000,A,4709.3500,N,00138.2839,W,0.64,22.42,180717,,,A*40

$GPVTG,22.42,T,,M,0.64,N,1.18,K,A*01

$GPGGA,150245.000,4709.3502,N,00138.2832,W,1,07,1.16,1.9,M,48.7,M,,*74

$GPGLL,4709.3502,N,00138.2832,W,150245.000,A,A*43

$GPGSA,A,3,07,21,10,18,27,08,16,,,,,,1.41,1.16,0.80*0E

$GPGSV,4,1,14,27,74,098,13,08,65,306,16,10,56,091,07,18,36,057,10*77

$GPGSV,4,2,14,16,33,177,18,11,25,269,17,01,14,249,,21,12,067,15*77

$GPGSV,4,3,14,07,12,279,14,30,10,312,,26,08,167,,32,04,126,*78

$GPGSV,4,4,14,15,04,028,16,22,01,203,*71

$GPRMC,150245.000,A,4709.3502,N,00138.2832,W,0.69,24.87,180717,,,A*4A

$GPVTG,24.87,T,,M,0.69,N,1.27,K,A*0F

$GPGGA,150246.000,4709.3502,N,00138.2830,W,1,06,1.18,1.9,M,48.7,M,,*7A

$GPGLL,4709.3502,N,00138.2830,W,150246.000,A,A*42

$GPGSA,A,3,07,21,18,27,08,16,,,,,,,1.43,1.18,0.81*02

$GPGSV,4,1,14,27,74,098,13,08,65,306,16,10,56,091,06,18,36,057,10*76

$GPGSV,4,2,14,16,33,177,18,11,25,269,17,01,14,249,,21,12,067,16*74

$GPGSV,4,3,14,07,12,279,15,30,10,312,,26,08,167,,32,04,126,*79

$GPGSV,4,4,14,15,04,028,16,22,01,203,*71

$GPRMC,150246.000,A,4709.3502,N,00138.2830,W,0.64,23.27,180717,,,A*4B

$GPVTG,23.27,T,,M,0.64,N,1.19,K,A*02

$GPGGA,150247.000,4709.3501,N,00138.2832,W,1,06,1.18,1.9,M,48.7,M,,*7A

$GPGLL,4709.3501,N,00138.2832,W,150247.000,A,A*42

$GPGSA,A,3,07,21,18,27,08,16,,,,,,,1.43,1.18,0.81*02

$GPGSV,4,1,14,27,74,098,09,08,65,306,16,10,56,091,05,18,36,057,11*7F

$GPGSV,4,2,14,16,33,177,18,11,25,269,18,01,14,249,,21,12,067,16*7B

$GPGSV,4,3,14,07,11,279,15,30,10,312,,26,08,167,,32,04,126,*7A

$GPGSV,4,4,14,15,04,028,16,22,01,203,*71

$GPRMC,150247.000,A,4709.3501,N,00138.2832,W,0.58,19.90,180717,,,A*41

$GPVTG,19.90,T,,M,0.58,N,1.07,K,A*07

$GPGGA,150248.000,4709.3497,N,00138.2828,W,1,06,1.18,1.9,M,48.7,M,,*70

$GPGLL,4709.3497,N,00138.2828,W,150248.000,A,A*48

$GPGSA,A,3,07,21,18,27,08,16,,,,,,,1.43,1.18,0.81*02

$GPGSV,4,1,14,27,74,098,10,08,65,306,16,10,56,091,05,18,36,057,12*74

$GPGSV,4,2,14,16,33,177,18,11,25,269,18,01,14,249,,21,12,067,16*7B

$GPGSV,4,3,14,07,11,279,15,30,10,312,,26,08,167,,32,04,126,*7A

$GPGSV,4,4,14,15,04,028,16,22,01,203,*71

$GPRMC,150248.000,A,4709.3497,N,00138.2828,W,0.52,23.45,180717,,,A*40

$GPVTG,23.45,T,,M,0.52,N,0.96,K,A*05

$GPGGA,150249.000,4709.3491,N,00138.2833,W,1,06,1.18,1.9,M,48.7,M,,*7D

$GPGLL,4709.3491,N,00138.2833,W,150249.000,A,A*45

$GPGSA,A,3,07,21,18,27,08,16,,,,,,,1.43,1.18,0.81*02

$GPGSV,4,1,14,27,74,098,10,08,65,306,16,10,56,091,05,18,36,057,13*75

$GPGSV,4,2,14,16,33,177,18,11,25,269,18,01,14,249,,21,12,067,18*75

$GPGSV,4,3,14,07,11,279,13,30,10,312,,26,08,167,,32,04,126,*7C

$GPGSV,4,4,14,15,04,028,16,22,01,203,*71

$GPRMC,150249.000,A,4709.3491,N,00138.2833,W,0.37,21.31,180717,,,A*4F

$GPVTG,21.31,T,,M,0.37,N,0.68,K,A*06

$GPGGA,150250.000,4709.3484,N,00138.2830,W,1,07,1.16,1.8,M,48.7,M,,*7C

$GPGLL,4709.3484,N,00138.2830,W,150250.000,A,A*4A

$GPGSA,A,3,07,21,10,18,27,08,16,,,,,,1.41,1.16,0.80*0E

$GPGSV,4,1,14,27,74,098,11,08,65,306,17,10,56,091,06,18,36,057,13*76

$GPGSV,4,2,14,16,33,177,18,11,25,269,18,01,14,249,,21,12,067,18*75

$GPGSV,4,3,14,07,11,279,14,30,10,312,,26,08,167,,32,04,126,*7B

$GPGSV,4,4,14,15,04,028,16,22,01,203,*71

$GPRMC,150250.000,A,4709.3484,N,00138.2830,W,0.28,34.16,180717,,,A*4F

$GPVTG,34.16,T,,M,0.28,N,0.52,K,A*00

$GPGGA,150251.000,4709.3485,N,00138.2829,W,1,07,1.16,1.8,M,48.7,M,,*74

$GPGLL,4709.3485,N,00138.2829,W,150251.000,A,A*42

$GPGSA,A,3,07,21,10,18,27,08,16,,,,,,1.41,1.16,0.80*0E

$GPGSV,4,1,14,27,74,098,11,08,65,306,17,10,56,091,06,18,36,057,13*76

$GPGSV,4,2,14,16,33,177,18,11,25,269,18,01,14,249,,21,12,067,17*7A

$GPGSV,4,3,14,07,11,279,14,30,10,312,,26,08,167,,32,04,126,*7B

$GPGSV,4,4,14,15,04,028,16,22,01,203,*71

$GPRMC,150251.000,A,4709.3485,N,00138.2829,W,0.30,66.26,180717,,,A*4A

$GPVTG,66.26,T,,M,0.30,N,0.55,K,A*0A

$GPGGA,150252.000,4709.3485,N,00138.2828,W,1,07,1.16,1.8,M,48.7,M,,*76

$GPGLL,4709.3485,N,00138.2828,W,150252.000,A,A*40

$GPGSA,A,3,07,21,10,18,27,08,16,,,,,,1.41,1.16,0.80*0E

$GPGSV,4,1,14,27,74,098,09,08,65,306,18,10,56,091,07,18,36,057,13*71

$GPGSV,4,2,14,16,33,177,18,11,25,269,18,01,14,249,,21,12,067,17*7A

$GPGSV,4,3,14,07,11,279,13,30,10,312,,26,08,167,,32,04,126,*7C

$GPGSV,4,4,14,15,04,028,16,22,01,203,*71

$GPRMC,150252.000,A,4709.3485,N,00138.2828,W,0.44,84.93,180717,,,A*49

$GPVTG,84.93,T,,M,0.44,N,0.81,K,A*02

$GPGGA,150253.000,4709.3485,N,00138.2826,W,1,07,1.16,1.8,M,48.7,M,,*79

$GPGLL,4709.3485,N,00138.2826,W,150253.000,A,A*4F

$GPGSA,A,3,07,21,10,18,27,08,16,,,,,,1.41,1.16,0.80*0E

$GPGSV,4,1,14,27,74,098,08,08,65,306,18,10,56,091,07,18,36,057,13*70

$GPGSV,4,2,14,16,33,177,18,11,25,269,18,01,14,249,,21,12,067,17*7A

$GPGSV,4,3,14,07,11,279,14,30,10,312,,26,08,167,,32,04,126,*7B

$GPGSV,4,4,14,15,04,028,16,22,01,203,*71

$GPRMC,150253.000,A,4709.3485,N,00138.2826,W,0.45,86.47,180717,,,A*4C

$GPVTG,86.47,T,,M,0.45,N,0.84,K,A*0D

$GPGGA,150254.000,4709.3485,N,00138.2824,W,1,07,1.16,1.8,M,48.7,M,,*7C

$GPGLL,4709.3485,N,00138.2824,W,150254.000,A,A*4A

$GPGSA,A,3,07,21,10,18,27,08,16,,,,,,1.41,1.16,0.80*0E

$GPGSV,4,1,14,27,74,098,08,08,65,306,18,10,56,091,07,18,36,057,13*70

$GPGSV,4,2,14,16,33,177,18,11,25,269,19,01,14,249,,21,12,067,17*7B

$GPGSV,4,3,14,07,11,279,14,30,10,312,,26,08,167,,32,04,126,*7B

$GPGSV,4,4,14,15,04,028,16,22,01,203,*71

$GPRMC,150254.000,A,4709.3485,N,00138.2824,W,0.47,77.61,180717,,,A*41

$GPVTG,77.61,T,,M,0.47,N,0.87,K,A*06

$GPGGA,150255.000,4709.3486,N,00138.2822,W,1,07,1.16,1.8,M,48.7,M,,*78

$GPGLL,4709.3486,N,00138.2822,W,150255.000,A,A*4E

$GPGSA,A,3,07,21,10,18,27,08,16,,,,,,1.41,1.16,0.80*0E

$GPGSV,4,1,14,27,74,098,08,08,65,306,18,10,56,091,07,18,36,057,13*70

$GPGSV,4,2,14,16,33,177,18,11,25,269,19,01,14,249,,21,12,067,16*7A

$GPGSV,4,3,14,07,11,279,13,30,10,312,,26,08,167,,32,04,126,*7C

$GPGSV,4,4,14,15,03,027,16,22,01,203,*79

$GPRMC,150255.000,A,4709.3486,N,00138.2822,W,0.48,70.02,180717,,,A*48

$GPVTG,70.02,T,,M,0.48,N,0.88,K,A*04

$GPGGA,150256.000,4709.3486,N,00138.2820,W,1,06,1.18,1.8,M,48.7,M,,*76

$GPGLL,4709.3486,N,00138.2820,W,150256.000,A,A*4F

$GPGSA,A,3,07,21,18,27,08,16,,,,,,,1.43,1.18,0.81*02

$GPGSV,4,1,14,27,74,098,09,08,65,306,18,10,56,091,06,18,36,057,13*70

$GPGSV,4,2,14,16,33,177,18,11,25,269,19,01,14,249,,21,12,067,16*7A

$GPGSV,4,3,14,07,11,279,12,30,10,312,,26,08,167,,32,04,126,*7D

$GPGSV,4,4,14,15,03,027,16,22,01,203,*79

$GPRMC,150256.000,A,4709.3486,N,00138.2820,W,0.47,59.08,180717,,,A*47

$GPVTG,59.08,T,,M,0.47,N,0.88,K,A*0A

$GPGGA,150257.000,4709.3487,N,00138.2819,W,1,06,1.18,1.8,M,48.7,M,,*7C

$GPGLL,4709.3487,N,00138.2819,W,150257.000,A,A*45

$GPGSA,A,3,07,21,18,27,08,16,,,,,,,1.43,1.18,0.81*02

$GPGSV,4,1,14,27,74,098,10,08,65,306,18,10,56,091,06,18,36,057,13*78

$GPGSV,4,2,14,16,33,177,18,11,25,269,19,01,14,249,,21,12,067,16*7A

$GPGSV,4,3,14,07,11,279,12,30,10,312,,26,08,167,,32,04,126,*7D

$GPGSV,4,4,14,15,03,027,16,22,01,203,*79

$GPRMC,150257.000,A,4709.3487,N,00138.2819,W,0.48,50.64,180717,,,A*41

$GPVTG,50.64,T,,M,0.48,N,0.89,K,A*07

$GPGGA,150258.000,4709.3488,N,00138.2817,W,1,06,1.18,1.8,M,48.7,M,,*72

$GPGLL,4709.3488,N,00138.2817,W,150258.000,A,A*4B

$GPGSA,A,3,07,21,18,27,08,16,,,,,,,1.43,1.18,0.81*02

$GPGSV,4,1,14,27,74,098,10,08,65,306,18,10,56,091,06,18,36,057,13*78

$GPGSV,4,2,14,16,33,177,18,11,25,269,19,01,14,249,,21,12,067,16*7A

$GPGSV,4,3,14,07,11,279,13,30,10,312,,26,08,167,,32,04,126,*7C

$GPGSV,4,4,14,15,03,027,17,22,01,203,*78

$GPRMC,150258.000,A,4709.3488,N,00138.2817,W,0.55,40.63,180717,,,A*45

$GPVTG,40.63,T,,M,0.55,N,1.02,K,A*0F

$GPGGA,150259.000,4709.3489,N,00138.2816,W,1,07,1.16,1.8,M,48.7,M,,*7C

$GPGLL,4709.3489,N,00138.2816,W,150259.000,A,A*4A

$GPGSA,A,3,07,21,10,18,27,08,16,,,,,,1.41,1.16,0.80*0E

$GPGSV,4,1,14,27,74,098,10,08,65,306,18,10,56,091,06,18,36,057,14*7F

$GPGSV,4,2,14,16,33,177,18,11,25,269,19,01,14,249,,21,12,067,16*7A

$GPGSV,4,3,14,07,11,279,12,30,10,312,,26,08,167,,32,04,126,*7D

$GPGSV,4,4,14,15,03,027,17,22,01,203,*78

$GPRMC,150259.000,A,4709.3489,N,00138.2816,W,0.62,36.10,180717,,,A*45

$GPVTG,36.10,T,,M,0.62,N,1.16,K,A*0B

$GPGGA,150300.000,4709.3484,N,00138.2807,W,1,07,1.16,1.9,M,48.7,M,,*7D

$GPGLL,4709.3484,N,00138.2807,W,150300.000,A,A*4A

$GPGSA,A,3,07,21,10,18,27,08,16,,,,,,1.41,1.16,0.80*0E

$GPGSV,4,1,14,27,74,098,10,08,65,306,18,10,56,091,06,18,36,057,15*7E

$GPGSV,4,2,14,16,33,177,18,11,25,269,19,01,14,249,,21,12,067,16*7A

$GPGSV,4,3,14,07,11,279,14,30,10,312,,26,08,167,,32,04,126,*7B

$GPGSV,4,4,14,15,03,027,16,22,01,203,*79

$GPRMC,150300.000,A,4709.3484,N,00138.2807,W,0.63,45.02,180717,,,A*43

$GPVTG,45.02,T,,M,0.63,N,1.16,K,A*0D

$GPGGA,150301.000,4709.3483,N,00138.2800,W,1,07,1.16,1.9,M,48.7,M,,*7C

$GPGLL,4709.3483,N,00138.2800,W,150301.000,A,A*4B

$GPGSA,A,3,07,21,10,18,27,08,16,,,,,,1.41,1.16,0.80*0E

$GPGSV,4,1,14,27,74,098,10,08,65,306,18,10,56,091,06,18,36,057,15*7E

$GPGSV,4,2,14,16,33,177,19,11,25,269,19,01,14,249,,21,12,067,16*7B

$GPGSV,4,3,14,07,11,279,14,30,10,312,,26,08,167,,32,04,126,*7B

$GPGSV,4,4,14,15,03,027,16,22,01,203,*79

$GPRMC,150301.000,A,4709.3483,N,00138.2800,W,0.66,49.58,180717,,,A*44

$GPVTG,49.58,T,,M,0.66,N,1.22,K,A*0C

$GPGGA,150302.000,4709.3485,N,00138.2803,W,1,07,1.16,1.9,M,48.7,M,,*7A

$GPGLL,4709.3485,N,00138.2803,W,150302.000,A,A*4D

$GPGSA,A,3,07,21,10,18,27,08,16,,,,,,1.41,1.16,0.80*0E

$GPGSV,4,1,14,27,74,098,10,08,65,306,18,10,56,091,06,18,36,057,15*7E

$GPGSV,4,2,14,16,33,177,19,11,25,269,19,01,14,249,,21,12,067,16*7B

$GPGSV,4,3,14,07,11,279,13,30,10,312,,26,08,167,,32,04,126,*7C

$GPGSV,4,4,14,15,03,027,16,22,01,203,*79

$GPRMC,150302.000,A,4709.3485,N,00138.2803,W,0.66,45.76,180717,,,A*42

$GPVTG,45.76,T,,M,0.66,N,1.22,K,A*0C

$GPGGA,150303.000,4709.3480,N,00138.2787,W,1,07,1.16,2.0,M,48.7,M,,*77

$GPGLL,4709.3480,N,00138.2787,W,150303.000,A,A*4A

$GPGSA,A,3,07,21,10,18,27,08,16,,,,,,1.41,1.16,0.80*0E

$GPGSV,4,1,14,27,74,098,10,08,65,306,18,10,56,091,06,18,36,057,15*7E

$GPGSV,4,2,14,16,33,177,19,11,25,269,19,01,14,249,,21,12,067,15*78

$GPGSV,4,3,14,07,11,279,14,30,10,312,,26,08,167,,32,04,126,*7B

$GPGSV,4,4,14,15,03,027,16,22,01,203,*79

$GPRMC,150303.000,A,4709.3480,N,00138.2787,W,0.72,59.07,180717,,,A*4B

$GPVTG,59.07,T,,M,0.72,N,1.34,K,A*05

$GPGGA,150304.000,4709.3477,N,00138.2776,W,1,06,1.18,2.1,M,48.7,M,,*78

$GPGLL,4709.3477,N,00138.2776,W,150304.000,A,A*4B

$GPGSA,A,3,07,21,18,27,08,16,,,,,,,1.43,1.18,0.81*02

$GPGSV,4,1,14,27,74,098,11,08,65,306,18,10,56,091,06,18,36,057,15*7F

$GPGSV,4,2,14,16,33,177,19,11,25,269,19,01,14,249,,21,12,067,15*78

$GPGSV,4,3,14,07,11,279,13,30,10,312,,26,08,167,,32,04,126,*7C

$GPGSV,4,4,14,15,03,027,16,22,01,203,*79

$GPRMC,150304.000,A,4709.3477,N,00138.2776,W,0.76,66.85,180717,,,A*48

$GPVTG,66.85,T,,M,0.76,N,1.42,K,A*06

$GPGGA,150305.000,4709.3472,N,00138.2767,W,1,07,1.16,2.2,M,48.7,M,,*70

$GPGLL,4709.3472,N,00138.2767,W,150305.000,A,A*4F

$GPGSA,A,3,07,21,10,18,27,08,16,,,,,,1.41,1.16,0.80*0E

$GPGSV,4,1,14,27,74,098,11,08,65,306,18,10,56,091,06,18,36,057,16*7C

$GPGSV,4,2,14,16,33,177,19,11,25,269,18,01,14,249,,21,12,067,15*79

$GPGSV,4,3,14,07,11,279,15,30,10,312,,26,08,167,,32,04,126,*7A

$GPGSV,4,4,14,15,03,027,16,22,01,203,*79

$GPRMC,150305.000,A,4709.3472,N,00138.2767,W,0.79,76.10,180717,,,A*4E

$GPVTG,76.10,T,,M,0.79,N,1.47,K,A*01

$GPGGA,150306.000,4709.3470,N,00138.2764,W,1,07,1.16,2.3,M,48.7,M,,*73

$GPGLL,4709.3470,N,00138.2764,W,150306.000,A,A*4D

$GPGSA,A,3,07,21,10,18,27,08,16,,,,,,1.41,1.16,0.80*0E

$GPGSV,4,1,14,27,74,098,11,08,65,306,17,10,56,091,06,18,36,057,16*73

$GPGSV,4,2,14,16,33,177,19,11,25,269,18,01,14,249,,21,12,067,15*79

$GPGSV,4,3,14,07,11,279,12,30,10,312,,26,07,167,,32,04,126,*72

$GPGSV,4,4,14,15,03,027,15,22,01,203,*7A

$GPRMC,150306.000,A,4709.3470,N,00138.2764,W,0.79,78.26,180717,,,A*47

$GPVTG,78.26,T,,M,0.79,N,1.46,K,A*0B

$GPGGA,150307.000,4709.3467,N,00138.2761,W,1,07,1.16,2.4,M,48.7,M,,*76

$GPGLL,4709.3467,N,00138.2761,W,150307.000,A,A*4F

$GPGSA,A,3,07,21,10,18,27,08,16,,,,,,1.41,1.16,0.80*0E

$GPGSV,4,1,14,27,73,098,11,08,65,306,17,10,56,091,06,18,36,057,16*74

$GPGSV,4,2,14,16,33,177,19,11,25,269,18,01,14,249,,21,12,067,15*79

$GPGSV,4,3,14,07,11,279,11,30,10,312,,26,07,167,,32,04,126,*71

$GPGSV,4,4,14,15,03,027,15,22,01,203,*7A

$GPRMC,150307.000,A,4709.3467,N,00138.2761,W,0.77,80.26,180717,,,A*4C

$GPVTG,80.26,T,,M,0.77,N,1.42,K,A*06

$GPGGA,150308.000,4709.3467,N,00138.2748,W,1,07,1.16,2.5,M,48.7,M,,*73

$GPGLL,4709.3467,N,00138.2748,W,150308.000,A,A*4B

$GPGSA,A,3,07,21,10,18,27,08,16,,,,,,1.41,1.16,0.80*0E

$GPGSV,4,1,14,27,73,098,11,08,65,306,17,10,56,091,07,18,36,057,16*75

$GPGSV,4,2,14,16,33,177,19,11,25,269,18,01,14,249,,21,12,067,16*7A

$GPGSV,4,3,14,07,11,279,13,30,10,312,,26,07,167,,32,04,126,*73

$GPGSV,4,4,14,15,03,027,15,22,01,203,*7A

$GPRMC,150308.000,A,4709.3467,N,00138.2748,W,0.83,79.46,180717,,,A*43

$GPVTG,79.46,T,,M,0.83,N,1.54,K,A*0A

$GPGGA,150309.000,4709.3468,N,00138.2740,W,1,06,1.18,2.5,M,48.7,M,,*7A

$GPGLL,4709.3468,N,00138.2740,W,150309.000,A,A*4D

$GPGSA,A,3,07,21,18,27,08,16,,,,,,,1.43,1.18,0.81*02

$GPGSV,4,1,14,27,73,098,11,08,65,306,17,10,56,091,,18,36,057,16*72

$GPGSV,4,2,14,16,33,177,19,11,25,269,18,01,14,249,,21,12,067,17*7B

$GPGSV,4,3,14,07,11,279,12,30,10,312,,26,07,167,,32,04,126,*72

$GPGSV,4,4,14,15,03,027,15,22,01,203,*7A

$GPRMC,150309.000,A,4709.3468,N,00138.2740,W,0.86,78.24,180717,,,A*45

$GPVTG,78.24,T,,M,0.86,N,1.60,K,A*0D

$GPGGA,150310.000,4709.3469,N,00138.2735,W,1,05,1.63,2.6,M,48.7,M,,*7D

$GPGLL,4709.3469,N,00138.2735,W,150310.000,A,A*46

$GPGSA,A,3,21,18,27,08,16,,,,,,,,1.88,1.63,0.93*0D

$GPGSV,4,1,14,27,73,098,11,08,65,306,17,10,56,091,,18,36,057,16*72

$GPGSV,4,2,14,16,33,177,19,11,25,269,18,01,14,249,,21,12,067,15*79

$GPGSV,4,3,14,07,11,279,,30,10,312,,26,07,167,,32,04,126,*71

$GPGSV,4,4,14,15,03,027,15,22,01,203,*7A

$GPRMC,150310.000,A,4709.3469,N,00138.2735,W,0.87,77.66,180717,,,A*46

$GPVTG,77.66,T,,M,0.87,N,1.61,K,A*04

$GPGGA,150311.000,4709.3472,N,00138.2736,W,1,05,1.63,2.7,M,48.7,M,,*74

$GPGLL,4709.3472,N,00138.2736,W,150311.000,A,A*4E

$GPGSA,A,3,21,18,27,08,16,,,,,,,,1.88,1.63,0.93*0D

$GPGSV,4,1,14,27,73,098,11,08,65,306,14,10,56,091,,18,36,057,16*71

$GPGSV,4,2,14,16,33,177,18,11,25,269,18,01,14,249,,21,12,067,16*7B

$GPGSV,4,3,14,07,11,279,,30,10,312,,26,07,167,,32,04,126,*71

$GPGSV,4,4,14,15,03,027,14,22,01,203,*7B

$GPRMC,150311.000,A,4709.3472,N,00138.2736,W,0.83,75.30,180717,,,A*4B

$GPVTG,75.30,T,,M,0.83,N,1.53,K,A*00

$GPGGA,150312.000,4709.3475,N,00138.2736,W,1,05,1.63,2.8,M,48.7,M,,*7F

$GPGLL,4709.3475,N,00138.2736,W,150312.000,A,A*4A

$GPGSA,A,3,21,18,27,08,16,,,,,,,,1.88,1.63,0.93*0D

$GPGSV,4,1,14,27,73,098,11,08,65,306,15,10,56,091,,18,36,057,16*70

$GPGSV,4,2,14,16,33,177,18,11,25,269,18,01,14,249,,21,12,067,15*78

$GPGSV,4,3,14,07,11,279,,30,10,312,,26,07,167,,32,04,125,*72

$GPGSV,4,4,14,15,03,027,14,22,01,203,*7B

$GPRMC,150312.000,A,4709.3475,N,00138.2736,W,0.80,71.14,180717,,,A*4E

$GPVTG,71.14,T,,M,0.80,N,1.49,K,A*0A

$GPGGA,150313.000,4709.3481,N,00138.2734,W,1,06,1.18,3.0,M,48.7,M,,*71

$GPGLL,4709.3481,N,00138.2734,W,150313.000,A,A*42

$GPGSA,A,3,07,21,18,27,08,16,,,,,,,1.43,1.18,0.81*02

$GPGSV,4,1,14,27,73,098,11,08,65,306,16,10,56,091,,18,36,057,16*73

$GPGSV,4,2,14,16,33,177,18,11,25,269,18,01,14,249,,21,12,067,15*78

$GPGSV,4,3,14,07,11,279,13,30,10,312,,26,07,167,,32,04,125,*70

$GPGSV,4,4,14,15,03,027,14,22,01,203,*7B

$GPRMC,150313.000,A,4709.3481,N,00138.2734,W,0.84,65.12,180717,,,A*41

$GPVTG,65.12,T,,M,0.84,N,1.56,K,A*03

$GPGGA,150314.000,4709.3485,N,00138.2731,W,1,06,1.18,3.1,M,48.7,M,,*76

$GPGLL,4709.3485,N,00138.2731,W,150314.000,A,A*44

$GPGSA,A,3,07,21,18,27,08,16,,,,,,,1.43,1.18,0.81*02

$GPGSV,4,1,14,27,73,098,11,08,65,306,15,10,56,091,,18,36,057,16*70

$GPGSV,4,2,14,16,33,177,18,11,25,269,18,01,14,249,,21,12,067,15*78

$GPGSV,4,3,14,07,11,279,14,30,10,312,,26,07,167,,32,04,125,*77

$GPGSV,4,4,14,15,03,027,14,22,01,203,*7B

$GPRMC,150314.000,A,4709.3485,N,00138.2731,W,0.87,60.91,180717,,,A*4A

$GPVTG,60.91,T,,M,0.87,N,1.61,K,A*0A

$GPGGA,150315.000,4709.3489,N,00138.2726,W,1,05,1.63,3.2,M,48.7,M,,*71

$GPGLL,4709.3489,N,00138.2726,W,150315.000,A,A*4F

$GPGSA,A,3,21,18,27,08,16,,,,,,,,1.88,1.63,0.93*0D

$GPGSV,4,1,14,27,73,098,11,08,65,306,16,10,56,091,,18,36,057,16*73

$GPGSV,4,2,14,16,33,177,19,11,25,269,18,01,14,249,,21,12,067,15*79

$GPGSV,4,3,14,07,11,279,,30,10,312,,26,07,167,,32,04,125,*72

$GPGSV,4,4,14,15,03,027,14,22,01,203,*7B

$GPRMC,150315.000,A,4709.3489,N,00138.2726,W,0.93,57.57,180717,,,A*4A

$GPVTG,57.57,T,,M,0.93,N,1.72,K,A*03

$GPGGA,150316.000,4709.3492,N,00138.2722,W,1,05,1.63,3.4,M,48.7,M,,*7A

$GPGLL,4709.3492,N,00138.2722,W,150316.000,A,A*42

$GPGSA,A,3,21,18,27,08,16,,,,,,,,1.88,1.63,0.93*0D

$GPGSV,4,1,14,27,73,098,12,08,65,306,16,10,56,091,,18,36,057,16*70

$GPGSV,4,2,14,16,33,177,19,11,25,269,18,01,14,249,,21,12,067,15*79

$GPGSV,4,3,14,07,11,279,,30,10,312,,26,07,167,,32,04,125,*72

$GPGSV,4,4,14,15,03,027,14,22,01,203,*7B

$GPRMC,150316.000,A,4709.3492,N,00138.2722,W,0.95,55.81,180717,,,A*48

$GPVTG,55.81,T,,M,0.95,N,1.75,K,A*0B

$GPGGA,150317.000,4709.3498,N,00138.2715,W,1,06,1.48,3.5,M,48.7,M,,*7E

$GPGLL,4709.3498,N,00138.2715,W,150317.000,A,A*4D

$GPGSA,A,3,21,18,27,08,16,26,,,,,,,1.74,1.48,0.90*00

$GPGSV,4,1,14,27,73,098,12,08,65,306,15,10,56,091,,18,36,057,16*73

$GPGSV,4,2,14,16,33,177,19,11,25,269,18,01,14,249,,21,12,067,15*79

$GPGSV,4,3,14,07,11,279,,30,10,312,,26,07,167,13,32,04,125,*70

$GPGSV,4,4,14,15,03,027,15,22,01,203,*7A

$GPRMC,150317.000,A,4709.3498,N,00138.2715,W,1.00,52.83,180717,,,A*4F

$GPVTG,52.83,T,,M,1.00,N,1.86,K,A*0F

$GPGGA,150318.000,4709.3496,N,00138.2701,W,1,05,1.63,3.7,M,48.7,M,,*72

$GPGLL,4709.3496,N,00138.2701,W,150318.000,A,A*49

$GPGSA,A,3,21,18,27,08,16,,,,,,,,1.88,1.63,0.93*0D

$GPGSV,4,1,14,27,73,098,12,08,65,306,15,10,56,091,,18,36,057,16*73

$GPGSV,4,2,14,16,33,177,19,11,25,269,18,01,14,249,,21,12,067,14*78

$GPGSV,4,3,14,07,11,279,,30,10,312,,26,07,167,,32,04,125,*72

$GPGSV,4,4,14,15,03,027,15,22,01,203,*7A

$GPRMC,150318.000,A,4709.3496,N,00138.2701,W,1.02,58.81,180717,,,A*41

$GPVTG,58.81,T,,M,1.02,N,1.89,K,A*0A

$GPGGA,150319.000,4709.3499,N,00138.2698,W,1,05,1.63,3.8,M,48.7,M,,*72

$GPGLL,4709.3499,N,00138.2698,W,150319.000,A,A*46

$GPGSA,A,3,21,18,27,08,16,,,,,,,,1.88,1.63,0.93*0D

$GPGSV,4,1,14,27,73,098,12,08,65,306,15,10,56,091,,18,36,057,16*73

$GPGSV,4,2,14,16,33,177,19,11,25,269,18,01,14,249,,21,12,067,15*79

$GPGSV,4,3,14,07,11,279,,30,10,312,,26,07,167,,32,04,125,*72

$GPGSV,4,4,14,15,03,027,15,22,01,203,*7A

$GPRMC,150319.000,A,4709.3499,N,00138.2698,W,0.98,59.72,180717,,,A*41

$GPVTG,59.72,T,,M,0.98,N,1.82,K,A*0E

$GPGGA,150320.000,4709.3503,N,00138.2695,W,1,05,1.63,4.0,M,48.7,M,,*78

$GPGLL,4709.3503,N,00138.2695,W,150320.000,A,A*43

$GPGSA,A,3,21,18,27,08,16,,,,,,,,1.88,1.63,0.93*0D

$GPGSV,4,1,14,27,73,098,12,08,65,306,13,10,56,091,,18,36,057,16*75

$GPGSV,4,2,14,16,33,177,19,11,25,269,18,01,14,249,,21,12,067,14*78

$GPGSV,4,3,14,07,11,279,,30,10,312,,26,07,167,,32,04,125,*72

$GPGSV,4,4,14,15,03,027,15,22,01,203,*7A

$GPRMC,150320.000,A,4709.3503,N,00138.2695,W,0.97,57.86,180717,,,A*4E

$GPVTG,57.86,T,,M,0.97,N,1.81,K,A*07

$GPGGA,150321.000,4709.3506,N,00138.2693,W,1,05,1.63,4.1,M,48.7,M,,*7B

$GPGLL,4709.3506,N,00138.2693,W,150321.000,A,A*41

$GPGSA,A,3,21,18,27,08,16,,,,,,,,1.88,1.63,0.93*0D

$GPGSV,4,1,14,27,73,098,12,08,65,306,14,10,56,091,,18,36,057,16*72

$GPGSV,4,2,14,16,33,177,19,11,25,269,18,01,14,249,,21,12,067,14*78

$GPGSV,4,3,14,07,11,279,,30,10,312,,26,07,167,,32,04,125,*72

$GPGSV,4,4,14,15,03,027,15,22,01,203,*7A

$GPRMC,150321.000,A,4709.3506,N,00138.2693,W,0.93,57.86,180717,,,A*48

$GPVTG,57.86,T,,M,0.93,N,1.72,K,A*0F

$GPGGA,150322.000,4709.3507,N,00138.2681,W,1,05,1.63,4.2,M,48.7,M,,*79

$GPGLL,4709.3507,N,00138.2681,W,150322.000,A,A*40

$GPGSA,A,3,21,18,27,08,16,,,,,,,,1.88,1.63,0.93*0D

$GPGSV,4,1,14,27,73,098,12,08,65,306,14,10,56,091,,18,36,057,16*72

$GPGSV,4,2,14,16,33,177,19,11,25,269,18,01,14,249,,21,12,067,14*78

$GPGSV,4,3,14,07,11,279,,30,10,312,,26,07,167,,32,04,125,*72

$GPGSV,4,4,14,15,03,027,15,22,01,203,*7A

$GPRMC,150322.000,A,4709.3507,N,00138.2681,W,0.98,59.57,180717,,,A*40

$GPVTG,59.57,T,,M,0.98,N,1.82,K,A*09

$GPGGA,150323.000,4709.3506,N,00138.2672,W,1,06,1.48,4.3,M,48.7,M,,*7E

$GPGLL,4709.3506,N,00138.2672,W,150323.000,A,A*4C

$GPGSA,A,3,26,21,18,27,08,16,,,,,,,1.74,1.48,0.90*00

$GPGSV,4,1,14,27,73,098,13,08,66,306,16,10,56,091,,18,36,057,17*73

$GPGSV,4,2,14,16,33,177,19,11,25,269,18,01,14,249,,21,12,067,15*79

$GPGSV,4,3,14,07,11,279,,30,10,312,,26,07,167,13,32,04,125,*70

$GPGSV,4,4,14,15,03,027,15,22,01,203,*7A

$GPRMC,150323.000,A,4709.3506,N,00138.2672,W,1.00,61.19,180717,,,A*4D

$GPVTG,61.19,T,,M,1.00,N,1.85,K,A*0F

$GPGGA,150324.000,4709.3502,N,00138.2654,W,1,06,1.48,4.3,M,48.7,M,,*79

$GPGLL,4709.3502,N,00138.2654,W,150324.000,A,A*4B

$GPGSA,A,3,26,21,18,27,08,16,,,,,,,1.74,1.48,0.90*00

$GPGSV,4,1,14,27,73,098,13,08,66,306,16,10,56,091,,18,36,057,17*73

$GPGSV,4,2,14,16,33,177,19,11,25,269,18,01,14,249,,21,12,067,13*7F

$GPGSV,4,3,14,07,11,279,,30,10,312,,26,07,167,14,32,04,125,*77

$GPGSV,4,4,14,15,03,027,15,22,01,203,*7A

$GPRMC,150324.000,A,4709.3502,N,00138.2654,W,1.04,67.91,180717,,,A*48

$GPVTG,67.91,T,,M,1.04,N,1.92,K,A*0B

$GPGGA,150325.000,4709.3500,N,00138.2642,W,1,06,1.48,4.3,M,48.7,M,,*7D

$GPGLL,4709.3500,N,00138.2642,W,150325.000,A,A*4F

$GPGSA,A,3,26,21,18,27,08,16,,,,,,,1.74,1.48,0.90*00

$GPGSV,4,1,14,27,73,098,13,08,66,306,16,10,56,090,,18,36,057,17*72

$GPGSV,4,2,14,16,33,177,19,11,25,269,18,01,14,249,,21,12,067,14*78

$GPGSV,4,3,14,07,11,279,,30,10,312,,26,07,167,15,32,04,125,*76

$GPGSV,4,4,14,15,03,027,15,22,01,203,*7A

$GPRMC,150325.000,A,4709.3500,N,00138.2642,W,1.02,70.88,180717,,,A*44

$GPVTG,70.88,T,,M,1.02,N,1.89,K,A*09

$GPGGA,150326.000,4709.3498,N,00138.2623,W,1,06,1.48,4.3,M,48.7,M,,*79

$GPGLL,4709.3498,N,00138.2623,W,150326.000,A,A*4B

$GPGSA,A,3,26,21,18,27,08,16,,,,,,,1.74,1.48,0.90*00

$GPGSV,4,1,14,27,73,098,13,08,66,306,16,10,56,090,,18,36,057,17*72

$GPGSV,4,2,14,16,33,177,19,11,26,269,18,01,14,249,,21,12,067,16*79

$GPGSV,4,3,14,07,11,279,,30,10,312,,26,07,167,15,32,04,125,*76

$GPGSV,4,4,14,15,03,027,15,22,01,203,*7A

$GPRMC,150326.000,A,4709.3498,N,00138.2623,W,1.14,75.87,180717,,,A*4D

$GPVTG,75.87,T,,M,1.14,N,2.12,K,A*05

$GPGGA,150327.000,4709.3495,N,00138.2598,W,1,06,1.48,4.3,M,48.7,M,,*76

$GPGLL,4709.3495,N,00138.2598,W,150327.000,A,A*44

$GPGSA,A,3,26,21,18,27,08,16,,,,,,,1.74,1.48,0.90*00

$GPGSV,4,1,14,27,73,098,13,08,66,306,16,10,56,090,,18,36,057,17*72

$GPGSV,4,2,14,16,33,177,18,11,26,269,18,01,14,249,,21,12,067,13*7D

$GPGSV,4,3,14,07,11,279,,30,10,312,,26,07,167,14,32,04,125,*77

$GPGSV,4,4,14,15,03,027,15,22,01,203,*7A

$GPRMC,150327.000,A,4709.3495,N,00138.2598,W,1.32,80.88,180717,,,A*43

$GPVTG,80.88,T,,M,1.32,N,2.45,K,A*06

$GPGGA,150328.000,4709.3491,N,00138.2582,W,1,06,1.48,4.6,M,48.7,M,,*73

$GPGLL,4709.3491,N,00138.2582,W,150328.000,A,A*44

$GPGSA,A,3,26,21,18,27,08,16,,,,,,,1.74,1.48,0.90*00

$GPGSV,4,1,14,27,73,098,13,08,66,306,16,10,56,090,,18,36,057,17*72

$GPGSV,4,2,14,16,33,177,18,11,26,269,17,01,14,249,,21,12,067,15*74

$GPGSV,4,3,14,07,11,279,,30,10,312,,26,07,167,16,32,04,125,*75

$GPGSV,4,4,14,15,03,027,15,22,01,203,*7A

$GPRMC,150328.000,A,4709.3491,N,00138.2582,W,1.37,84.14,180717,,,A*47

$GPVTG,84.14,T,,M,1.37,N,2.54,K,A*02

$GPGGA,150329.000,4709.3492,N,00138.2573,W,1,06,1.49,4.8,M,48.7,M,,*70

$GPGLL,4709.3492,N,00138.2573,W,150329.000,A,A*48

$GPGSA,A,3,26,21,18,27,08,16,,,,,,,1.74,1.49,0.90*01

$GPGSV,4,1,14,27,73,098,13,08,66,306,16,10,56,090,,18,36,057,17*72

$GPGSV,4,2,14,16,33,177,18,11,26,269,17,01,14,249,,21,12,067,14*75

$GPGSV,4,3,14,07,11,279,,30,10,312,,26,07,167,15,32,04,125,*76

$GPGSV,4,4,14,15,03,027,16,22,01,203,*79

$GPRMC,150329.000,A,4709.3492,N,00138.2573,W,1.35,83.64,180717,,,A*49

$GPVTG,83.64,T,,M,1.35,N,2.49,K,A*0C

$GPGGA,150330.000,4709.3493,N,00138.2567,W,1,06,1.49,5.1,M,48.7,M,,*74

$GPGLL,4709.3493,N,00138.2567,W,150330.000,A,A*44

$GPGSA,A,3,26,21,18,27,08,16,,,,,,,1.74,1.49,0.90*01

$GPGSV,4,1,14,27,73,098,13,08,66,306,16,10,56,090,,18,36,057,17*72

$GPGSV,4,2,14,16,33,177,18,11,26,269,17,01,14,249,,21,12,067,15*74

$GPGSV,4,3,14,07,11,279,,30,10,312,,26,07,167,15,32,04,125,*76

$GPGSV,4,4,14,15,03,027,16,22,01,203,*79

$GPRMC,150330.000,A,4709.3493,N,00138.2567,W,1.30,82.32,180717,,,A*42

$GPVTG,82.32,T,,M,1.30,N,2.41,K,A*03

$GPGGA,150331.000,4709.3494,N,00138.2560,W,1,06,1.49,5.3,M,48.7,M,,*77

$GPGLL,4709.3494,N,00138.2560,W,150331.000,A,A*45

$GPGSA,A,3,26,21,18,27,08,16,,,,,,,1.74,1.49,0.90*01

$GPGSV,4,1,14,27,73,098,13,08,66,306,16,10,56,090,,18,36,057,17*72

$GPGSV,4,2,14,16,32,177,19,11,26,269,17,01,14,249,,21,12,067,16*77

$GPGSV,4,3,14,07,11,279,,30,10,312,,26,07,167,16,32,04,125,*75

$GPGSV,4,4,14,15,03,027,16,22,01,203,*79

$GPRMC,150331.000,A,4709.3494,N,00138.2560,W,1.26,80.09,180717,,,A*4E

$GPVTG,80.09,T,,M,1.26,N,2.34,K,A*0C

$GPGGA,150332.000,4709.3498,N,00138.2557,W,1,06,1.49,5.5,M,48.7,M,,*7A

$GPGLL,4709.3498,N,00138.2557,W,150332.000,A,A*4E

$GPGSA,A,3,26,21,18,27,08,16,,,,,,,1.74,1.49,0.90*01

$GPGSV,4,1,14,27,73,098,13,08,66,306,17,10,56,090,,18,36,057,17*73

$GPGSV,4,2,14,16,32,177,19,11,26,269,17,01,14,249,,21,12,067,14*75

$GPGSV,4,3,14,07,11,279,,30,10,312,,26,07,167,15,32,04,125,*76

$GPGSV,4,4,14,15,03,027,16,22,01,203,*79

$GPRMC,150332.000,A,4709.3498,N,00138.2557,W,1.23,78.16,180717,,,A*49

$GPVTG,78.16,T,,M,1.23,N,2.29,K,A*0C

$GPGGA,150333.000,4709.3507,N,00138.2566,W,1,06,1.49,5.9,M,48.7,M,,*72

$GPGLL,4709.3507,N,00138.2566,W,150333.000,A,A*4A

$GPGSA,A,3,26,21,18,27,08,16,,,,,,,1.74,1.49,0.90*01

$GPGSV,4,1,14,27,73,098,13,08,66,306,16,10,56,090,,18,35,057,17*71

$GPGSV,4,2,14,16,32,177,19,11,26,269,17,01,14,249,,21,12,067,15*74

$GPGSV,4,3,14,07,11,279,,30,10,312,,26,07,167,14,32,04,125,*77

$GPGSV,4,4,14,15,03,027,15,22,01,203,*7A

$GPRMC,150333.000,A,4709.3507,N,00138.2566,W,1.10,70.38,180717,,,A*49

$GPVTG,70.38,T,,M,1.10,N,2.03,K,A*00

$GPGGA,150334.000,4709.3517,N,00138.2575,W,1,06,1.49,6.2,M,48.7,M,,*7E

$GPGLL,4709.3517,N,00138.2575,W,150334.000,A,A*4E

$GPGSA,A,3,26,21,18,27,08,16,,,,,,,1.74,1.49,0.90*01

$GPGSV,4,1,14,27,73,098,13,08,66,306,17,10,56,090,,18,35,057,17*70

$GPGSV,4,2,14,16,32,177,19,11,26,269,17,01,14,249,,21,12,067,14*75

$GPGSV,4,3,14,07,11,279,,30,10,312,,26,07,167,14,32,04,125,*77

$GPGSV,4,4,14,15,03,027,15,22,01,203,*7A

$GPRMC,150334.000,A,4709.3517,N,00138.2575,W,0.99,59.31,180717,,,A*4F

$GPVTG,59.31,T,,M,0.99,N,1.84,K,A*0E

$GPGGA,150335.000,4709.3526,N,00138.2586,W,1,06,1.49,6.5,M,48.7,M,,*76

$GPGLL,4709.3526,N,00138.2586,W,150335.000,A,A*41

$GPGSA,A,3,26,21,18,27,08,16,,,,,,,1.74,1.49,0.90*01

$GPGSV,4,1,14,27,73,098,13,08,66,306,17,10,56,090,,18,35,057,17*70

$GPGSV,4,2,14,16,32,177,19,11,26,269,17,01,14,249,,21,12,067,13*72

$GPGSV,4,3,14,07,11,279,,30,10,312,,26,07,167,13,32,04,125,*70

$GPGSV,4,4,14,15,03,027,15,22,01,203,*7A

$GPRMC,150335.000,A,4709.3526,N,00138.2586,W,0.90,46.24,180717,,,A*43

$GPVTG,46.24,T,,M,0.90,N,1.66,K,A*01

$GPGGA,150336.000,4709.3529,N,00138.2586,W,1,06,1.49,6.8,M,48.7,M,,*77

$GPGLL,4709.3529,N,00138.2586,W,150336.000,A,A*4D

$GPGSA,A,3,26,21,18,27,08,16,,,,,,,1.74,1.49,0.90*01

$GPGSV,4,1,14,27,73,098,13,08,66,306,18,10,56,090,,18,35,057,17*7F

$GPGSV,4,2,14,16,32,177,19,11,26,269,17,01,14,249,,21,12,067,15*74

$GPGSV,4,3,14,07,11,279,,30,10,312,,26,07,167,15,32,04,125,*76

$GPGSV,4,4,14,15,03,027,15,22,01,203,*7A

$GPRMC,150336.000,A,4709.3529,N,00138.2586,W,0.89,41.60,180717,,,A*40

$GPVTG,41.60,T,,M,0.89,N,1.65,K,A*0D

$GPGGA,150337.000,4709.3533,N,00138.2586,W,1,06,1.49,7.0,M,48.7,M,,*74

$GPGLL,4709.3533,N,00138.2586,W,150337.000,A,A*47

$GPGSA,A,3,26,21,18,27,08,16,,,,,,,1.74,1.49,0.90*01

$GPGSV,4,1,14,27,73,098,13,08,66,306,18,10,56,090,,18,35,057,17*7F

$GPGSV,4,2,14,16,32,177,19,11,26,269,17,01,14,249,,21,12,067,15*74

$GPGSV,4,3,14,07,11,279,,30,10,312,,26,07,167,15,32,04,125,*76

$GPGSV,4,4,14,15,03,027,15,22,01,203,*7A

$GPRMC,150337.000,A,4709.3533,N,00138.2586,W,0.88,36.56,180717,,,A*4E

$GPVTG,36.56,T,,M,0.88,N,1.63,K,A*0F

$GPGGA,150338.000,4709.3535,N,00138.2594,W,1,06,1.49,7.3,M,48.7,M,,*7D

$GPGLL,4709.3535,N,00138.2594,W,150338.000,A,A*4D

$GPGSA,A,3,26,21,18,27,08,16,,,,,,,1.74,1.49,0.90*01

$GPGSV,4,1,14,27,73,098,13,08,66,306,17,10,56,090,,18,35,057,17*70

$GPGSV,4,2,14,16,32,177,19,11,26,269,17,01,14,249,,21,12,067,16*77

$GPGSV,4,3,14,07,11,279,,30,10,312,,26,07,167,15,32,04,125,*76

$GPGSV,4,4,14,15,03,027,15,22,01,203,*7A

$GPRMC,150338.000,A,4709.3535,N,00138.2594,W,0.80,28.59,180717,,,A*4C

$GPVTG,28.59,T,,M,0.80,N,1.49,K,A*0F

$GPGGA,150339.000,4709.3538,N,00138.2601,W,1,06,1.49,7.5,M,48.7,M,,*78

$GPGLL,4709.3538,N,00138.2601,W,150339.000,A,A*4E

$GPGSA,A,3,26,21,18,27,08,16,,,,,,,1.74,1.49,0.90*01

$GPGSV,4,1,14,27,73,098,13,08,66,306,17,10,56,090,,18,35,057,17*70

$GPGSV,4,2,14,16,32,177,19,11,26,269,17,01,14,249,,21,12,067,15*74

$GPGSV,4,3,14,07,11,279,,30,10,312,,26,07,167,14,32,04,125,*77

$GPGSV,4,4,14,15,03,027,15,22,01,203,*7A

$GPRMC,150339.000,A,4709.3538,N,00138.2601,W,0.74,20.72,180717,,,A*45

$GPVTG,20.72,T,,M,0.74,N,1.37,K,A*0C

$GPGGA,150340.000,4709.3541,N,00138.2611,W,1,06,1.49,7.7,M,48.7,M,,*7B

$GPGLL,4709.3541,N,00138.2611,W,150340.000,A,A*4F

$GPGSA,A,3,26,21,18,27,08,16,,,,,,,1.74,1.49,0.90*01

$GPGSV,4,1,14,27,73,098,13,08,66,306,17,10,56,090,,18,35,057,17*70

$GPGSV,4,2,14,16,32,177,19,11,26,269,17,01,14,249,,21,12,067,15*74

$GPGSV,4,3,14,07,11,279,,30,10,312,,26,07,167,15,32,04,125,*76

$