$GPGGA,145708.000,4709.3611,N,00138.3068,W,1,08,0.96,27.3,M,48.7,M,,*43

$GPGLL,4709.3611,N,00138.3068,W,145708.000,A,A*4C

$GPGSA,A,3,26,10,07,18,21,27,08,16,,,,,1.23,0.96,0.77*0F

$GPGSV,4,1,13,27,76,091,16,08,63,305,24,10,56,096,11,18,37,059,10*75

$GPGSV,4,2,13,16,35,177,17,11,23,268,,21,14,066,15,07,13,281,16*7D

$GPGSV,4,3,13,01,12,247,,26,10,167,10,30,10,315,,15,04,029,*75

$GPGSV,4,4,13,32,02,127,*4C

$GPRMC,145708.000,A,4709.3611,N,00138.3068,W,1.03,220.22,180717,,,A*71

$GPVTG,220.22,T,,M,1.03,N,1.90,K,A*37

$GPGGA,145709.000,4709.3607,N,00138.3077,W,1,08,0.96,27.1,M,48.7,M,,*49

$GPGLL,4709.3607,N,00138.3077,W,145709.000,A,A*44

$GPGSA,A,3,26,10,07,18,21,27,08,16,,,,,1.23,0.96,0.77*0F

$GPGSV,4,1,13,27,76,091,16,08,63,305,24,10,56,096,11,18,37,059,10*75

$GPGSV,4,2,13,16,35,177,17,11,23,268,,21,14,066,15,07,13,281,16*7D

$GPGSV,4,3,13,01,12,247,,26,10,167,12,30,10,315,,15,04,029,*77

$GPGSV,4,4,13,32,02,127,*4C

$GPRMC,145709.000,A,4709.3607,N,00138.3077,W,1.05,222.02,180717,,,A*7F

$GPVTG,222.02,T,,M,1.05,N,1.95,K,A*34

$GPGGA,145710.000,4709.3604,N,00138.3081,W,1,08,0.96,26.6,M,48.7,M,,*4D

$GPGLL,4709.3604,N,00138.3081,W,145710.000,A,A*46

$GPGSA,A,3,26,10,07,18,21,27,08,16,,,,,1.23,0.96,0.77*0F

$GPGSV,4,1,13,27,76,091,16,08,63,305,24,10,56,096,11,18,37,059,10*75

$GPGSV,4,2,13,16,35,177,17,11,23,268,,21,14,066,15,07,13,281,16*7D

$GPGSV,4,3,13,01,12,247,,26,10,167,12,30,10,315,,15,04,029,*77

$GPGSV,4,4,13,32,02,127,*4C

$GPRMC,145710.000,A,4709.3604,N,00138.3081,W,1.05,223.60,180717,,,A*78

$GPVTG,223.60,T,,M,1.05,N,1.95,K,A*31

$GPGGA,145711.000,4709.3601,N,00138.3084,W,1,08,0.96,26.1,M,48.7,M,,*4B

$GPGLL,4709.3601,N,00138.3084,W,145711.000,A,A*47

$GPGSA,A,3,26,10,07,18,21,27,08,16,,,,,1.23,0.96,0.77*0F

$GPGSV,4,1,13,27,76,091,16,08,63,305,23,10,56,096,11,18,37,059,10*72

$GPGSV,4,2,13,16,35,177,17,11,23,268,,21,14,066,15,07,13,281,15*7E

$GPGSV,4,3,13,01,12,247,,26,10,167,13,30,10,315,,15,04,029,*76

$GPGSV,4,4,13,32,02,127,*4C

$GPRMC,145711.000,A,4709.3601,N,00138.3084,W,1.03,222.66,180717,,,A*78

$GPVTG,222.66,T,,M,1.03,N,1.91,K,A*34

$GPGGA,145712.000,4709.3597,N,00138.3086,W,1,08,0.96,25.7,M,48.7,M,,*43

$GPGLL,4709.3597,N,00138.3086,W,145712.000,A,A*4A

$GPGSA,A,3,26,10,07,18,21,27,08,16,,,,,1.23,0.96,0.77*0F

$GPGSV,4,1,13,27,76,091,16,08,63,305,23,10,56,096,12,18,37,059,10*71

$GPGSV,4,2,13,16,35,177,17,11,23,268,,21,14,066,15,07,13,281,15*7E

$GPGSV,4,3,13,01,12,247,,26,10,167,12,30,10,315,,15,04,029,*77

$GPGSV,4,4,13,32,02,127,*4C

$GPRMC,145712.000,A,4709.3597,N,00138.3086,W,1.00,221.57,180717,,,A*77

$GPVTG,221.57,T,,M,1.00,N,1.85,K,A*33

$GPGGA,145713.000,4709.3595,N,00138.3088,W,1,08,0.96,25.4,M,48.7,M,,*4D

$GPGLL,4709.3595,N,00138.3088,W,145713.000,A,A*47

$GPGSA,A,3,26,10,07,18,21,27,08,16,,,,,1.23,0.96,0.77*0F

$GPGSV,4,1,13,27,76,091,16,08,63,305,23,10,56,096,12,18,37,059,09*79

$GPGSV,4,2,13,16,35,177,17,11,23,268,,21,14,066,15,07,13,281,16*7D

$GPGSV,4,3,13,01,12,247,,26,10,167,13,30,10,315,,15,04,029,*76

$GPGSV,4,4,13,32,02,127,*4C

$GPRMC,145713.000,A,4709.3595,N,00138.3088,W,0.96,220.92,180717,,,A*7C

$GPVTG,220.92,T,,M,0.96,N,1.77,K,A*38

$GPGGA,145714.000,4709.3593,N,00138.3092,W,1,08,0.96,25.0,M,48.7,M,,*43

$GPGLL,4709.3593,N,00138.3092,W,145714.000,A,A*4D

$GPGSA,A,3,26,10,07,18,21,27,08,16,,,,,1.23,0.96,0.77*0F

$GPGSV,4,1,13,27,76,091,16,08,63,305,24,10,56,096,13,18,37,059,09*7F

$GPGSV,4,2,13,16,35,177,17,11,23,268,,21,14,066,15,07,13,281,16*7D

$GPGSV,4,3,13,01,12,247,,26,10,167,13,30,10,315,,15,04,029,*76

$GPGSV,4,4,13,32,02,127,*4C

$GPRMC,145714.000,A,4709.3593,N,00138.3092,W,0.94,222.12,180717,,,A*7E

$GPVTG,222.12,T,,M,0.94,N,1.75,K,A*32

$GPGGA,145715.000,4709.3589,N,00138.3097,W,1,08,0.96,24.5,M,48.7,M,,*48

$GPGLL,4709.3589,N,00138.3097,W,145715.000,A,A*42

$GPGSA,A,3,26,10,07,18,21,27,08,16,,,,,1.23,0.96,0.77*0F

$GPGSV,4,1,13,27,76,091,16,08,63,305,24,10,56,096,13,18,37,059,09*7F

$GPGSV,4,2,13,16,35,177,17,11,23,268,,21,14,066,15,07,13,281,16*7D

$GPGSV,4,3,13,01,12,247,,26,10,167,13,30,10,315,,15,04,029,*76

$GPGSV,4,4,13,32,02,127,*4C

$GPRMC,145715.000,A,4709.3589,N,00138.3097,W,0.94,221.66,180717,,,A*71

$GPVTG,221.66,T,,M,0.94,N,1.74,K,A*33

$GPGGA,145716.000,4709.3588,N,00138.3099,W,1,08,0.96,24.5,M,48.7,M,,*44

$GPGLL,4709.3588,N,00138.3099,W,145716.000,A,A*4E

$GPGSA,A,3,26,10,07,18,21,27,08,16,,,,,1.23,0.96,0.77*0F

$GPGSV,4,1,14,27,76,091,17,08,63,305,25,10,56,096,14,18,37,059,10*77

$GPGSV,4,2,14,16,35,177,17,11,23,268,,21,14,066,15,07,13,281,16*7A

$GPGSV,4,3,14,01,12,247,,26,10,167,13,30,10,315,,15,04,029,*71

$GPGSV,4,4,14,32,02,127,,43,,,*4C

$GPRMC,145716.000,A,4709.3588,N,00138.3099,W,0.89,224.68,180717,,,A*7A

$GPVTG,224.68,T,,M,0.89,N,1.65,K,A*34

$GPGGA,145717.000,4709.3580,N,00138.3100,W,1,08,0.96,24.1,M,48.7,M,,*48

$GPGLL,4709.3580,N,00138.3100,W,145717.000,A,A*46

$GPGSA,A,3,26,10,07,18,21,27,08,16,,,,,1.23,0.96,0.77*0F

$GPGSV,4,1,14,27,76,092,17,08,63,305,26,10,56,096,14,18,37,059,10*77

$GPGSV,4,2,14,16,35,177,17,11,23,268,,21,14,066,16,07,13,281,16*79

$GPGSV,4,3,14,01,12,247,,26,10,167,11,30,10,315,,15,04,029,*73

$GPGSV,4,4,14,32,02,127,,43,,,*4C

$GPRMC,145717.000,A,4709.3580,N,00138.3100,W,0.92,219.23,180717,,,A*79

$GPVTG,219.23,T,,M,0.92,N,1.71,K,A*3A

$GPGGA,145718.000,4709.3568,N,00138.3099,W,1,08,0.96,23.7,M,48.7,M,,*41

$GPGLL,4709.3568,N,00138.3099,W,145718.000,A,A*4E

$GPGSA,A,3,26,10,07,18,21,27,08,16,,,,,1.23,0.96,0.77*0F

$GPGSV,4,1,14,27,76,092,17,08,63,305,26,10,56,096,14,18,37,059,10*77

$GPGSV,4,2,14,16,35,177,17,11,23,268,,21,14,066,16,07,13,281,16*79

$GPGSV,4,3,14,01,12,247,,26,10,167,14,30,10,315,,15,04,029,*76

$GPGSV,4,4,14,32,02,127,,43,,,*4C

$GPRMC,145718.000,A,4709.3568,N,00138.3099,W,0.98,211.62,180717,,,A*76

$GPVTG,211.62,T,,M,0.98,N,1.82,K,A*31

$GPGGA,145719.000,4709.3555,N,00138.3101,W,1,08,0.96,23.5,M,48.7,M,,*4C

$GPGLL,4709.3555,N,00138.3101,W,145719.000,A,A*41

$GPGSA,A,3,26,10,07,18,21,27,08,16,,,,,1.23,0.96,0.77*0F

$GPGSV,4,1,14,27,76,092,17,08,63,305,26,10,56,096,14,18,37,059,10*77

$GPGSV,4,2,14,16,35,177,18,11,23,268,,21,14,066,16,07,13,281,16*76

$GPGSV,4,3,14,01,12,247,,26,10,167,13,30,10,315,,15,04,029,*71

$GPGSV,4,4,14,32,02,127,,43,,,*4C

$GPRMC,145719.000,A,4709.3555,N,00138.3101,W,1.09,206.59,180717,,,A*7E

$GPVTG,206.59,T,,M,1.09,N,2.02,K,A*3D

$GPGGA,145720.000,4709.3554,N,00138.3104,W,1,08,0.96,23.4,M,48.7,M,,*43

$GPGLL,4709.3554,N,00138.3104,W,145720.000,A,A*4F

$GPGSA,A,3,26,10,07,18,21,27,08,16,,,,,1.23,0.96,0.77*0F

$GPGSV,4,1,14,27,76,092,17,08,63,305,26,10,56,096,14,18,37,059,10*77

$GPGSV,4,2,14,16,35,177,18,11,23,268,,21,14,066,16,07,13,281,16*76

$GPGSV,4,3,14,01,12,247,,26,10,167,14,30,10,315,,15,04,029,*76

$GPGSV,4,4,14,32,02,127,,43,,,*4C

$GPRMC,145720.000,A,4709.3554,N,00138.3104,W,1.06,209.92,180717,,,A*77

$GPVTG,209.92,T,,M,1.06,N,1.96,K,A*34

$GPGGA,145721.000,4709.3551,N,00138.3108,W,1,08,0.96,23.3,M,48.7,M,,*4C

$GPGLL,4709.3551,N,00138.3108,W,145721.000,A,A*47

$GPGSA,A,3,26,10,07,18,21,27,08,16,,,,,1.23,0.96,0.77*0F

$GPGSV,4,1,14,27,76,092,17,08,63,305,26,10,56,096,15,18,37,059,10*76

$GPGSV,4,2,14,16,35,177,18,11,23,268,,21,14,066,16,07,13,281,16*76

$GPGSV,4,3,14,01,12,247,,26,10,167,13,30,10,315,,15,04,029,*71

$GPGSV,4,4,14,32,02,127,,43,,,*4C

$GPRMC,145721.000,A,4709.3551,N,00138.3108,W,1.06,212.85,180717,,,A*73

$GPVTG,212.85,T,,M,1.06,N,1.97,K,A*39

$GPGGA,145722.000,4709.3554,N,00138.3110,W,1,08,0.96,22.9,M,48.7,M,,*48

$GPGLL,4709.3554,N,00138.3110,W,145722.000,A,A*48

$GPGSA,A,3,26,10,07,18,21,27,08,16,,,,,1.23,0.96,0.77*0F

$GPGSV,4,1,14,27,76,092,18,08,63,305,26,10,56,096,16,18,37,059,10*7A

$GPGSV,4,2,14,16,35,177,18,11,23,268,,21,14,066,16,07,13,281,16*76

$GPGSV,4,3,14,01,12,247,,26,10,167,12,30,10,315,,15,04,029,*70

$GPGSV,4,4,14,32,02,127,,45,,,*4A

$GPRMC,145722.000,A,4709.3554,N,00138.3110,W,0.97,215.02,180717,,,A*7D

$GPVTG,215.02,T,,M,0.97,N,1.80,K,A*3E

$GPGGA,145723.000,4709.3555,N,00138.3108,W,1,08,0.96,22.6,M,48.7,M,,*4E

$GPGLL,4709.3555,N,00138.3108,W,145723.000,A,A*41

$GPGSA,A,3,26,10,07,18,21,27,08,16,,,,,1.23,0.96,0.77*0F

$GPGSV,4,1,14,27,76,092,18,08,63,305,26,10,56,096,16,18,37,059,10*7A

$GPGSV,4,2,14,16,35,177,18,11,23,268,,21,14,066,16,07,13,281,16*76

$GPGSV,4,3,14,01,12,247,,26,10,167,13,30,10,315,,15,04,029,*71

$GPGSV,4,4,14,32,02,127,,45,,,*4A

$GPRMC,145723.000,A,4709.3555,N,00138.3108,W,0.91,212.93,180717,,,A*7D

$GPVTG,212.93,T,,M,0.91,N,1.69,K,A*30

$GPGGA,145724.000,4709.3552,N,00138.3114,W,1,08,0.96,22.5,M,48.7,M,,*40

$GPGLL,4709.3552,N,00138.3114,W,145724.000,A,A*4C

$GPGSA,A,3,26,10,07,18,21,27,08,16,,,,,1.23,0.96,0.77*0F

$GPGSV,4,1,14,27,76,092,18,08,63,305,26,10,56,096,16,18,37,059,10*7A

$GPGSV,4,2,14,16,35,177,18,11,23,268,,21,14,066,16,07,13,281,16*76

$GPGSV,4,3,14,01,12,247,,26,10,167,14,30,10,315,,15,04,029,*76

$GPGSV,4,4,14,32,02,127,,45,,,*4A

$GPRMC,145724.000,A,4709.3552,N,00138.3114,W,0.96,213.56,180717,,,A*7F

$GPVTG,213.56,T,,M,0.96,N,1.77,K,A*30

$GPGGA,145725.000,4709.3551,N,00138.3117,W,1,08,0.96,22.4,M,48.7,M,,*40

$GPGLL,4709.3551,N,00138.3117,W,145725.000,A,A*4D

$GPGSA,A,3,26,10,07,18,21,27,08,16,,,,,1.23,0.96,0.77*0F

$GPGSV,4,1,14,27,76,092,18,08,63,305,26,10,56,096,17,18,37,059,10*7B

$GPGSV,4,2,14,16,35,177,18,11,23,268,,21,14,066,16,07,13,281,16*76

$GPGSV,4,3,14,01,12,247,,26,10,167,13,30,10,315,,15,04,029,*71

$GPGSV,4,4,14,32,02,127,,45,,,*4A

$GPRMC,145725.000,A,4709.3551,N,00138.3117,W,0.94,213.11,180717,,,A*7F

$GPVTG,213.11,T,,M,0.94,N,1.75,K,A*33

$GPGGA,145726.000,4709.3550,N,00138.3120,W,1,08,0.96,22.4,M,48.7,M,,*46

$GPGLL,4709.3550,N,00138.3120,W,145726.000,A,A*4B

$GPGSA,A,3,26,10,07,18,21,27,08,16,,,,,1.23,0.96,0.77*0F

$GPGSV,4,1,14,27,76,092,18,08,63,305,26,10,56,096,17,18,37,059,10*7B

$GPGSV,4,2,14,16,35,177,18,11,23,268,,21,14,066,16,07,13,281,16*76

$GPGSV,4,3,14,01,12,247,,26,10,167,14,30,10,315,,15,04,029,*76

$GPGSV,4,4,14,32,02,127,,45,,,*4A

$GPRMC,145726.000,A,4709.3550,N,00138.3120,W,0.91,211.68,180717,,,A*70

$GPVTG,211.68,T,,M,0.91,N,1.68,K,A*36

$GPGGA,145727.000,4709.3546,N,00138.3122,W,1,08,0.96,22.3,M,48.7,M,,*45

$GPGLL,4709.3546,N,00138.3122,W,145727.000,A,A*4F

$GPGSA,A,3,26,10,07,18,21,27,08,16,,,,,1.23,0.96,0.77*0F

$GPGSV,4,1,14,27,76,092,18,08,63,305,26,10,56,096,17,18,37,059,10*7B

$GPGSV,4,2,14,16,35,177,18,11,23,268,,21,14,066,16,07,13,281,16*76

$GPGSV,4,3,14,01,12,247,,26,10,167,12,30,10,315,,15,04,029,*70

$GPGSV,4,4,14,32,02,127,,45,,,*4A

$GPRMC,145727.000,A,4709.3546,N,00138.3122,W,0.91,208.23,180717,,,A*73

$GPVTG,208.23,T,,M,0.91,N,1.69,K,A*30

$GPGGA,145728.000,4709.3540,N,00138.3125,W,1,08,0.96,22.3,M,48.7,M,,*4B

$GPGLL,4709.3540,N,00138.3125,W,145728.000,A,A*41

$GPGSA,A,3,26,10,07,18,21,27,08,16,,,,,1.23,0.96,0.77*0F

$GPGSV,4,1,14,27,76,092,18,08,63,305,26,10,56,096,17,18,37,059,10*7B

$GPGSV,4,2,14,16,35,177,18,11,23,268,,21,14,066,16,07,13,281,15*75

$GPGSV,4,3,14,01,12,247,,26,10,167,13,30,10,315,,15,04,029,*71

$GPGSV,4,4,14,32,02,127,,45,,,*4A

$GPRMC,145728.000,A,4709.3540,N,00138.3125,W,0.95,207.32,180717,,,A*76

$GPVTG,207.32,T,,M,0.95,N,1.75,K,A*36

$GPGGA,145729.000,4709.3536,N,00138.3128,W,1,08,0.96,22.2,M,48.7,M,,*47

$GPGLL,4709.3536,N,00138.3128,W,145729.000,A,A*4C

$GPGSA,A,3,26,10,07,18,21,27,08,16,,,,,1.23,0.96,0.77*0F

$GPGSV,4,1,14,27,76,092,18,08,63,305,26,10,56,096,17,18,37,059,10*7B

$GPGSV,4,2,14,16,35,177,18,11,23,268,,21,14,066,16,07,13,281,15*75

$GPGSV,4,3,14,01,12,247,,26,10,167,12,30,10,315,,15,04,029,*70

$GPGSV,4,4,14,32,02,127,,46,,,*49

$GPRMC,145729.000,A,4709.3536,N,00138.3128,W,0.94,210.00,180717,,,A*7D

$GPVTG,210.00,T,,M,0.94,N,1.74,K,A*31

$GPGGA,145730.000,4709.3535,N,00138.3128,W,1,08,0.96,22.2,M,48.7,M,,*4C

$GPGLL,4709.3535,N,00138.3128,W,145730.000,A,A*47

$GPGSA,A,3,26,10,07,18,21,27,08,16,,,,,1.23,0.96,0.77*0F

$GPGSV,4,1,14,27,76,092,18,08,63,305,26,10,56,096,18,18,37,059,10*74

$GPGSV,4,2,14,16,35,177,18,11,23,268,,21,14,066,15,07,13,281,15*76

$GPGSV,4,3,14,01,12,247,,26,10,167,11,30,10,315,,15,04,029,*73

$GPGSV,4,4,14,32,02,127,,46,,,*49

$GPRMC,145730.000,A,4709.3535,N,00138.3128,W,0.87,208.28,180717,,,A*77

$GPVTG,208.28,T,,M,0.87,N,1.60,K,A*35

$GPGGA,145731.000,4709.3524,N,00138.3136,W,1,08,0.96,22.0,M,48.7,M,,*40

$GPGLL,4709.3524,N,00138.3136,W,145731.000,A,A*49

$GPGSA,A,3,26,10,07,18,21,27,08,16,,,,,1.23,0.96,0.77*0F

$GPGSV,4,1,14,27,76,092,18,08,63,305,26,10,56,096,18,18,37,059,10*74

$GPGSV,4,2,14,16,35,177,18,11,23,268,,21,14,066,14,07,13,281,16*74

$GPGSV,4,3,14,01,12,247,,26,10,167,15,30,10,315,,15,04,029,*77

$GPGSV,4,4,14,32,02,127,,46,,,*49

$GPRMC,145731.000,A,4709.3524,N,00138.3136,W,0.98,208.78,180717,,,A*72

$GPVTG,208.78,T,,M,0.98,N,1.81,K,A*31

$GPGGA,145732.000,4709.3522,N,00138.3138,W,1,08,0.96,22.0,M,48.7,M,,*4B

$GPGLL,4709.3522,N,00138.3138,W,145732.000,A,A*42

$GPGSA,A,3,26,10,07,18,21,27,08,16,,,,,1.23,0.96,0.77*0F

$GPGSV,4,1,14,27,76,092,18,08,63,305,26,10,56,096,18,18,37,059,10*74

$GPGSV,4,2,14,16,35,177,18,11,23,268,,21,14,066,15,07,12,281,16*74

$GPGSV,4,3,14,01,12,247,,26,10,167,13,30,10,315,,15,04,029,*71

$GPGSV,4,4,14,32,02,127,,46,,,*49

$GPRMC,145732.000,A,4709.3522,N,00138.3138,W,0.93,210.26,180717,,,A*70

$GPVTG,210.26,T,,M,0.93,N,1.71,K,A*37

$GPGGA,145733.000,4709.3519,N,00138.3142,W,1,08,0.96,22.0,M,48.7,M,,*4F

$GPGLL,4709.3519,N,00138.3142,W,145733.000,A,A*46

$GPGSA,A,3,26,10,07,18,21,27,08,16,,,,,1.23,0.96,0.77*0F

$GPGSV,4,1,14,27,76,092,18,08,63,305,26,10,56,096,18,18,37,059,10*74

$GPGSV,4,2,14,16,35,177,18,11,23,268,,21,14,066,15,07,12,281,16*74

$GPGSV,4,3,14,01,12,247,,26,10,167,13,30,10,315,,15,04,029,*71

$GPGSV,4,4,14,32,02,127,,46,,,*49

$GPRMC,145733.000,A,4709.3519,N,00138.3142,W,0.89,213.57,180717,,,A*7A

$GPVTG,213.57,T,,M,0.89,N,1.66,K,A*3F

$GPGGA,145734.000,4709.3520,N,00138.3147,W,1,08,0.96,21.9,M,48.7,M,,*4D

$GPGLL,4709.3520,N,00138.3147,W,145734.000,A,A*4E

$GPGSA,A,3,26,10,07,18,21,27,08,16,,,,,1.23,0.96,0.77*0F

$GPGSV,4,1,14,27,76,092,18,08,63,305,26,10,56,096,18,18,37,059,10*74

$GPGSV,4,2,14,16,35,177,18,11,23,268,,21,14,066,15,07,12,281,16*74

$GPGSV,4,3,14,01,12,247,,26,10,167,13,30,10,315,,15,04,029,*71

$GPGSV,4,4,14,32,02,127,,46,,,*49

$GPRMC,145734.000,A,4709.3520,N,00138.3147,W,0.85,219.77,180717,,,A*76

$GPVTG,219.77,T,,M,0.85,N,1.58,K,A*36

$GPGGA,145735.000,4709.3515,N,00138.3154,W,1,08,0.96,21.9,M,48.7,M,,*48

$GPGLL,4709.3515,N,00138.3154,W,145735.000,A,A*4B

$GPGSA,A,3,26,10,07,18,21,27,08,16,,,,,1.23,0.96,0.77*0F

$GPGSV,4,1,14,27,76,092,18,08,63,305,26,10,56,095,18,18,37,059,10*77

$GPGSV,4,2,14,16,35,177,18,11,23,268,,21,14,066,14,07,12,281,15*76

$GPGSV,4,3,14,01,12,247,,26,10,167,12,30,10,315,,15,04,029,*70

$GPGSV,4,4,14,32,02,127,,47,,,*48

$GPRMC,145735.000,A,4709.3515,N,00138.3154,W,0.89,224.09,180717,,,A*78

$GPVTG,224.09,T,,M,0.89,N,1.66,K,A*30

$GPGGA,145736.000,4709.3510,N,00138.3161,W,1,07,1.17,21.8,M,48.7,M,,*4E

$GPGLL,4709.3510,N,00138.3161,W,145736.000,A,A*4B

$GPGSA,A,3,10,07,18,21,27,08,16,,,,,,1.42,1.17,0.81*0D

$GPGSV,4,1,14,27,76,092,18,08,63,305,26,10,56,095,18,18,37,059,09*7F

$GPGSV,4,2,14,16,35,177,18,11,23,268,,21,14,066,16,07,12,281,15*74

$GPGSV,4,3,14,01,12,247,,26,10,167,,30,10,315,,15,04,029,*73

$GPGSV,4,4,14,32,02,127,,47,,,*48

$GPRMC,145736.000,A,4709.3510,N,00138.3161,W,0.96,224.72,180717,,,A*7A

$GPVTG,224.72,T,,M,0.96,N,1.78,K,A*3D

$GPGGA,145737.000,4709.3509,N,00138.3169,W,1,07,1.17,21.7,M,48.7,M,,*40

$GPGLL,4709.3509,N,00138.3169,W,145737.000,A,A*4A

$GPGSA,A,3,10,07,18,21,27,08,16,,,,,,1.42,1.17,0.81*0D

$GPGSV,4,1,14,27,76,092,18,08,63,305,26,10,56,095,18,18,37,059,09*7F

$GPGSV,4,2,14,16,35,177,18,11,23,268,,21,14,066,15,07,12,281,15*77

$GPGSV,4,3,14,01,12,247,,26,10,167,,30,10,315,,15,04,029,*73

$GPGSV,4,4,14,32,02,127,,47,,,*48

$GPRMC,145737.000,A,4709.3509,N,00138.3169,W,0.98,227.26,180717,,,A*77

$GPVTG,227.26,T,,M,0.98,N,1.81,K,A*37

$GPGGA,145738.000,4709.3508,N,00138.3171,W,1,07,1.17,21.6,M,48.7,M,,*46

$GPGLL,4709.3508,N,00138.3171,W,145738.000,A,A*4D

$GPGSA,A,3,10,07,18,21,27,08,16,,,,,,1.42,1.17,0.81*0D

$GPGSV,4,1,14,27,76,092,18,08,63,305,26,10,56,095,18,18,37,059,09*7F

$GPGSV,4,2,14,16,35,177,18,11,23,268,,21,14,066,15,07,12,281,15*77

$GPGSV,4,3,14,01,12,247,,26,10,167,,30,10,315,,15,04,029,*73

$GPGSV,4,4,14,32,02,127,,47,,,*48

$GPRMC,145738.000,A,4709.3508,N,00138.3171,W,0.94,223.90,180717,,,A*75

$GPVTG,223.90,T,,M,0.94,N,1.74,K,A*38

$GPGGA,145739.000,4709.3508,N,00138.3171,W,1,07,1.17,21.4,M,48.7,M,,*45

$GPGLL,4709.3508,N,00138.3171,W,145739.000,A,A*4C

$GPGSA,A,3,10,07,18,21,27,08,16,,,,,,1.42,1.17,0.81*0D

$GPGSV,4,1,14,27,76,092,18,08,63,305,26,10,56,095,18,18,37,059,09*7F

$GPGSV,4,2,14,16,35,177,18,11,23,268,,21,14,066,14,07,12,281,15*76

$GPGSV,4,3,14,01,12,247,,26,10,167,,30,10,315,,15,04,029,*73

$GPGSV,4,4,14,32,02,127,,47,,,*48

$GPRMC,145739.000,A,4709.3508,N,00138.3171,W,0.87,222.25,180717,,,A*79

$GPVTG,222.25,T,,M,0.87,N,1.62,K,A*32

$GPGGA,145740.000,4709.3506,N,00138.3171,W,1,07,1.17,21.4,M,48.7,M,,*45

$GPGLL,4709.3506,N,00138.3171,W,145740.000,A,A*4C

$GPGSA,A,3,10,07,18,21,27,08,16,,,,,,1.42,1.17,0.81*0D

$GPGSV,4,1,14,27,76,092,18,08,63,305,26,10,56,095,18,18,37,059,09*7F

$GPGSV,4,2,14,16,35,177,18,11,23,268,,21,14,066,14,07,12,281,13*70

$GPGSV,4,3,14,01,12,247,,26,10,167,,30,10,315,,15,04,029,*73

$GPGSV,4,4,14,32,02,127,,47,,,*48

$GPRMC,145740.000,A,4709.3506,N,00138.3171,W,0.83,216.18,180717,,,A*74

$GPVTG,216.18,T,,M,0.83,N,1.53,K,A*3D

$GPGGA,145741.000,4709.3505,N,00138.3172,W,1,07,1.17,21.4,M,48.7,M,,*44

$GPGLL,4709.3505,N,00138.3172,W,145741.000,A,A*4D

$GPGSA,A,3,10,07,18,21,27,08,16,,,,,,1.42,1.17,0.81*0D

$GPGSV,4,1,14,27,76,092,18,08,63,305,26,10,56,095,18,18,37,059,09*7F

$GPGSV,4,2,14,16,35,177,18,11,23,268,,21,14,066,15,07,12,281,16*74

$GPGSV,4,3,14,01,12,247,,26,10,167,,30,10,315,,15,04,029,*73

$GPGSV,4,4,14,32,02,127,,49,,,*46

$GPRMC,145741.000,A,4709.3505,N,00138.3172,W,0.78,213.47,180717,,,A*7E

$GPVTG,213.47,T,,M,0.78,N,1.45,K,A*31

$GPGGA,145742.000,4709.3503,N,00138.3171,W,1,07,1.17,21.4,M,48.7,M,,*42

$GPGLL,4709.3503,N,00138.3171,W,145742.000,A,A*4B

$GPGSA,A,3,10,07,18,21,27,08,16,,,,,,1.42,1.17,0.81*0D

$GPGSV,4,1,14,27,76,092,18,08,63,305,26,10,56,095,18,18,37,059,09*7F

$GPGSV,4,2,14,16,35,177,18,11,23,268,,21,14,066,13,07,12,281,15*71

$GPGSV,4,3,14,01,12,247,,26,10,167,,30,10,315,,15,04,029,*73

$GPGSV,4,4,14,32,02,127,,49,,,*46

$GPRMC,145742.000,A,4709.3503,N,00138.3171,W,0.74,205.89,180717,,,A*71

$GPVTG,205.89,T,,M,0.74,N,1.38,K,A*32

$GPGGA,145743.000,4709.3504,N,00138.3172,W,1,07,1.17,21.3,M,48.7,M,,*40

$GPGLL,4709.3504,N,00138.3172,W,145743.000,A,A*4E

$GPGSA,A,3,10,07,18,21,27,08,16,,,,,,1.42,1.17,0.81*0D

$GPGSV,4,1,14,27,76,092,18,08,63,305,26,10,56,095,17,18,37,059,09*70

$GPGSV,4,2,14,16,35,177,18,11,23,268,,21,14,066,15,07,12,281,14*76

$GPGSV,4,3,14,01,12,247,,26,10,167,,30,10,315,,15,04,029,*73

$GPGSV,4,4,14,32,02,127,,49,,,*46

$GPRMC,145743.000,A,4709.3504,N,00138.3172,W,0.66,204.87,180717,,,A*78

$GPVTG,204.87,T,,M,0.66,N,1.22,K,A*35

$GPGGA,145744.000,4709.3504,N,00138.3173,W,1,07,1.17,21.3,M,48.7,M,,*46

$GPGLL,4709.3504,N,00138.3173,W,145744.000,A,A*48

$GPGSA,A,3,10,07,18,21,27,08,16,,,,,,1.42,1.17,0.81*0D

$GPGSV,4,1,14,27,76,092,18,08,63,305,26,10,56,095,17,18,37,059,09*70

$GPGSV,4,2,14,16,35,177,18,11,23,268,,21,14,066,14,07,12,281,14*77

$GPGSV,4,3,14,01,12,247,,26,10,167,,30,10,315,,15,04,029,*73

$GPGSV,4,4,14,32,02,127,,49,,,*46

$GPRMC,145744.000,A,4709.3504,N,00138.3173,W,0.60,206.19,180717,,,A*7D

$GPVTG,206.19,T,,M,0.60,N,1.11,K,A*36

$GPGGA,145745.000,4709.3505,N,00138.3165,W,1,07,1.17,21.3,M,48.7,M,,*41

$GPGLL,4709.3505,N,00138.3165,W,145745.000,A,A*4F

$GPGSA,A,3,10,07,18,21,27,08,16,,,,,,1.42,1.17,0.81*0D

$GPGSV,4,1,14,27,76,092,18,08,63,305,26,10,56,095,18,18,37,059,09*7F

$GPGSV,4,2,14,16,35,177,18,11,23,268,,21,14,066,15,07,12,281,16*74

$GPGSV,4,3,14,01,12,247,,26,10,167,,30,10,315,,15,04,029,*73

$GPGSV,4,4,14,32,02,127,,49,,,*46

$GPRMC,145745.000,A,4709.3505,N,00138.3165,W,0.50,196.72,180717,,,A*7E

$GPVTG,196.72,T,,M,0.50,N,0.93,K,A*39

$GPGGA,145746.000,4709.3507,N,00138.3163,W,1,07,1.17,21.4,M,48.7,M,,*41

$GPGLL,4709.3507,N,00138.3163,W,145746.000,A,A*48

$GPGSA,A,3,10,07,18,21,27,08,16,,,,,,1.42,1.17,0.81*0D

$GPGSV,4,1,14,27,76,092,18,08,63,305,26,10,56,095,18,18,37,059,10*77

$GPGSV,4,2,14,16,35,177,18,11,23,268,,21,14,066,16,07,12,281,15*74

$GPGSV,4,3,14,01,12,247,,26,10,167,,30,10,315,,15,04,029,*73

$GPGSV,4,4,14,32,02,127,,49,,,*46

$GPRMC,145746.000,A,4709.3507,N,00138.3163,W,0.40,201.26,180717,,,A*74

$GPVTG,201.26,T,,M,0.40,N,0.75,K,A*3C

$GPGGA,145747.000,4709.3508,N,00138.3160,W,1,07,1.17,21.4,M,48.7,M,,*4C

$GPGLL,4709.3508,N,00138.3160,W,145747.000,A,A*45

$GPGSA,A,3,10,07,18,21,27,08,16,,,,,,1.42,1.17,0.81*0D

$GPGSV,4,1,14,27,76,092,18,08,63,305,26,10,56,095,18,18,37,059,10*77

$GPGSV,4,2,14,16,35,177,18,11,23,268,,21,14,066,15,07,12,281,14*76

$GPGSV,4,3,14,01,12,247,,26,10,167,,30,10,315,,15,04,029,*73

$GPGSV,4,4,14,32,02,127,,49,,,*46

$GPRMC,145747.000,A,4709.3508,N,00138.3160,W,0.35,203.92,180717,,,A*76

$GPVTG,203.92,T,,M,0.35,N,0.66,K,A*31

$GPGGA,145748.000,4709.3511,N,00138.3161,W,1,07,1.17,21.4,M,48.7,M,,*4A

$GPGLL,4709.3511,N,00138.3161,W,145748.000,A,A*43

$GPGSA,A,3,10,07,18,21,27,08,16,,,,,,1.42,1.17,0.81*0D

$GPGSV,4,1,13,27,76,092,18,08,63,305,26,10,56,095,18,18,37,059,10*70

$GPGSV,4,2,13,16,35,177,18,11,23,268,,21,14,066,14,07,12,281,14*70

$GPGSV,4,3,13,01,12,247,,26,10,167,,30,10,315,,15,04,029,*74

$GPGSV,4,4,13,32,02,127,*4C

$GPRMC,145748.000,A,4709.3511,N,00138.3161,W,0.30,210.42,180717,,,A*7A

$GPVTG,210.42,T,,M,0.30,N,0.56,K,A*38

$GPGGA,145749.000,4709.3511,N,00138.3161,W,1,07,1.17,21.4,M,48.7,M,,*4B

$GPGLL,4709.3511,N,00138.3161,W,145749.000,A,A*42

$GPGSA,A,3,10,07,18,21,27,08,16,,,,,,1.42,1.17,0.81*0D

$GPGSV,4,1,13,27,76,092,18,08,63,305,26,10,56,095,18,18,37,059,11*71

$GPGSV,4,2,13,16,35,177,18,11,23,268,,21,14,066,14,07,12,281,14*70

$GPGSV,4,3,13,01,12,247,,26,10,167,,30,10,315,,15,04,029,*74

$GPGSV,4,4,13,32,02,127,*4C

$GPRMC,145749.000,A,4709.3511,N,00138.3161,W,0.33,207.12,180717,,,A*7B

$GPVTG,207.12,T,,M,0.33,N,0.60,K,A*3D

$GPGGA,145750.000,4709.3510,N,00138.3162,W,1,07,1.17,21.4,M,48.7,M,,*41

$GPGLL,4709.3510,N,00138.3162,W,145750.000,A,A*48

$GPGSA,A,3,10,07,18,21,27,08,16,,,,,,1.42,1.17,0.81*0D

$GPGSV,4,1,14,27,76,092,19,08,63,305,26,10,56,095,19,18,37,059,11*76

$GPGSV,4,2,14,16,35,177,17,33,34,198,,11,23,268,,21,14,066,16*77

$GPGSV,4,3,14,07,12,281,14,01,12,247,,26,10,167,,30,10,315,*72

$GPGSV,4,4,14,15,04,029,,32,02,127,*70

$GPRMC,145750.000,A,4709.3510,N,00138.3162,W,0.35,190.62,180717,,,A*7D

$GPVTG,190.62,T,,M,0.35,N,0.65,K,A*34

$GPGGA,145751.000,4709.3509,N,00138.3162,W,1,07,1.17,21.4,M,48.7,M,,*48

$GPGLL,4709.3509,N,00138.3162,W,145751.000,A,A*41

$GPGSA,A,3,10,07,18,21,27,08,16,,,,,,1.42,1.17,0.81*0D

$GPGSV,4,1,14,27,76,092,19,08,63,305,26,10,56,095,19,18,37,059,11*76

$GPGSV,4,2,14,16,35,177,17,33,34,198,,11,23,268,,21,14,066,13*72

$GPGSV,4,3,14,07,12,281,15,01,12,247,,30,10,315,,26,09,167,*7B

$GPGSV,4,4,14,15,04,029,,32,02,127,*70

$GPRMC,145751.000,A,4709.3509,N,00138.3162,W,0.39,188.99,180717,,,A*75

$GPVTG,188.99,T,,M,0.39,N,0.72,K,A*33

$GPGGA,145752.000,4709.3508,N,00138.3162,W,1,07,1.17,21.4,M,48.7,M,,*4A

$GPGLL,4709.3508,N,00138.3162,W,145752.000,A,A*43

$GPGSA,A,3,10,07,18,21,27,08,16,,,,,,1.42,1.17,0.81*0D

$GPGSV,4,1,14,27,75,093,19,08,63,305,26,10,56,095,18,18,37,059,11*75

$GPGSV,4,2,14,16,35,177,17,33,34,198,,11,23,268,,21,14,066,15*74

$GPGSV,4,3,14,07,12,281,15,01,12,247,,30,10,315,,26,09,167,*7B

$GPGSV,4,4,14,15,04,029,,32,02,127,*70

$GPRMC,145752.000,A,4709.3508,N,00138.3162,W,0.40,182.15,180717,,,A*77

$GPVTG,182.15,T,,M,0.40,N,0.75,K,A*34

$GPGGA,145753.000,4709.3507,N,00138.3162,W,1,07,1.17,21.4,M,48.7,M,,*44

$GPGLL,4709.3507,N,00138.3162,W,145753.000,A,A*4D

$GPGSA,A,3,10,07,18,21,27,08,16,,,,,,1.42,1.17,0.81*0D

$GPGSV,4,1,14,27,75,093,19,08,63,305,26,10,56,095,18,18,37,059,11*75

$GPGSV,4,2,14,16,35,177,17,33,34,198,,11,23,268,,21,14,066,15*74

$GPGSV,4,3,14,07,12,281,13,01,12,247,,30,10,315,,26,09,167,*7D

$GPGSV,4,4,14,15,04,029,,32,02,127,*70

$GPRMC,145753.000,A,4709.3507,N,00138.3162,W,0.41,177.06,180717,,,A*70

$GPVTG,177.06,T,,M,0.41,N,0.76,K,A*3E

$GPGGA,145754.000,4709.3505,N,00138.3162,W,1,07,1.17,21.4,M,48.7,M,,*41

$GPGLL,4709.3505,N,00138.3162,W,145754.000,A,A*48

$GPGSA,A,3,10,07,18,21,27,08,16,,,,,,1.42,1.17,0.81*0D

$GPGSV,4,1,14,27,75,093,18,08,63,305,26,10,56,095,18,18,37,059,11*74

$GPGSV,4,2,14,16,35,177,17,33,34,198,,11,23,268,,21,14,066,13*72

$GPGSV,4,3,14,07,12,281,12,01,12,247,,30,10,315,,26,09,167,*7C

$GPGSV,4,4,14,15,04,029,,32,02,127,*70

$GPRMC,145754.000,A,4709.3505,N,00138.3162,W,0.40,169.42,180717,,,A*7B

$GPVTG,169.42,T,,M,0.40,N,0.74,K,A*32

$GPGGA,145755.000,4709.3504,N,00138.3162,W,1,07,1.17,21.3,M,48.7,M,,*46

$GPGLL,4709.3504,N,00138.3162,W,145755.000,A,A*48

$GPGSA,A,3,10,07,18,21,27,08,16,,,,,,1.42,1.17,0.81*0D

$GPGSV,4,1,14,27,75,093,18,08,63,305,26,10,56,095,18,18,37,059,11*74

$GPGSV,4,2,14,16,35,177,17,33,34,198,,11,23,268,,21,14,066,15*74

$GPGSV,4,3,14,07,12,281,12,01,12,247,,30,10,314,,26,09,167,*7D

$GPGSV,4,4,14,15,04,029,,32,02,127,*70

$GPRMC,145755.000,A,4709.3504,N,00138.3162,W,0.40,168.12,180717,,,A*7F

$GPVTG,168.12,T,,M,0.40,N,0.74,K,A*36

$GPGGA,145756.000,4709.3503,N,00138.3161,W,1,07,1.17,21.3,M,48.7,M,,*41

$GPGLL,4709.3503,N,00138.3161,W,145756.000,A,A*4F

$GPGSA,A,3,10,07,18,21,27,08,16,,,,,,1.42,1.17,0.81*0D

$GPGSV,4,1,14,27,75,093,18,08,63,305,26,10,56,095,18,18,37,059,11*74

$GPGSV,4,2,14,16,35,177,17,33,34,198,,11,23,268,,21,14,066,14*75

$GPGSV,4,3,14,07,12,281,13,01,12,247,,30,10,314,,26,09,167,*7C

$GPGSV,4,4,14,15,04,029,,32,02,127,*70

$GPRMC,145756.000,A,4709.3503,N,00138.3161,W,0.41,165.12,180717,,,A*74

$GPVTG,165.12,T,,M,0.41,N,0.77,K,A*39

$GPGGA,145757.000,4709.3502,N,00138.3161,W,1,07,1.17,21.3,M,48.7,M,,*41

$GPGLL,4709.3502,N,00138.3161,W,145757.000,A,A*4F

$GPGSA,A,3,10,07,18,21,27,08,16,,,,,,1.42,1.17,0.81*0D

$GPGSV,4,1,14,27,75,093,18,08,63,305,25,10,56,095,17,18,37,059,11*78

$GPGSV,4,2,14,16,35,177,17,33,34,198,,11,23,268,,21,14,066,14*75

$GPGSV,4,3,14,07,12,281,13,01,12,247,,30,10,314,,26,09,167,*7C

$GPGSV,4,4,14,15,04,029,,32,02,127,*70

$GPRMC,145757.000,A,4709.3502,N,00138.3161,W,0.47,162.46,180717,,,A*74

$GPVTG,162.46,T,,M,0.47,N,0.87,K,A*36

$GPGGA,145758.000,4709.3501,N,00138.3160,W,1,07,1.17,21.3,M,48.7,M,,*4C

$GPGLL,4709.3501,N,00138.3160,W,145758.000,A,A*42

$GPGSA,A,3,10,07,18,21,27,08,16,,,,,,1.42,1.17,0.81*0D

$GPGSV,4,1,14,27,75,093,19,08,63,305,25,10,56,095,17,18,37,059,12*7A

$GPGSV,4,2,14,16,35,177,17,33,34,198,,11,23,268,,21,14,066,13*72

$GPGSV,4,3,14,07,12,281,16,01,12,247,,30,10,314,,26,09,167,*79

$GPGSV,4,4,14,15,04,029,,32,02,127,*70

$GPRMC,145758.000,A,4709.3501,N,00138.3160,W,0.51,160.52,180717,,,A*79

$GPVTG,160.52,T,,M,0.51,N,0.94,K,A*34

$GPGGA,145759.000,4709.3500,N,00138.3160,W,1,07,1.17,21.3,M,48.7,M,,*4C

$GPGLL,4709.3500,N,00138.3160,W,145759.000,A,A*42

$GPGSA,A,3,10,07,18,21,27,08,16,,,,,,1.42,1.17,0.81*0D

$GPGSV,4,1,13,27,75,093,19,08,63,305,25,10,56,095,17,18,37,059,13*7C

$GPGSV,4,2,13,16,35,177,17,11,23,268,,21,14,066,12,07,12,281,14*79

$GPGSV,4,3,13,01,12,247,,30,10,314,,26,09,167,,15,04,029,*7D

$GPGSV,4,4,13,32,02,127,*4C

$GPRMC,145759.000,A,4709.3500,N,00138.3160,W,0.52,161.00,180717,,,A*7C

$GPVTG,161.00,T,,M,0.52,N,0.96,K,A*33

$GPGGA,145800.000,4709.3498,N,00138.3159,W,1,07,1.17,21.3,M,48.7,M,,*45

$GPGLL,4709.3498,N,00138.3159,W,145800.000,A,A*4B

$GPGSA,A,3,10,07,18,21,27,08,16,,,,,,1.42,1.17,0.81*0D

$GPGSV,4,1,13,27,75,093,19,08,63,305,24,10,56,095,17,18,37,059,13*7D

$GPGSV,4,2,13,16,35,177,17,11,23,268,,21,14,066,11,07,12,281,14*7A

$GPGSV,4,3,13,01,12,247,,30,10,314,,26,09,167,,15,04,029,*7D

$GPGSV,4,4,13,32,02,127,*4C

$GPRMC,145800.000,A,4709.3498,N,00138.3159,W,0.48,159.02,180717,,,A*77

$GPVTG,159.02,T,,M,0.48,N,0.90,K,A*37

$GPGGA,145801.000,4709.3497,N,00138.3158,W,1,07,1.17,21.3,M,48.7,M,,*4A

$GPGLL,4709.3497,N,00138.3158,W,145801.000,A,A*44

$GPGSA,A,3,10,07,18,21,27,08,16,,,,,,1.42,1.17,0.81*0D

$GPGSV,4,1,13,27,75,093,19,08,63,305,24,10,56,095,17,18,37,059,13*7D

$GPGSV,4,2,13,16,35,177,17,11,23,268,,21,14,066,13,07,12,281,12*7E

$GPGSV,4,3,13,01,12,248,,30,10,314,,26,09,167,,15,04,029,*72

$GPGSV,4,4,13,32,02,127,*4C

$GPRMC,145801.000,A,4709.3497,N,00138.3158,W,0.44,160.65,180717,,,A*7F

$GPVTG,160.65,T,,M,0.44,N,0.81,K,A*30

$GPGGA,145802.000,4709.3496,N,00138.3158,W,1,07,1.17,21.3,M,48.7,M,,*48

$GPGLL,4709.3496,N,00138.3158,W,145802.000,A,A*46

$GPGSA,A,3,10,07,18,21,27,08,16,,,,,,1.42,1.17,0.81*0D

$GPGSV,4,1,13,27,75,093,19,08,63,305,24,10,56,095,17,18,37,059,14*7A

$GPGSV,4,2,13,16,35,177,17,11,23,268,,21,14,066,13,07,12,281,14*78

$GPGSV,4,3,13,01,12,248,,30,10,314,,26,09,167,,15,04,029,*72

$GPGSV,4,4,13,32,02,127,*4C

$GPRMC,145802.000,A,4709.3496,N,00138.3158,W,0.43,153.61,180717,,,A*7E

$GPVTG,153.61,T,,M,0.43,N,0.80,K,A*32

$GPGGA,145803.000,4709.3495,N,00138.3157,W,1,07,1.17,21.3,M,48.7,M,,*45

$GPGLL,4709.3495,N,00138.3157,W,145803.000,A,A*4B

$GPGSA,A,3,10,07,18,21,27,08,16,,,,,,1.42,1.17,0.81*0D

$GPGSV,4,1,13,27,75,093,19,08,63,305,24,10,56,095,17,18,37,059,14*7A

$GPGSV,4,2,13,16,35,177,17,11,23,268,,21,14,066,14,07,12,281,12*79

$GPGSV,4,3,13,01,12,248,,30,10,314,,26,09,167,,15,04,029,*72

$GPGSV,4,4,13,32,02,127,*4C

$GPRMC,145803.000,A,4709.3495,N,00138.3157,W,0.44,150.56,180717,,,A*73

$GPVTG,150.56,T,,M,0.44,N,0.81,K,A*33

$GPGGA,145804.000,4709.3494,N,00138.3156,W,1,07,1.17,21.3,M,48.7,M,,*42

$GPGLL,4709.3494,N,00138.3156,W,145804.000,A,A*4C

$GPGSA,A,3,10,07,18,21,27,08,16,,,,,,1.42,1.17,0.81*0D

$GPGSV,4,1,13,27,75,093,19,08,63,305,24,10,56,095,16,18,37,059,14*7B

$GPGSV,4,2,13,16,35,177,17,11,23,268,,21,14,066,14,07,12,281,14*7F

$GPGSV,4,3,13,01,12,248,,30,10,314,,26,09,167,,15,04,029,*72

$GPGSV,4,4,13,32,02,127,*4C

$GPRMC,145804.000,A,4709.3494,N,00138.3156,W,0.43,146.48,180717,,,A*7B

$GPVTG,146.48,T,,M,0.43,N,0.80,K,A*3D

$GPGGA,145805.000,4709.3493,N,00138.3155,W,1,07,1.17,21.3,M,48.7,M,,*47

$GPGLL,4709.3493,N,00138.3155,W,145805.000,A,A*49

$GPGSA,A,3,10,07,18,21,27,08,16,,,,,,1.42,1.17,0.81*0D

$GPGSV,4,1,13,27,75,093,19,08,63,305,24,10,56,095,16,18,37,059,14*7B

$GPGSV,4,2,13,16,35,177,17,11,23,268,,21,14,066,13,07,12,281,14*78

$GPGSV,4,3,13,01,12,248,,30,10,314,,26,09,167,,15,04,029,*72

$GPGSV,4,4,13,32,02,127,*4C

$GPRMC,145805.000,A,4709.3493,N,00138.3155,W,0.41,145.95,180717,,,A*7F

$GPVTG,145.95,T,,M,0.41,N,0.76,K,A*35

$GPGGA,145806.000,4709.3492,N,00138.3154,W,1,07,1.17,21.3,M,48.7,M,,*44

$GPGLL,4709.3492,N,00138.3154,W,145806.000,A,A*4A

$GPGSA,A,3,10,07,18,21,27,08,16,,,,,,1.42,1.17,0.81*0D

$GPGSV,4,1,13,27,75,093,19,08,63,305,23,10,56,095,16,18,37,059,14*7C

$GPGSV,4,2,13,16,35,177,17,11,23,268,,21,14,066,14,07,12,281,13*78

$GPGSV,4,3,13,01,12,248,,30,10,314,,26,09,167,,15,04,029,*72

$GPGSV,4,4,13,32,02,127,*4C

$GPRMC,145806.000,A,4709.3492,N,00138.3154,W,0.39,150.24,180717,,,A*7D

$GPVTG,150.24,T,,M,0.39,N,0.73,K,A*31

$GPGGA,145807.000,4709.3491,N,00138.3153,W,1,07,1.17,21.3,M,48.7,M,,*41

$GPGLL,4709.3491,N,00138.3153,W,145807.000,A,A*4F

$GPGSA,A,3,10,07,18,21,27,08,16,,,,,,1.42,1.17,0.81*0D

$GPGSV,4,1,13,27,75,093,19,08,63,305,23,10,56,095,16,18,37,059,15*7D

$GPGSV,4,2,13,16,35,177,17,11,23,268,,21,14,066,11,07,12,281,14*7A

$GPGSV,4,3,13,01,12,248,,30,10,314,,26,09,167,,15,04,029,*72

$GPGSV,4,4,13,32,02,127,*4C

$GPRMC,145807.000,A,4709.3491,N,00138.3153,W,0.39,153.59,180717,,,A*71

$GPVTG,153.59,T,,M,0.39,N,0.73,K,A*38

$GPGGA,145808.000,4709.3490,N,00138.3152,W,1,07,1.17,21.3,M,48.7,M,,*4E

$GPGLL,4709.3490,N,00138.3152,W,145808.000,A,A*40

$GPGSA,A,3,10,07,18,21,27,08,16,,,,,,1.42,1.17,0.81*0D

$GPGSV,4,1,13,27,75,093,19,08,63,305,23,10,56,095,16,18,37,059,15*7D

$GPGSV,4,2,13,16,35,177,17,11,23,268,,21,14,066,14,07,12,281,14*7F

$GPGSV,4,3,13,01,12,248,,30,10,314,,26,09,167,,15,04,029,*72

$GPGSV,4,4,13,32,02,127,*4C

$GPRMC,145808.000,A,4709.3490,N,00138.3152,W,0.40,148.79,180717,,,A*78

$GPVTG,148.79,T,,M,0.40,N,0.73,K,A*3E

$GPGGA,145809.000,4709.3489,N,00138.3151,W,1,07,1.17,21.3,M,48.7,M,,*44

$GPGLL,4709.3489,N,00138.3151,W,145809.000,A,A*4A

$GPGSA,A,3,10,07,18,21,27,08,16,,,,,,1.42,1.17,0.81*0D

$GPGSV,4,1,13,27,75,093,19,08,63,305,23,10,56,095,16,18,37,059,16*7E

$GPGSV,4,2,13,16,35,177,17,11,23,268,,21,14,066,13,07,12,281,15*79

$GPGSV,4,3,13,01,12,248,,30,10,314,,26,09,167,,15,04,029,*72

$GPGSV,4,4,13,32,02,127,*4C

$GPRMC,145809.000,A,4709.3489,N,00138.3151,W,0.26,135.38,180717,,,A*7D

$GPVTG,135.38,T,,M,0.26,N,0.48,K,A*39

$GPGGA,145810.000,4709.3489,N,00138.3151,W,1,07,1.17,21.3,M,48.7,M,,*4C

$GPGLL,4709.3489,N,00138.3151,W,145810.000,A,A*42

$GPGSA,A,3,10,07,18,21,27,08,16,,,,,,1.42,1.17,0.81*0D

$GPGSV,4,1,13,27,75,093,19,08,63,305,24,10,56,095,16,18,37,059,16*79

$GPGSV,4,2,13,16,35,177,17,11,23,268,,21,14,066,15,07,12,281,14*7E

$GPGSV,4,3,13,01,12,248,,30,10,314,,26,09,167,,15,04,029,*72

$GPGSV,4,4,13,32,02,127,*4C

$GPRMC,145810.000,A,4709.3489,N,00138.3151,W,0.19,105.36,180717,,,A*74

$GPVTG,105.36,T,,M,0.19,N,0.36,K,A*31

$GPGGA,145811.000,4709.3489,N,00138.3150,W,1,07,1.17,21.3,M,48.7,M,,*4C

$GPGLL,4709.3489,N,00138.3150,W,145811.000,A,A*42

$GPGSA,A,3,10,07,18,21,27,08,16,,,,,,1.42,1.17,0.81*0D

$GPGSV,4,1,13,27,75,093,19,08,63,305,24,10,56,095,15,18,37,059,16*7A

$GPGSV,4,2,13,16,35,177,17,11,24,268,,21,14,066,14,07,12,281,14*78

$GPGSV,4,3,13,01,12,248,,30,10,314,,26,09,167,,15,04,029,*72

$GPGSV,4,4,13,32,02,127,*4C

$GPRMC,145811.000,A,4709.3489,N,00138.3150,W,0.18,64.48,180717,,,A*4A

$GPVTG,64.48,T,,M,0.18,N,0.34,K,A*0D

$GPGGA,145812.000,4709.3489,N,00138.3149,W,1,07,1.17,21.3,M,48.7,M,,*47

$GPGLL,4709.3489,N,00138.3149,W,145812.000,A,A*49

$GPGSA,A,3,10,07,18,21,27,08,16,,,,,,1.42,1.17,0.81*0D

$GPGSV,4,1,13,27,75,093,19,08,63,305,24,10,56,095,15,18,37,059,16*7A

$GPGSV,4,2,13,16,35,177,17,11,24,268,,21,14,066,15,07,12,281,14*79

$GPGSV,4,3,13,01,12,248,,30,10,314,,26,09,167,,15,04,029,*72

$GPGSV,4,4,13,32,02,127,*4C

$GPRMC,145812.000,A,4709.3489,N,00138.3149,W,0.23,43.57,180717,,,A*42

$GPVTG,43.57,T,,M,0.23,N,0.42,K,A*0F

$GPGGA,145813.000,4709.3490,N,00138.3148,W,1,07,1.17,21.3,M,48.7,M,,*4F

$GPGLL,4709.3490,N,00138.3148,W,145813.000,A,A*41

$GPGSA,A,3,10,07,18,21,27,08,16,,,,,,1.42,1.17,0.81*0D

$GPGSV,4,1,13,27,75,093,19,08,63,305,24,10,56,095,15,18,37,059,16*7A

$GPGSV,4,2,13,16,35,177,17,11,24,268,,21,14,066,12,07,12,281,16*7C

$GPGSV,4,3,13,01,12,248,,30,10,314,,26,09,167,,15,04,029,*72

$GPGSV,4,4,13,32,02,127,*4C

$GPRMC,145813.000,A,4709.3490,N,00138.3148,W,0.31,40.41,180717,,,A*4D

$GPVTG,40.41,T,,M,0.31,N,0.58,K,A*03

$GPGGA,145814.000,4709.3491,N,00138.3147,W,1,07,1.17,21.3,M,48.7,M,,*46

$GPGLL,4709.3491,N,00138.3147,W,145814.000,A,A*48

$GPGSA,A,3,10,07,18,21,27,08,16,,,,,,1.42,1.17,0.81*0D

$GPGSV,4,1,13,27,75,093,19,08,63,305,24,10,56,095,15,18,37,059,16*7A

$GPGSV,4,2,13,16,35,177,17,11,24,268,,21,14,066,11,07,12,281,13*7A

$GPGSV,4,3,13,01,12,248,,30,10,314,,26,09,167,,15,04,029,*72

$GPGSV,4,4,13,32,02,127,*4C

$GPRMC,145814.000,A,4709.3491,N,00138.3147,W,0.40,40.24,180717,,,A*41

$GPVTG,40.24,T,,M,0.40,N,0.74,K,A*08

$GPGGA,145815.000,4709.3492,N,00138.3146,W,1,07,1.17,21.3,M,48.7,M,,*45

$GPGLL,4709.3492,N,00138.3146,W,145815.000,A,A*4B

$GPGSA,A,3,10,07,18,21,27,08,16,,,,,,1.42,1.17,0.81*0D

$GPGSV,4,1,13,27,75,093,19,08,63,305,23,10,56,095,15,18,37,059,15*7E

$GPGSV,4,2,13,16,35,177,17,11,24,268,,21,14,066,11,07,12,281,16*7F

$GPGSV,4,3,13,01,12,248,,30,10,314,,26,09,167,,15,04,029,*72

$GPGSV,4,4,13,32,02,127,*4C

$GPRMC,145815.000,A,4709.3492,N,00138.3146,W,0.50,29.46,180717,,,A*48

$GPVTG,29.46,T,,M,0.50,N,0.93,K,A*0B

$GPGGA,145816.000,4709.3493,N,00138.3145,W,1,07,1.17,21.3,M,48.7,M,,*44

$GPGLL,4709.3493,N,00138.3145,W,145816.000,A,A*4A

$GPGSA,A,3,10,07,18,21,27,08,16,,,,,,1.42,1.17,0.81*0D

$GPGSV,4,1,13,27,75,093,18,08,63,305,22,10,56,095,15,18,37,059,16*7D

$GPGSV,4,2,13,16,35,177,17,11,24,268,,21,14,066,11,07,12,281,14*7D

$GPGSV,4,3,13,01,12,248,,30,10,314,,26,09,167,,15,04,029,*72

$GPGSV,4,4,13,32,02,127,*4C

$GPRMC,145816.000,A,4709.3493,N,00138.3145,W,0.60,21.27,180717,,,A*45

$GPVTG,21.27,T,,M,0.60,N,1.12,K,A*0F

$GPGGA,145817.000,4709.3506,N,00138.3139,W,1,07,1.17,21.2,M,48.7,M,,*42

$GPGLL,4709.3506,N,00138.3139,W,145817.000,A,A*4D

$GPGSA,A,3,10,07,18,21,27,08,16,,,,,,1.42,1.17,0.81*0D

$GPGSV,4,1,13,27,75,093,17,08,63,305,20,10,56,095,14,18,37,059,16*71

$GPGSV,4,2,13,16,35,177,17,11,24,268,,21,14,066,11,07,12,281,14*7D

$GPGSV,4,3,13,01,12,248,,30,10,314,,26,09,167,,15,04,029,*72

$GPGSV,4,4,13,32,02,127,*4C

$GPRMC,145817.000,A,4709.3506,N,00138.3139,W,0.75,20.19,180717,,,A*4A

$GPVTG,20.19,T,,M,0.75,N,1.38,K,A*0F

$GPGGA,145818.000,4709.3517,N,00138.3132,W,1,07,1.17,21.1,M,48.7,M,,*45

$GPGLL,4709.3517,N,00138.3132,W,145818.000,A,A*49

$GPGSA,A,3,10,07,18,21,27,08,16,,,,,,1.42,1.17,0.81*0D

$GPGSV,4,1,13,27,75,093,16,08,63,305,19,10,56,095,14,18,37,059,16*7A

$GPGSV,4,2,13,16,35,177,17,11,24,268,,21,14,066,14,07,12,281,15*79

$GPGSV,4,3,13,01,12,248,,30,10,314,,26,09,167,,15,04,029,*72

$GPGSV,4,4,13,32,02,127,*4C

$GPRMC,145818.000,A,4709.3517,N,00138.3132,W,0.84,21.44,180717,,,A*49

$GPVTG,21.44,T,,M,0.84,N,1.56,K,A*00

$GPGGA,145819.000,4709.3530,N,00138.3126,W,1,07,1.17,21.1,M,48.7,M,,*44

$GPGLL,4709.3530,N,00138.3126,W,145819.000,A,A*48

$GPGSA,A,3,10,07,18,21,27,08,16,,,,,,1.42,1.17,0.81*0D

$GPGSV,4,1,13,27,75,093,16,08,63,305,19,10,56,095,14,18,37,059,16*7A

$GPGSV,4,2,13,16,35,177,17,11,24,268,,21,14,066,12,07,12,281,16*7C

$GPGSV,4,3,13,01,12,248,,30,10,314,,26,09,167,,15,04,029,*72

$GPGSV,4,4,13,32,02,127,*4C

$GPRMC,145819.000,A,4709.3530,N,00138.3126,W,0.96,19.99,180717,,,A*40

$GPVTG,19.99,T,,M,0.96,N,1.79,K,A*05

$GPGGA,145820.000,4709.3538,N,00138.3130,W,1,07,1.17,21.1,M,48.7,M,,*41

$GPGLL,4709.3538,N,00138.3130,W,145820.000,A,A*4D

$GPGSA,A,3,10,07,18,21,27,08,16,,,,,,1.42,1.17,0.81*0D

$GPGSV,4,1,13,27,75,093,16,08,63,305,20,10,56,095,17,18,37,059,15*70

$GPGSV,4,2,13,16,35,177,17,11,24,268,,21,14,066,13,07,12,281,13*78

$GPGSV,4,3,13,01,12,248,,30,10,314,,26,09,167,,15,04,029,*72

$GPGSV,4,4,13,32,02,127,*4C

$GPRMC,145820.000,A,4709.3538,N,00138.3130,W,1.00,13.55,180717,,,A*41

$GPVTG,13.55,T,,M,1.00,N,1.85,K,A*02

$GPGGA,145821.000,4709.3545,N,00138.3138,W,1,07,1.18,21.1,M,48.7,M,,*4D

$GPGLL,4709.3545,N,00138.3138,W,145821.000,A,A*4E

$GPGSA,A,3,10,07,18,21,27,08,16,,,,,,1.81,1.18,1.37*01

$GPGSV,4,1,13,27,75,093,16,08,63,305,21,10,56,095,16,18,37,059,14*71

$GPGSV,4,2,13,16,35,177,17,11,24,268,,21,13,067,13,07,12,281,13*7E

$GPGSV,4,3,13,01,12,248,,30,10,314,,26,09,167,,15,04,029,*72

$GPGSV,4,4,13,32,02,127,*4C

$GPRMC,145821.000,A,4709.3545,N,00138.3138,W,1.02,8.33,180717,,,A*7A

$GPVTG,8.33,T,,M,1.02,N,1.89,K,A*36

$GPGGA,145822.000,4709.3551,N,00138.3147,W,1,07,1.18,21.0,M,48.7,M,,*42

$GPGLL,4709.3551,N,00138.3147,W,145822.000,A,A*40

$GPGSA,A,3,10,07,18,21,27,08,16,,,,,,1.81,1.18,1.37*01

$GPGSV,4,1,13,27,75,093,16,08,63,305,21,10,56,095,13,18,37,059,16*76

$GPGSV,4,2,13,16,35,177,17,11,24,268,,21,13,067,12,07,12,281,13*7F

$GPGSV,4,3,13,01,12,248,,30,10,314,,26,09,167,,15,04,029,*72

$GPGSV,4,4,13,32,02,127,*4C

$GPRMC,145822.000,A,4709.3551,N,00138.3147,W,1.05,3.31,180717,,,A*7A

$GPVTG,3.31,T,,M,1.05,N,1.94,K,A*34

$GPGGA,145823.000,4709.3557,N,00138.3152,W,1,07,1.18,21.0,M,48.7,M,,*41

$GPGLL,4709.3557,N,00138.3152,W,145823.000,A,A*43

$GPGSA,A,3,10,07,18,21,27,08,16,,,,,,1.81,1.18,1.37*01

$GPGSV,4,1,13,27,75,093,16,08,63,305,21,10,56,095,12,18,37,059,14*75

$GPGSV,4,2,13,16,35,177,17,11,24,268,,21,13,067,12,07,12,281,12*7E

$GPGSV,4,3,13,01,12,248,,30,10,314,,26,09,167,,15,04,029,*72

$GPGSV,4,4,13,32,02,127,*4C

$GPRMC,145823.000,A,4709.3557,N,00138.3152,W,1.06,2.52,180717,,,A*7E

$GPVTG,2.52,T,,M,1.06,N,1.96,K,A*31

$GPGGA,145824.000,4709.3562,N,00138.3156,W,1,07,1.18,21.0,M,48.7,M,,*44

$GPGLL,4709.3562,N,00138.3156,W,145824.000,A,A*46

$GPGSA,A,3,10,07,18,21,27,08,16,,,,,,1.81,1.18,1.37*01

$GPGSV,4,1,13,27,75,093,16,08,63,305,21,10,56,095,13,18,37,059,15*75

$GPGSV,4,2,13,16,35,177,17,11,24,268,,21,13,067,13,07,12,281,14*79

$GPGSV,4,3,13,01,12,248,,30,10,314,,26,09,167,,15,04,029,*72

$GPGSV,4,4,13,32,02,127,*4C

$GPRMC,145824.000,A,4709.3562,N,00138.3156,W,1.06,1.38,180717,,,A*74

$GPVTG,1.38,T,,M,1.06,N,1.97,K,A*3F

$GPGGA,145825.000,4709.3568,N,00138.3160,W,1,07,1.18,21.0,M,48.7,M,,*4A

$GPGLL,4709.3568,N,00138.3160,W,145825.000,A,A*48

$GPGSA,A,3,10,07,18,21,27,08,16,,,,,,1.81,1.18,1.37*01

$GPGSV,4,1,13,27,75,093,16,08,63,305,21,10,56,095,13,18,37,059,10*70

$GPGSV,4,2,13,16,35,177,17,11,24,268,,21,13,067,10,07,12,281,14*7A

$GPGSV,4,3,13,01,12,248,,30,10,314,,26,09,167,,15,04,029,*72

$GPGSV,4,4,13,32,02,127,*4C

$GPRMC,145825.000,A,4709.3568,N,00138.3160,W,1.09,359.62,180717,,,A*74

$GPVTG,359.62,T,,M,1.09,N,2.01,K,A*3D

$GPGGA,145826.000,4709.3573,N,00138.3165,W,1,06,1.35,21.0,M,48.7,M,,*48

$GPGLL,4709.3573,N,00138.3165,W,145826.000,A,A*44

$GPGSA,A,3,10,07,18,27,08,16,,,,,,,2.35,1.35,1.92*0E

$GPGSV,4,1,13,27,75,093,16,08,63,305,20,10,56,095,12,18,37,059,13*73

$GPGSV,4,2,13,16,35,177,16,11,24,268,,21,13,067,,07,12,281,11*7F

$GPGSV,4,3,13,01,12,248,,30,10,314,,26,09,167,,15,04,029,*72

$GPGSV,4,4,13,32,02,127,*4C

$GPRMC,145826.000,A,4709.3573,N,00138.3165,W,1.12,357.29,180717,,,A*73

$GPVTG,357.29,T,,M,1.12,N,2.07,K,A*30

$GPGGA,145827.000,4709.3578,N,00138.3168,W,1,06,1.35,21.0,M,48.7,M,,*4F

$GPGLL,4709.3578,N,00138.3168,W,145827.000,A,A*43

$GPGSA,A,3,10,07,18,27,08,16,,,,,,,2.35,1.35,1.92*0E

$GPGSV,4,1,13,27,75,093,16,08,63,305,20,10,56,095,14,18,37,059,13*75

$GPGSV,4,2,13,16,35,177,16,11,24,268,,21,13,067,,07,12,281,14*7A

$GPGSV,4,3,13,01,12,248,,30,10,314,,26,09,167,,15,04,029,*72

$GPGSV,4,4,13,32,02,127,*4C

$GPRMC,145827.000,A,4709.3578,N,00138.3168,W,1.17,355.40,180717,,,A*7C

$GPVTG,355.40,T,,M,1.17,N,2.18,K,A*36

$GPGGA,145828.000,4709.3584,N,00138.3171,W,1,06,1.35,20.9,M,48.7,M,,*43

$GPGLL,4709.3584,N,00138.3171,W,145828.000,A,A*47

$GPGSA,A,3,10,07,18,27,08,16,,,,,,,2.35,1.35,1.92*0E

$GPGSV,4,1,13,27,75,093,14,08,63,305,20,10,56,095,13,18,37,059,11*72

$GPGSV,4,2,13,16,35,177,16,11,24,268,,21,13,067,,07,12,281,14*7A

$GPGSV,4,3,13,01,12,248,,30,10,314,,26,09,167,,15,04,029,*72

$GPGSV,4,4,13,32,02,127,*4C

$GPRMC,145828.000,A,4709.3584,N,00138.3171,W,1.22,353.61,180717,,,A*7B

$GPVTG,353.61,T,,M,1.22,N,2.26,K,A*38

$GPGGA,145829.000,4709.3586,N,00138.3175,W,1,06,1.35,20.9,M,48.7,M,,*44

$GPGLL,4709.3586,N,00138.3175,W,145829.000,A,A*40

$GPGSA,A,3,10,07,18,27,08,16,,,,,,,2.35,1.35,1.92*0E

$GPGSV,4,1,13,27,75,093,14,08,63,305,19,10,56,095,09,18,37,059,12*70

$GPGSV,4,2,13,16,35,177,16,11,24,268,,21,13,067,,07,12,281,13*7D

$GPGSV,4,3,13,01,12,248,,30,10,314,,26,09,167,,15,04,029,*72

$GPGSV,4,4,13,32,02,127,*4C

$GPRMC,145829.000,A,4709.3586,N,00138.3175,W,1.18,352.19,180717,,,A*7B

$GPVTG,352.19,T,,M,1.18,N,2.19,K,A*33

$GPGGA,145830.000,4709.3590,N,00138.3172,W,1,06,1.35,20.9,M,48.7,M,,*4C

$GPGLL,4709.3590,N,00138.3172,W,145830.000,A,A*48

$GPGSA,A,3,10,07,18,27,08,16,,,,,,,2.35,1.35,1.92*0E

$GPGSV,4,1,13,27,75,093,11,08,63,305,18,10,56,095,10,18,37,059,12*7C

$GPGSV,4,2,13,16,35,177,15,11,24,268,,21,13,067,,07,12,281,13*7E

$GPGSV,4,3,13,01,12,248,,30,10,314,,26,09,167,,15,04,029,*72

$GPGSV,4,4,13,32,02,127,*4C

$GPRMC,145830.000,A,4709.3590,N,00138.3172,W,1.17,355.28,180717,,,A*79

$GPVTG,355.28,T,,M,1.17,N,2.16,K,A*36

$GPGGA,145831.000,4709.3597,N,00138.3158,W,1,06,1.35,20.8,M,48.7,M,,*43

$GPGLL,4709.3597,N,00138.3158,W,145831.000,A,A*46

$GPGSA,A,3,10,07,18,27,08,16,,,,,,,2.35,1.35,1.92*0E

$GPGSV,4,1,13,27,75,093,13,08,63,305,17,10,56,095,12,18,37,059,12*73

$GPGSV,4,2,13,16,35,177,15,11,24,268,,21,13,067,,07,12,281,12*7F

$GPGSV,4,3,13,01,12,248,,30,10,314,,26,09,167,,15,04,029,*72

$GPGSV,4,4,13,32,02,127,*4C

$GPRMC,145831.000,A,4709.3597,N,00138.3158,W,1.21,3.54,180717,,,A*79

$GPVTG,3.54,T,,M,1.21,N,2.24,K,A*39

$GPGGA,145832.000,4709.3607,N,00138.3142,W,1,06,1.35,20.8,M,48.7,M,,*41

$GPGLL,4709.3607,N,00138.3142,W,145832.000,A,A*44

$GPGSA,A,3,10,07,18,27,08,16,,,,,,,2.35,1.35,1.92*0E

$GPGSV,4,1,13,27,75,093,14,08,63,305,17,10,56,095,11,18,37,059,13*76

$GPGSV,4,2,13,16,35,177,11,11,24,268,,21,13,067,,07,12,281,14*7D

$GPGSV,4,3,13,01,12,248,,30,10,314,,26,09,167,,15,04,029,*72

$GPGSV,4,4,13,32,02,127,*4C

$GPRMC,145832.000,A,4709.3607,N,00138.3142,W,1.29,10.65,180717,,,A*43

$GPVTG,10.65,T,,M,1.29,N,2.39,K,A*0D

$GPGGA,145833.000,4709.3616,N,00138.3129,W,1,06,1.35,20.7,M,48.7,M,,*42

$GPGLL,4709.3616,N,00138.3129,W,145833.000,A,A*48

$GPGSA,A,3,10,07,18,27,08,16,,,,,,,2.35,1.35,1.92*0E

$GPGSV,4,1,13,27,75,093,14,08,63,305,17,10,56,095,09,18,37,059,14*78

$GPGSV,4,2,13,16,35,177,11,11,24,268,,21,13,067,,07,12,281,12*7B

$GPGSV,4,3,13,01,12,248,,30,10,314,,26,09,167,,15,04,029,*72

$GPGSV,4,4,13,32,02,127,*4C

$GPRMC,145833.000,A,4709.3616,N,00138.3129,W,1.37,15.38,180717,,,A*4D

$GPVTG,15.38,T,,M,1.37,N,2.53,K,A*03

$GPGGA,145834.000,4709.3623,N,00138.3116,W,1,06,1.28,20.6,M,48.7,M,,*42

$GPGLL,4709.3623,N,00138.3116,W,145834.000,A,A*45

$GPGSA,A,3,10,07,18,27,08,16,,,,,,,1.56,1.28,0.89*0F

$GPGSV,4,1,13,27,75,093,14,08,63,305,17,10,56,095,08,18,37,059,15*78

$GPGSV,4,2,13,16,35,177,12,11,24,268,,21,13,067,,07,12,281,13*79

$GPGSV,4,3,13,01,12,248,,30,10,314,,26,09,167,,15,04,029,*72

$GPGSV,4,4,13,32,02,127,*4C

$GPRMC,145834.000,A,4709.3623,N,00138.3116,W,1.42,19.73,180717,,,A*41

$GPVTG,19.73,T,,M,1.42,N,2.64,K,A*06

$GPGGA,145835.000,4709.3632,N,00138.3101,W,1,06,1.28,20.5,M,48.7,M,,*46

$GPGLL,4709.3632,N,00138.3101,W,145835.000,A,A*42

$GPGSA,A,3,10,07,18,27,08,16,,,,,,,1.56,1.28,0.89*0F

$GPGSV,4,1,13,27,75,093,14,08,63,305,18,10,56,095,07,18,37,059,16*7B

$GPGSV,4,2,13,16,35,177,13,11,24,268,,21,13,067,,07,12,281,11*7A

$GPGSV,4,3,13,01,12,248,,30,10,314,,26,09,167,,15,04,029,*72

$GPGSV,4,4,13,32,02,127,*4C

$GPRMC,145835.000,A,4709.3632,N,00138.3101,W,1.51,23.13,180717,,,A*4B

$GPVTG,23.13,T,,M,1.51,N,2.80,K,A*01

$GPGGA,145836.000,4709.3640,N,00138.3094,W,1,06,1.28,20.4,M,48.7,M,,*4C

$GPGLL,4709.3640,N,00138.3094,W,145836.000,A,A*49

$GPGSA,A,3,10,07,18,27,08,16,,,,,,,1.56,1.28,0.89*0F

$GPGSV,4,1,13,27,75,093,14,08,63,305,18,10,56,095,07,18,37,059,16*7B

$GPGSV,4,2,13,16,35,177,14,11,24,268,,21,13,067,,07,12,281,12*7E

$GPGSV,4,3,13,01,12,248,,30,10,314,,26,09,167,,15,04,029,*72

$GPGSV,4,4,13,32,02,127,*4C

$GPRMC,145836.000,A,4709.3640,N,00138.3094,W,1.57,23.25,180717,,,A*43

$GPVTG,23.25,T,,M,1.57,N,2.92,K,A*01

$GPGGA,145837.000,4709.3641,N,00138.3086,W,1,06,1.28,20.3,M,48.7,M,,*48

$GPGLL,4709.3641,N,00138.3086,W,145837.000,A,A*4A

$GPGSA,A,3,10,07,18,27,08,16,,,,,,,1.56,1.28,0.89*0F

$GPGSV,4,1,13,27,75,093,14,08,63,305,18,10,56,095,07,18,37,059,16*7B

$GPGSV,4,2,13,16,35,177,14,11,24,268,,21,13,067,,07,12,281,13*7F

$GPGSV,4,3,13,01,12,248,,30,10,314,,26,09,167,,15,04,029,*72

$GPGSV,4,4,13,32,02,127,*4C

$GPRMC,145837.000,A,4709.3641,N,00138.3086,W,1.52,26.63,180717,,,A*42

$GPVTG,26.63,T,,M,1.52,N,2.82,K,A*02

$GPGGA,145838.000,4709.3642,N,00138.3079,W,1,06,1.28,20.2,M,48.7,M,,*45

$GPGLL,4709.3642,N,00138.3079,W,145838.000,A,A*46

$GPGSA,A,3,10,07,18,27,08,16,,,,,,,1.56,1.28,0.89*0F

$GPGSV,4,1,13,27,75,093,14,08,63,305,18,10,56,095,08,18,37,059,16*74

$GPGSV,4,2,13,16,35,177,14,11,24,268,,21,13,067,,07,12,281,12*7E

$GPGSV,4,3,13,01,12,248,,30,10,314,,26,09,167,,15,04,029,*72

$GPGSV,4,4,13,32,02,127,*4C

$GPRMC,145838.000,A,4709.3642,N,00138.3079,W,1.47,29.67,180717,,,A*41

$GPVTG,29.67,T,,M,1.47,N,2.73,K,A*03

$GPGGA,145839.000,4709.3645,N,00138.3073,W,1,06,1.28,20.1,M,48.7,M,,*4A

$GPGLL,4709.3645,N,00138.3073,W,145839.000,A,A*4A

$GPGSA,A,3,10,07,18,27,08,16,,,,,,,1.56,1.28,0.89*0F

$GPGSV,4,1,13,27,75,093,14,08,63,305,18,10,56,095,08,18,37,059,16*74

$GPGSV,4,2,13,16,35,177,14,11,24,268,,21,13,067,,07,12,281,14*78

$GPGSV,4,3,13,01,12,248,,30,10,314,,26,09,167,,15,04,029,*72

$GPGSV,4,4,13,32,02,127,*4C

$GPRMC,145839.000,A,4709.3645,N,00138.3073,W,1.46,32.06,180717,,,A*41

$GPVTG,32.06,T,,M,1.46,N,2.70,K,A*0C

$GPGGA,145840.000,4709.3645,N,00138.3065,W,1,06,1.28,20.0,M,48.7,M,,*42

$GPGLL,4709.3645,N,00138.3065,W,145840.000,A,A*43

$GPGSA,A,3,10,07,18,27,08,16,,,,,,,1.56,1.28,0.89*0F

$GPGSV,4,1,13,27,75,093,15,08,63,305,18,10,56,095,09,18,37,059,16*74

$GPGSV,4,2,13,16,35,177,14,11,24,268,,21,13,067,,07,12,281,13*7F

$GPGSV,4,3,13,01,12,248,,30,10,314,,26,09,167,,15,04,029,*72

$GPGSV,4,4,13,32,02,127,*4C

$GPRMC,145840.000,A,4709.3645,N,00138.3065,W,1.45,35.35,180717,,,A*4C

$GPVTG,35.35,T,,M,1.45,N,2.69,K,A*00

$GPGGA,145841.000,4709.3644,N,00138.3060,W,1,06,1.28,19.8,M,48.7,M,,*45

$GPGLL,4709.3644,N,00138.3060,W,145841.000,A,A*46

$GPGSA,A,3,10,07,18,27,08,16,,,,,,,1.56,1.28,0.89*0F

$GPGSV,4,1,13,27,75,093,16,08,63,305,18,10,56,095,10,18,37,059,17*7E

$GPGSV,4,2,13,16,35,177,15,11,24,268,,21,13,067,,07,12,281,15*78

$GPGSV,4,3,13,01,12,248,,30,10,314,,26,09,167,,15,04,029,*72

$GPGSV,4,4,13,32,02,127,*4C

$GPRMC,145841.000,A,4709.3644,N,00138.3060,W,1.41,38.65,180717,,,A*45

$GPVTG,38.65,T,,M,1.41,N,2.61,K,A*04

$GPGGA,145842.000,4709.3647,N,00138.3051,W,1,06,1.28,19.6,M,48.7,M,,*49

$GPGLL,4709.3647,N,00138.3051,W,145842.000,A,A*44

$GPGSA,A,3,10,07,18,27,08,16,,,,,,,1.56,1.28,0.89*0F

$GPGSV,4,1,13,27,75,093,16,08,63,305,18,10,56,095,11,18,37,059,17*7F

$GPGSV,4,2,13,16,35,177,16,11,24,268,,21,13,067,,07,12,281,15*7B

$GPGSV,4,3,13,01,12,248,,30,10,314,,26,09,167,,15,04,029,*72

$GPGSV,4,4,13,32,02,127,*4C

$GPRMC,145842.000,A,4709.3647,N,00138.3051,W,1.45,40.52,180717,,,A*48

$GPVTG,40.52,T,,M,1.45,N,2.68,K,A*02

$GPGGA,145843.000,4709.3648,N,00138.3043,W,1,06,1.28,19.5,M,48.7,M,,*47

$GPGLL,4709.3648,N,00138.3043,W,145843.000,A,A*49

$GPGSA,A,3,10,07,18,27,08,16,,,,,,,1.56,1.28,0.89*0F

$GPGSV,4,1,13,27,75,093,15,08,64,305,18,10,56,095,11,18,37,059,17*7B

$GPGSV,4,2,13,16,35,177,16,11,24,268,,21,13,067,,07,12,281,13*7D

$GPGSV,4,3,13,01,12,248,,30,10,314,,26,09,167,,15,04,029,*72

$GPGSV,4,4,13,32,02,127,*4C

$GPRMC,145843.000,A,4709.3648,N,00138.3043,W,1.44,43.65,180717,,,A*43

$GPVTG,43.65,T,,M,1.44,N,2.67,K,A*0B

$GPGGA,145844.000,4709.3648,N,00138.3035,W,1,06,1.28,19.4,M,48.7,M,,*40

$GPGLL,4709.3648,N,00138.3035,W,145844.000,A,A*4F

$GPGSA,A,3,10,07,18,27,08,16,,,,,,,1.55,1.28,0.89*0C

$GPGSV,4,1,13,27,75,093,15,08,64,305,18,10,56,095,11,18,37,059,17*7B

$GPGSV,4,2,13,16,35,177,16,11,24,268,,21,13,067,,07,12,281,13*7D

$GPGSV,4,3,13,01,12,248,,30,10,314,,26,09,167,,15,04,029,*72

$GPGSV,4,4,13,32,02,127,*4C

$GPRMC,145844.000,A,4709.3648,N,00138.3035,W,1.44,47.16,180717,,,A*45

$GPVTG,47.16,T,,M,1.44,N,2.68,K,A*04

$GPGGA,145845.000,4709.3650,N,00138.3044,W,1,06,1.28,18.9,M,48.7,M,,*42

$GPGLL,4709.3650,N,00138.3044,W,145845.000,A,A*41

$GPGSA,A,3,10,07,18,27,08,16,,,,,,,1.56,1.28,0.89*0F

$GPGSV,4,1,13,27,75,093,15,08,64,305,18,10,56,094,11,18,37,059,17*7A

$GPGSV,4,2,13,16,35,177,16,11,24,268,,21,13,067,,07,12,281,13*7D

$GPGSV,4,3,13,01,12,248,,30,10,314,,26,09,167,,15,04,029,*72

$GPGSV,4,4,13,32,02,127,*4C

$GPRMC,145845.000,A,4709.3650,N,00138.3044,W,1.33,45.48,180717,,,A*42

$GPVTG,45.48,T,,M,1.33,N,2.47,K,A*