$GPGGA,140756.000,4709.3873,N,00138.2599,W,1,08,1.06,22.3,M,48.7,M,,*40

$GPGLL,4709.3873,N,00138.2599,W,140756.000,A,A*42

$GPGSA,A,3,07,10,26,18,21,27,08,16,,,,,1.38,1.06,0.88*0D

$GPGSV,3,1,12,27,77,331,19,16,60,180,17,10,46,131,24,18,45,084,11*78

$GPGSV,3,2,12,08,42,294,18,21,32,059,16,26,32,166,16,07,18,303,20*75

$GPGSV,3,3,12,11,06,256,,30,05,333,,15,04,049,,20,01,032,13*75

$GPRMC,140756.000,A,4709.3873,N,00138.2599,W,1.27,45.61,180717,,,A*4F

$GPVTG,45.61,T,,M,1.27,N,2.35,K,A*0B

$GPGGA,140757.000,4709.3872,N,00138.2600,W,1,08,1.06,22.2,M,48.7,M,,*42

$GPGLL,4709.3872,N,00138.2600,W,140757.000,A,A*41

$GPGSA,A,3,07,10,26,18,21,27,08,16,,,,,1.38,1.06,0.88*0D

$GPGSV,3,1,12,27,77,331,18,16,60,180,17,10,46,131,24,18,45,084,10*78

$GPGSV,3,2,12,08,42,294,18,21,32,059,16,26,32,166,17,07,18,302,20*75

$GPGSV,3,3,12,11,06,256,,30,05,333,,15,04,049,,20,01,032,13*75

$GPRMC,140757.000,A,4709.3872,N,00138.2600,W,1.18,45.40,180717,,,A*43

$GPVTG,45.40,T,,M,1.18,N,2.19,K,A*0A

$GPGGA,140758.000,4709.3872,N,00138.2599,W,1,08,1.06,22.1,M,48.7,M,,*4D

$GPGLL,4709.3872,N,00138.2599,W,140758.000,A,A*4D

$GPGSA,A,3,07,10,26,18,21,27,08,16,,,,,1.38,1.06,0.88*0D

$GPGSV,3,1,12,27,77,331,18,16,60,180,17,10,46,131,24,18,45,084,11*79

$GPGSV,3,2,12,08,42,294,18,21,32,059,16,26,32,166,17,07,18,302,20*75

$GPGSV,3,3,12,11,06,256,,30,05,333,,15,04,049,,20,01,032,13*75

$GPRMC,140758.000,A,4709.3872,N,00138.2599,W,1.13,46.59,180717,,,A*4F

$GPVTG,46.59,T,,M,1.13,N,2.10,K,A*03

$GPGGA,140759.000,4709.3868,N,00138.2601,W,1,08,1.06,21.9,M,48.7,M,,*4E

$GPGLL,4709.3868,N,00138.2601,W,140759.000,A,A*45

$GPGSA,A,3,07,10,26,18,21,27,08,16,,,,,1.38,1.06,0.88*0D

$GPGSV,4,1,13,27,77,331,17,16,60,180,18,10,46,131,25,18,45,084,14*7B

$GPGSV,4,2,13,08,42,294,18,21,32,059,18,26,32,166,18,07,18,302,21*73

$GPGSV,4,3,13,11,06,256,,44,06,107,,30,05,333,,15,04,049,*73

$GPGSV,4,4,13,20,01,032,13*4B

$GPRMC,140759.000,A,4709.3868,N,00138.2601,W,1.02,47.91,180717,,,A*42

$GPVTG,47.91,T,,M,1.02,N,1.90,K,A*0D

$GPGGA,140800.000,4709.3863,N,00138.2604,W,1,08,1.06,21.9,M,48.7,M,,*43

$GPGLL,4709.3863,N,00138.2604,W,140800.000,A,A*48

$GPGSA,A,3,07,10,26,18,21,27,08,16,,,,,1.38,1.06,0.88*0D

$GPGSV,4,1,13,27,77,331,17,16,60,180,19,10,46,130,25,18,45,084,15*7A

$GPGSV,4,2,13,08,42,294,19,21,32,059,18,26,32,166,18,07,18,302,21*72

$GPGSV,4,3,13,11,06,256,,44,06,107,,30,05,333,,15,04,049,*73

$GPGSV,4,4,13,20,01,032,13*4B

$GPRMC,140800.000,A,4709.3863,N,00138.2604,W,0.88,47.30,180717,,,A*47

$GPVTG,47.30,T,,M,0.88,N,1.63,K,A*09

$GPGGA,140801.000,4709.3853,N,00138.2619,W,1,08,1.06,22.0,M,48.7,M,,*47

$GPGLL,4709.3853,N,00138.2619,W,140801.000,A,A*46

$GPGSA,A,3,07,10,26,18,21,27,08,16,,,,,1.38,1.06,0.88*0D

$GPGSV,4,1,13,27,77,331,16,16,60,180,19,10,46,130,25,18,45,084,15*7B

$GPGSV,4,2,13,08,42,294,19,21,32,059,18,26,32,166,18,07,18,302,20*73

$GPGSV,4,3,13,11,06,256,,44,06,107,,30,05,333,,15,04,049,*73

$GPGSV,4,4,13,20,01,032,13*4B

$GPRMC,140801.000,A,4709.3853,N,00138.2619,W,0.69,48.23,180717,,,A*4B

$GPVTG,48.23,T,,M,0.69,N,1.27,K,A*0B

$GPGGA,140802.000,4709.3846,N,00138.2629,W,1,08,1.06,22.1,M,48.7,M,,*42

$GPGLL,4709.3846,N,00138.2629,W,140802.000,A,A*42

$GPGSA,A,3,07,10,26,18,21,27,08,16,,,,,1.38,1.06,0.88*0D

$GPGSV,4,1,13,27,77,331,15,16,60,180,19,10,46,130,25,18,45,084,15*78

$GPGSV,4,2,13,08,42,294,19,21,32,059,18,26,32,166,17,07,18,302,20*7C

$GPGSV,4,3,13,11,06,256,,44,06,107,,30,05,333,,15,04,049,*73

$GPGSV,4,4,13,20,01,032,12*4A

$GPRMC,140802.000,A,4709.3846,N,00138.2629,W,0.56,50.63,180717,,,A*4E

$GPVTG,50.63,T,,M,0.56,N,1.04,K,A*0B

$GPGGA,140803.000,4709.3845,N,00138.2631,W,1,08,1.06,22.1,M,48.7,M,,*49

$GPGLL,4709.3845,N,00138.2631,W,140803.000,A,A*49

$GPGSA,A,3,07,10,26,18,21,27,08,16,,,,,1.38,1.06,0.88*0D

$GPGSV,4,1,13,27,77,331,15,16,60,180,19,10,46,130,26,18,45,084,15*7B

$GPGSV,4,2,13,08,42,294,19,21,32,059,18,26,32,166,17,07,18,302,20*7C

$GPGSV,4,3,13,11,06,256,,44,06,107,,30,05,333,,15,04,049,*73

$GPGSV,4,4,13,20,01,032,12*4A

$GPRMC,140803.000,A,4709.3845,N,00138.2631,W,0.52,52.86,180717,,,A*48

$GPVTG,52.86,T,,M,0.52,N,0.96,K,A*0C

$GPGGA,140804.000,4709.3841,N,00138.2637,W,1,08,1.06,22.1,M,48.7,M,,*4C

$GPGLL,4709.3841,N,00138.2637,W,140804.000,A,A*4C

$GPGSA,A,3,07,10,26,18,21,27,08,16,,,,,1.38,1.06,0.88*0D

$GPGSV,4,1,13,27,77,331,15,16,60,180,19,10,46,130,26,18,45,084,15*7B

$GPGSV,4,2,13,08,42,294,18,21,32,059,18,26,32,166,17,07,18,302,20*7D

$GPGSV,4,3,13,11,06,256,,44,06,107,,30,05,333,,15,04,049,*73

$GPGSV,4,4,13,20,01,032,13*4B

$GPRMC,140804.000,A,4709.3841,N,00138.2637,W,0.36,52.81,180717,,,A*48

$GPVTG,52.81,T,,M,0.36,N,0.67,K,A*07

$GPGGA,140805.000,4709.3838,N,00138.2640,W,1,08,1.06,22.1,M,48.7,M,,*43

$GPGLL,4709.3838,N,00138.2640,W,140805.000,A,A*43

$GPGSA,A,3,07,10,26,18,21,27,08,16,,,,,1.38,1.06,0.88*0D

$GPGSV,4,1,13,27,77,331,15,16,60,180,19,10,46,130,27,18,45,084,15*7A

$GPGSV,4,2,13,08,42,294,18,21,32,059,19,26,32,166,17,07,18,302,20*7C

$GPGSV,4,3,13,11,06,256,,44,06,107,,30,05,333,,15,04,048,*72

$GPGSV,4,4,13,20,01,032,13*4B

$GPRMC,140805.000,A,4709.3838,N,00138.2640,W,0.23,52.10,180717,,,A*4B

$GPVTG,52.10,T,,M,0.23,N,0.42,K,A*0C

$GPGGA,140806.000,4709.3838,N,00138.2639,W,1,08,1.06,22.0,M,48.7,M,,*4F

$GPGLL,4709.3838,N,00138.2639,W,140806.000,A,A*4E

$GPGSA,A,3,07,10,26,18,21,27,08,16,,,,,1.38,1.06,0.88*0D

$GPGSV,4,1,13,27,77,331,15,16,60,180,19,10,46,130,27,18,45,084,15*7A

$GPGSV,4,2,13,08,42,294,19,21,32,059,19,26,32,166,18,07,18,302,20*72

$GPGSV,4,3,13,11,06,256,,44,06,107,,30,05,333,,15,04,048,*72

$GPGSV,4,4,13,20,01,032,13*4B

$GPRMC,140806.000,A,4709.3838,N,00138.2639,W,0.19,61.58,180717,,,A*43

$GPVTG,61.58,T,,M,0.19,N,0.35,K,A*09

$GPGGA,140807.000,4709.3839,N,00138.2639,W,1,08,1.06,22.0,M,48.7,M,,*4F

$GPGLL,4709.3839,N,00138.2639,W,140807.000,A,A*4E

$GPGSA,A,3,07,10,26,18,21,27,08,16,,,,,1.38,1.06,0.88*0D

$GPGSV,4,1,13,27,77,331,15,16,60,180,19,10,46,130,27,18,45,084,15*7A

$GPGSV,4,2,13,08,42,294,20,21,32,059,19,26,32,166,19,07,18,302,20*79

$GPGSV,4,3,13,11,06,256,,44,06,107,,30,05,333,,15,04,048,*72

$GPGSV,4,4,13,20,01,032,13*4B

$GPRMC,140807.000,A,4709.3839,N,00138.2639,W,0.13,92.94,180717,,,A*45

$GPVTG,92.94,T,,M,0.13,N,0.24,K,A*0F

$GPGGA,140808.000,4709.3839,N,00138.2638,W,1,08,1.06,22.0,M,48.7,M,,*41

$GPGLL,4709.3839,N,00138.2638,W,140808.000,A,A*40

$GPGSA,A,3,07,10,26,18,21,27,08,16,,,,,1.38,1.06,0.88*0D

$GPGSV,4,1,13,27,77,331,15,16,60,180,19,10,46,130,27,18,45,084,16*79

$GPGSV,4,2,13,08,42,294,20,21,32,059,20,26,32,166,20,07,18,302,20*79

$GPGSV,4,3,13,11,06,256,,30,05,333,,15,04,048,,20,01,032,13*72

$GPGSV,4,4,13,34,,,*7C

$GPRMC,140808.000,A,4709.3839,N,00138.2638,W,0.10,109.41,180717,,,A*73

$GPVTG,109.41,T,,M,0.10,N,0.19,K,A*39

$GPGGA,140809.000,4709.3839,N,00138.2638,W,1,08,1.06,22.0,M,48.7,M,,*40

$GPGLL,4709.3839,N,00138.2638,W,140809.000,A,A*41

$GPGSA,A,3,07,10,26,18,21,27,08,16,,,,,1.38,1.06,0.88*0D

$GPGSV,4,1,13,27,77,331,15,16,60,180,19,10,46,130,27,18,45,084,16*79

$GPGSV,4,2,13,08,42,294,20,21,32,059,20,26,32,166,20,07,18,302,20*79

$GPGSV,4,3,13,11,06,256,,30,05,333,,15,04,048,,20,01,032,13*72

$GPGSV,4,4,13,34,,,*7C

$GPRMC,140809.000,A,4709.3839,N,00138.2638,W,0.05,53.56,180717,,,A*4E

$GPVTG,53.56,T,,M,0.05,N,0.09,K,A*04

$GPGGA,140810.000,4709.3839,N,00138.2638,W,1,08,1.06,22.0,M,48.7,M,,*48

$GPGLL,4709.3839,N,00138.2638,W,140810.000,A,A*49

$GPGSA,A,3,07,10,26,18,21,27,08,16,,,,,1.38,1.06,0.88*0D

$GPGSV,4,1,13,27,77,331,15,16,60,180,19,10,46,130,27,18,45,084,16*79

$GPGSV,4,2,13,08,42,294,21,21,32,059,20,26,32,166,21,07,18,302,20*79

$GPGSV,4,3,13,11,06,256,,30,05,333,,15,04,048,,34,,,*45

$GPGSV,4,4,13,20,,,13*7B

$GPRMC,140810.000,A,4709.3839,N,00138.2638,W,0.09,352.52,180717,,,A*7C

$GPVTG,352.52,T,,M,0.09,N,0.16,K,A*30

$GPGGA,140811.000,4709.3839,N,00138.2638,W,1,08,1.07,22.0,M,48.7,M,,*48

$GPGLL,4709.3839,N,00138.2638,W,140811.000,A,A*48

$GPGSA,A,3,07,10,26,18,21,27,08,16,,,,,2.18,1.07,1.90*05

$GPGSV,3,1,12,27,77,331,15,16,60,180,19,10,46,130,27,18,45,084,16*7F

$GPGSV,3,2,12,08,42,294,21,21,32,059,21,26,32,166,21,07,18,302,21*7F

$GPGSV,3,3,12,11,06,256,,30,05,333,,15,04,048,,34,,,*43

$GPRMC,140811.000,A,4709.3839,N,00138.2638,W,0.08,333.99,180717,,,A*7C

$GPVTG,333.99,T,,M,0.08,N,0.14,K,A*33

$GPGGA,140812.000,4709.3839,N,00138.2638,W,1,08,1.06,22.0,M,48.7,M,,*4A

$GPGLL,4709.3839,N,00138.2638,W,140812.000,A,A*4B

$GPGSA,A,3,07,10,26,18,21,27,08,16,,,,,1.38,1.06,0.88*0D

$GPGSV,3,1,12,27,77,331,15,16,60,180,19,10,46,130,27,18,45,084,16*7F

$GPGSV,3,2,12,08,42,294,21,21,32,059,21,26,32,166,21,07,18,302,21*7F

$GPGSV,3,3,12,11,06,256,,30,05,333,,15,04,048,,34,,,*43

$GPRMC,140812.000,A,4709.3839,N,00138.2638,W,0.17,285.25,180717,,,A*7A

$GPVTG,285.25,T,,M,0.17,N,0.31,K,A*31

$GPGGA,140813.000,4709.3839,N,00138.2639,W,1,08,1.06,22.0,M,48.7,M,,*4A

$GPGLL,4709.3839,N,00138.2639,W,140813.000,A,A*4B

$GPGSA,A,3,07,10,26,18,21,27,08,16,,,,,1.38,1.06,0.88*0D

$GPGSV,3,1,12,27,77,331,15,16,60,180,20,10,46,130,27,18,45,084,16*75

$GPGSV,3,2,12,08,42,294,21,21,32,059,21,26,32,166,21,07,18,302,21*7F

$GPGSV,3,3,12,11,06,256,,30,05,333,,15,04,048,,34,,,*43

$GPRMC,140813.000,A,4709.3839,N,00138.2639,W,0.40,283.62,180717,,,A*7D

$GPVTG,283.62,T,,M,0.40,N,0.74,K,A*37

$GPGGA,140814.000,4709.3839,N,00138.2640,W,1,08,1.06,22.0,M,48.7,M,,*43

$GPGLL,4709.3839,N,00138.2640,W,140814.000,A,A*42

$GPGSA,A,3,07,10,26,18,21,27,08,16,,,,,1.38,1.06,0.88*0D

$GPGSV,3,1,12,27,77,331,15,16,60,180,20,10,46,130,27,18,45,084,16*75

$GPGSV,3,2,12,08,42,294,21,21,32,059,21,26,32,166,21,07,18,302,21*7F

$GPGSV,3,3,12,11,06,256,,30,05,333,,15,04,048,,35,,,*42

$GPRMC,140814.000,A,4709.3839,N,00138.2640,W,0.35,276.64,180717,,,A*7A

$GPVTG,276.64,T,,M,0.35,N,0.64,K,A*38

$GPGGA,140815.000,4709.3840,N,00138.2642,W,1,08,1.06,22.0,M,48.7,M,,*4E

$GPGLL,4709.3840,N,00138.2642,W,140815.000,A,A*4F

$GPGSA,A,3,07,10,26,18,21,27,08,16,,,,,1.38,1.06,0.88*0D

$GPGSV,3,1,12,27,77,331,16,16,60,180,20,10,46,130,27,18,45,084,16*76

$GPGSV,3,2,12,08,42,294,21,21,32,059,21,26,32,166,21,07,18,302,21*7F

$GPGSV,3,3,12,11,06,256,,30,05,333,,15,04,048,,35,,,*42

$GPRMC,140815.000,A,4709.3840,N,00138.2642,W,0.20,270.47,180717,,,A*74

$GPVTG,270.47,T,,M,0.20,N,0.36,K,A*3C

$GPGGA,140816.000,4709.3840,N,00138.2643,W,1,08,1.06,22.0,M,48.7,M,,*4C

$GPGLL,4709.3840,N,00138.2643,W,140816.000,A,A*4D

$GPGSA,A,3,07,10,26,18,21,27,08,16,,,,,1.38,1.06,0.88*0D

$GPGSV,3,1,12,27,77,331,16,16,60,180,20,10,46,130,27,18,45,084,16*76

$GPGSV,3,2,12,08,42,294,21,21,32,059,21,26,32,166,21,07,18,302,22*7C

$GPGSV,3,3,12,11,06,256,,30,05,333,,15,04,048,,35,,,*42

$GPRMC,140816.000,A,4709.3840,N,00138.2643,W,0.22,270.03,180717,,,A*74

$GPVTG,270.03,T,,M,0.22,N,0.40,K,A*3F

$GPGGA,140817.000,4709.3840,N,00138.2644,W,1,08,1.06,22.1,M,48.7,M,,*4B

$GPGLL,4709.3840,N,00138.2644,W,140817.000,A,A*4B

$GPGSA,A,3,07,10,26,18,21,27,08,16,,,,,1.38,1.06,0.88*0D

$GPGSV,3,1,12,27,77,332,16,16,60,180,20,10,46,130,27,18,45,084,16*75

$GPGSV,3,2,12,08,42,294,21,21,32,059,20,26,32,166,21,07,18,302,21*7E

$GPGSV,3,3,12,11,06,256,,30,05,333,,15,04,048,,35,,,*42

$GPRMC,140817.000,A,4709.3840,N,00138.2644,W,0.23,277.39,180717,,,A*7D

$GPVTG,277.39,T,,M,0.23,N,0.43,K,A*33

$GPGGA,140818.000,4709.3840,N,00138.2645,W,1,08,1.06,22.1,M,48.7,M,,*45

$GPGLL,4709.3840,N,00138.2645,W,140818.000,A,A*45

$GPGSA,A,3,07,10,26,18,21,27,08,16,,,,,1.38,1.06,0.88*0D

$GPGSV,3,1,12,27,77,332,16,16,60,180,20,10,46,130,26,18,45,084,16*74

$GPGSV,3,2,12,08,42,294,20,21,32,059,20,26,32,166,20,07,18,302,21*7E

$GPGSV,3,3,12,11,06,256,,30,05,333,,15,04,048,,35,,,*42

$GPRMC,140818.000,A,4709.3840,N,00138.2645,W,0.22,270.35,180717,,,A*79

$GPVTG,270.35,T,,M,0.22,N,0.40,K,A*3A

$GPGGA,140819.000,4709.3840,N,00138.2646,W,1,08,1.06,22.1,M,48.7,M,,*47

$GPGLL,4709.3840,N,00138.2646,W,140819.000,A,A*47

$GPGSA,A,3,07,10,26,18,21,27,08,16,,,,,1.38,1.06,0.88*0D

$GPGSV,3,1,12,27,77,332,16,16,60,180,20,10,46,130,26,18,45,084,15*77

$GPGSV,3,2,12,08,42,294,20,21,32,059,20,26,32,166,20,07,18,302,21*7E

$GPGSV,3,3,12,11,06,256,,30,05,333,,15,04,048,,35,,,*42

$GPRMC,140819.000,A,4709.3840,N,00138.2646,W,0.20,277.88,180717,,,A*78

$GPVTG,277.88,T,,M,0.20,N,0.38,K,A*36

$GPGGA,140820.000,4709.3840,N,00138.2646,W,1,08,1.06,22.1,M,48.7,M,,*4D

$GPGLL,4709.3840,N,00138.2646,W,140820.000,A,A*4D

$GPGSA,A,3,07,10,26,18,21,27,08,16,,,,,1.38,1.06,0.88*0D

$GPGSV,3,1,12,27,77,332,16,16,60,180,20,10,46,130,26,18,45,084,15*77

$GPGSV,3,2,12,08,42,294,20,21,32,059,20,26,32,166,20,07,18,302,21*7E

$GPGSV,3,3,12,11,06,256,,30,05,333,,15,04,048,,35,,,*42

$GPRMC,140820.000,A,4709.3840,N,00138.2646,W,0.24,291.16,180717,,,A*79

$GPVTG,291.16,T,,M,0.24,N,0.44,K,A*36

$GPGGA,140821.000,4709.3840,N,00138.2647,W,1,08,1.06,22.1,M,48.7,M,,*4D

$GPGLL,4709.3840,N,00138.2647,W,140821.000,A,A*4D

$GPGSA,A,3,07,10,26,18,21,27,08,16,,,,,1.38,1.06,0.88*0D

$GPGSV,3,1,11,27,77,332,17,16,60,180,20,10,46,130,26,18,45,084,15*75

$GPGSV,3,2,11,08,42,294,20,21,32,059,20,26,32,166,20,07,18,302,21*7D

$GPGSV,3,3,11,11,06,256,,30,05,333,,15,04,048,*47

$GPRMC,140821.000,A,4709.3840,N,00138.2647,W,0.26,282.85,180717,,,A*73

$GPVTG,282.85,T,,M,0.26,N,0.49,K,A*31

$GPGGA,140822.000,4709.3840,N,00138.2649,W,1,08,1.06,22.1,M,48.7,M,,*40

$GPGLL,4709.3840,N,00138.2649,W,140822.000,A,A*40

$GPGSA,A,3,07,10,26,18,21,27,08,16,,,,,1.38,1.06,0.88*0D

$GPGSV,3,1,12,27,77,332,17,16,60,180,19,10,46,130,26,18,45,084,15*7C

$GPGSV,3,2,12,08,42,294,20,21,32,059,20,26,32,166,20,07,18,302,21*7E

$GPGSV,3,3,12,11,06,256,,30,05,333,,15,04,048,,36,,,*41

$GPRMC,140822.000,A,4709.3840,N,00138.2649,W,0.23,255.97,180717,,,A*72

$GPVTG,255.97,T,,M,0.23,N,0.43,K,A*37

$GPGGA,140823.000,4709.3840,N,00138.2650,W,1,08,1.06,22.1,M,48.7,M,,*49

$GPGLL,4709.3840,N,00138.2650,W,140823.000,A,A*49

$GPGSA,A,3,07,10,26,18,21,27,08,16,,,,,1.38,1.06,0.88*0D

$GPGSV,3,1,12,27,77,332,17,16,60,180,19,10,46,130,27,18,45,084,16*7E

$GPGSV,3,2,12,08,42,294,20,21,32,059,21,26,32,166,21,07,18,302,21*7E

$GPGSV,3,3,12,11,06,256,,30,05,333,,15,04,048,,36,,,*41

$GPRMC,140823.000,A,4709.3840,N,00138.2650,W,0.32,235.85,180717,,,A*7E

$GPVTG,235.85,T,,M,0.32,N,0.60,K,A*33

$GPGGA,140824.000,4709.3839,N,00138.2651,W,1,08,1.06,22.1,M,48.7,M,,*41

$GPGLL,4709.3839,N,00138.2651,W,140824.000,A,A*41

$GPGSA,A,3,07,10,26,18,21,27,08,16,,,,,1.38,1.06,0.88*0D

$GPGSV,3,1,12,27,77,332,17,16,60,180,19,10,46,130,27,18,45,084,16*7E

$GPGSV,3,2,12,08,42,294,20,21,32,059,21,26,32,166,21,07,18,302,21*7E

$GPGSV,3,3,12,11,06,256,,30,05,333,,15,04,048,,36,,,*41

$GPRMC,140824.000,A,4709.3839,N,00138.2651,W,0.38,250.06,180717,,,A*74

$GPVTG,250.06,T,,M,0.38,N,0.70,K,A*30

$GPGGA,140825.000,4709.3839,N,00138.2652,W,1,08,1.06,22.1,M,48.7,M,,*43

$GPGLL,4709.3839,N,00138.2652,W,140825.000,A,A*43

$GPGSA,A,3,07,10,26,18,21,27,08,16,,,,,1.38,1.06,0.88*0D

$GPGSV,3,1,12,27,77,332,17,16,60,180,19,10,46,130,27,18,45,084,16*7E

$GPGSV,3,2,12,08,42,294,20,21,32,059,20,26,32,166,21,07,18,302,21*7F

$GPGSV,3,3,12,11,06,256,,30,05,333,,15,04,048,,36,,,*41

$GPRMC,140825.000,A,4709.3839,N,00138.2652,W,0.37,240.14,180717,,,A*7B

$GPVTG,240.14,T,,M,0.37,N,0.69,K,A*35

$GPGGA,140826.000,4709.3838,N,00138.2654,W,1,08,1.06,22.1,M,48.7,M,,*47

$GPGLL,4709.3838,N,00138.2654,W,140826.000,A,A*47

$GPGSA,A,3,07,10,26,18,21,27,08,16,,,,,1.38,1.06,0.88*0D

$GPGSV,3,1,12,27,77,332,17,16,60,180,19,10,46,130,27,18,45,084,16*7E

$GPGSV,3,2,12,08,42,294,19,21,32,059,19,26,32,166,21,07,18,302,21*7F

$GPGSV,3,3,12,11,06,256,,30,05,333,,15,04,048,,36,,,*41

$GPRMC,140826.000,A,4709.3838,N,00138.2654,W,0.40,238.28,180717,,,A*7F

$GPVTG,238.28,T,,M,0.40,N,0.74,K,A*39

$GPGGA,140827.000,4709.3838,N,00138.2655,W,1,08,1.06,22.1,M,48.7,M,,*47

$GPGLL,4709.3838,N,00138.2655,W,140827.000,A,A*47

$GPGSA,A,3,07,10,26,18,21,27,08,16,,,,,1.38,1.06,0.88*0D

$GPGSV,3,1,12,27,77,332,17,16,60,180,19,10,46,130,27,18,45,084,16*7E

$GPGSV,3,2,12,08,42,294,19,21,32,059,19,26,32,166,21,07,18,302,21*7F

$GPGSV,3,3,12,11,06,256,,30,05,333,,15,04,048,,36,,,*41

$GPRMC,140827.000,A,4709.3838,N,00138.2655,W,0.40,227.03,180717,,,A*78

$GPVTG,227.03,T,,M,0.40,N,0.74,K,A*3E

$GPGGA,140828.000,4709.3837,N,00138.2657,W,1,08,1.06,22.1,M,48.7,M,,*45

$GPGLL,4709.3837,N,00138.2657,W,140828.000,A,A*45

$GPGSA,A,3,07,10,26,18,21,27,08,16,,,,,1.38,1.06,0.88*0D

$GPGSV,3,1,12,27,77,332,18,16,60,180,19,10,46,130,27,18,45,084,17*70

$GPGSV,3,2,12,08,42,294,18,21,32,059,19,26,32,166,21,07,18,302,21*7E

$GPGSV,3,3,12,11,06,256,,30,05,333,,15,04,048,,38,,,*4F

$GPRMC,140828.000,A,4709.3837,N,00138.2657,W,0.34,227.00,180717,,,A*7A

$GPVTG,227.00,T,,M,0.34,N,0.64,K,A*3F

$GPGGA,140829.000,4709.3836,N,00138.2658,W,1,08,1.06,22.1,M,48.7,M,,*4A

$GPGLL,4709.3836,N,00138.2658,W,140829.000,A,A*4A

$GPGSA,A,3,07,10,26,18,21,27,08,16,,,,,1.38,1.06,0.88*0D

$GPGSV,3,1,12,27,77,332,20,16,60,180,19,10,46,130,27,18,45,084,17*7B

$GPGSV,3,2,12,08,42,294,18,21,32,059,20,26,32,166,20,07,18,302,20*74

$GPGSV,3,3,12,11,06,256,,30,05,333,,15,04,048,,38,,,*4F

$GPRMC,140829.000,A,4709.3836,N,00138.2658,W,0.28,233.30,180717,,,A*7E

$GPVTG,233.30,T,,M,0.28,N,0.51,K,A*32

$GPGGA,140830.000,4709.3836,N,00138.2659,W,1,08,1.06,22.1,M,48.7,M,,*43

$GPGLL,4709.3836,N,00138.2659,W,140830.000,A,A*43

$GPGSA,A,3,07,10,26,18,21,27,08,16,,,,,1.38,1.06,0.88*0D

$GPGSV,3,1,12,27,77,332,21,16,60,180,19,10,46,130,27,18,45,084,17*7A

$GPGSV,3,2,12,08,42,294,18,21,32,059,20,26,32,166,21,07,18,302,20*75

$GPGSV,3,3,12,11,06,256,,30,05,333,,15,04,048,,38,,,*4F

$GPRMC,140830.000,A,4709.3836,N,00138.2659,W,0.32,268.15,180717,,,A*75

$GPVTG,268.15,T,,M,0.32,N,0.59,K,A*38

$GPGGA,140831.000,4709.3836,N,00138.2660,W,1,08,1.06,22.1,M,48.7,M,,*48

$GPGLL,4709.3836,N,00138.2660,W,140831.000,A,A*48

$GPGSA,A,3,07,10,26,18,21,27,08,16,,,,,1.38,1.06,0.88*0D

$GPGSV,3,1,12,27,77,332,21,16,60,180,20,10,46,130,27,18,45,084,17*70

$GPGSV,3,2,12,08,42,294,19,21,32,059,20,26,32,166,20,07,18,302,20*75

$GPGSV,3,3,12,11,06,256,,30,05,333,,15,04,048,,38,,,*4F

$GPRMC,140831.000,A,4709.3836,N,00138.2660,W,0.37,273.11,180717,,,A*75

$GPVTG,273.11,T,,M,0.37,N,0.68,K,A*31

$GPGGA,140832.000,4709.3836,N,00138.2662,W,1,08,1.06,22.1,M,48.7,M,,*49

$GPGLL,4709.3836,N,00138.2662,W,140832.000,A,A*49

$GPGSA,A,3,07,10,26,18,21,27,08,16,,,,,1.38,1.06,0.88*0D

$GPGSV,3,1,12,27,77,332,22,16,60,180,20,10,46,130,28,18,45,084,17*7C

$GPGSV,3,2,12,08,42,294,19,21,32,059,21,26,32,166,21,07,18,302,21*74

$GPGSV,3,3,12,11,06,256,,30,05,333,,15,04,048,,38,,,*4F

$GPRMC,140832.000,A,4709.3836,N,00138.2662,W,0.45,273.80,180717,,,A*79

$GPVTG,273.80,T,,M,0.45,N,0.83,K,A*39

$GPGGA,140833.000,4709.3836,N,00138.2664,W,1,08,1.06,22.1,M,48.7,M,,*4E

$GPGLL,4709.3836,N,00138.2664,W,140833.000,A,A*4E

$GPGSA,A,3,07,10,26,18,21,27,08,16,,,,,1.38,1.06,0.88*0D

$GPGSV,3,1,12,27,77,332,22,16,60,180,20,10,46,130,28,18,45,084,17*7C

$GPGSV,3,2,12,08,42,294,19,21,32,059,22,26,32,166,21,07,18,302,21*77

$GPGSV,3,3,12,11,06,256,,30,05,333,,15,04,048,,38,,,*4F

$GPRMC,140833.000,A,4709.3836,N,00138.2664,W,0.46,271.46,180717,,,A*75

$GPVTG,271.46,T,,M,0.46,N,0.86,K,A*37

$GPGGA,140834.000,4709.3836,N,00138.2666,W,1,08,1.06,22.1,M,48.7,M,,*4B

$GPGLL,4709.3836,N,00138.2666,W,140834.000,A,A*4B

$GPGSA,A,3,07,10,26,18,21,27,08,16,,,,,1.38,1.06,0.88*0D

$GPGSV,3,1,12,27,77,332,22,16,60,180,20,10,46,130,28,18,45,084,17*7C

$GPGSV,3,2,12,08,42,294,19,21,32,059,22,26,32,166,21,07,18,302,22*74

$GPGSV,3,3,12,11,06,256,,30,05,333,,15,04,048,,41,,,*41

$GPRMC,140834.000,A,4709.3836,N,00138.2666,W,0.42,261.77,180717,,,A*77

$GPVTG,261.77,T,,M,0.42,N,0.79,K,A*30

$GPGGA,140835.000,4709.3836,N,00138.2668,W,1,08,1.06,22.1,M,48.7,M,,*44

$GPGLL,4709.3836,N,00138.2668,W,140835.000,A,A*44

$GPGSA,A,3,07,10,26,18,21,27,08,16,,,,,1.38,1.06,0.88*0D

$GPGSV,3,1,12,27,77,332,22,16,60,180,20,10,46,130,28,18,45,084,17*7C

$GPGSV,3,2,12,08,42,294,19,21,32,059,22,26,32,166,21,07,18,302,22*74

$GPGSV,3,3,12,11,06,256,,30,05,333,,15,04,048,,41,,,*41

$GPRMC,140835.000,A,4709.3836,N,00138.2668,W,0.37,259.75,180717,,,A*73

$GPVTG,259.75,T,,M,0.37,N,0.69,K,A*3A

$GPGGA,140836.000,4709.3835,N,00138.2669,W,1,08,1.06,22.1,M,48.7,M,,*45

$GPGLL,4709.3835,N,00138.2669,W,140836.000,A,A*45

$GPGSA,A,3,07,10,26,18,21,27,08,16,,,,,1.38,1.06,0.88*0D

$GPGSV,3,1,12,27,77,332,22,16,60,180,20,10,46,130,28,18,45,084,17*7C

$GPGSV,3,2,12,08,42,294,19,21,32,059,22,26,32,166,21,07,18,302,22*74

$GPGSV,3,3,12,11,06,256,,30,05,333,,15,04,048,,41,,,*41

$GPRMC,140836.000,A,4709.3835,N,00138.2669,W,0.34,267.35,180717,,,A*78

$GPVTG,267.35,T,,M,0.34,N,0.62,K,A*3B

$GPGGA,140837.000,4709.3835,N,00138.2671,W,1,08,1.06,22.1,M,48.7,M,,*4D

$GPGLL,4709.3835,N,00138.2671,W,140837.000,A,A*4D

$GPGSA,A,3,07,10,26,18,21,27,08,16,,,,,1.38,1.06,0.88*0D

$GPGSV,3,1,12,27,77,332,23,16,60,180,20,10,46,130,28,18,45,084,17*7D

$GPGSV,3,2,12,08,42,294,18,21,32,059,22,26,32,166,21,07,18,302,22*75

$GPGSV,3,3,12,11,06,256,,30,05,333,,15,04,048,,41,,,*41

$GPRMC,140837.000,A,4709.3835,N,00138.2671,W,0.39,270.59,180717,,,A*71

$GPVTG,270.59,T,,M,0.39,N,0.72,K,A*3B

$GPGGA,140838.000,4709.3835,N,00138.2672,W,1,08,1.06,22.1,M,48.7,M,,*41

$GPGLL,4709.3835,N,00138.2672,W,140838.000,A,A*41

$GPGSA,A,3,07,10,26,18,21,27,08,16,,,,,1.38,1.06,0.88*0D

$GPGSV,3,1,12,27,77,332,23,16,60,180,20,10,46,130,28,18,45,084,17*7D

$GPGSV,3,2,12,08,42,294,18,21,32,059,22,26,32,166,21,07,18,302,21*76

$GPGSV,3,3,12,11,06,256,,30,05,333,,15,04,048,,41,,,*41

$GPRMC,140838.000,A,4709.3835,N,00138.2672,W,0.46,273.20,180717,,,A*78

$GPVTG,273.20,T,,M,0.46,N,0.85,K,A*36

$GPGGA,140839.000,4709.3835,N,00138.2674,W,1,08,1.06,22.1,M,48.7,M,,*46

$GPGLL,4709.3835,N,00138.2674,W,140839.000,A,A*46

$GPGSA,A,3,07,10,26,18,21,27,08,16,,,,,1.38,1.06,0.88*0D

$GPGSV,3,1,12,27,77,332,23,16,60,180,20,10,46,130,28,18,45,084,17*7D

$GPGSV,3,2,12,08,42,294,18,21,32,059,22,26,32,166,21,07,18,302,22*75

$GPGSV,3,3,12,11,06,256,,30,05,333,,15,04,048,,41,,,*41

$GPRMC,140839.000,A,4709.3835,N,00138.2674,W,0.51,276.21,180717,,,A*7D

$GPVTG,276.21,T,,M,0.51,N,0.94,K,A*34

$GPGGA,140840.000,4709.3835,N,00138.2677,W,1,08,1.06,22.1,M,48.7,M,,*4B

$GPGLL,4709.3835,N,00138.2677,W,140840.000,A,A*4B

$GPGSA,A,3,07,10,26,18,21,27,08,16,,,,,1.38,1.06,0.88*0D

$GPGSV,3,1,12,27,77,332,23,16,60,180,20,10,46,130,27,18,45,084,17*72

$GPGSV,3,2,12,08,42,294,18,21,32,059,22,26,32,166,21,07,18,302,21*76

$GPGSV,3,3,12,11,06,256,,30,05,333,,15,05,048,,41,,,*40

$GPRMC,140840.000,A,4709.3835,N,00138.2677,W,0.50,277.41,180717,,,A*76

$GPVTG,277.41,T,,M,0.50,N,0.93,K,A*35

$GPGGA,140841.000,4709.3835,N,00138.2679,W,1,08,1.06,22.1,M,48.7,M,,*44

$GPGLL,4709.3835,N,00138.2679,W,140841.000,A,A*44

$GPGSA,A,3,07,10,26,18,21,27,08,16,,,,,1.38,1.06,0.88*0D

$GPGSV,3,1,12,27,77,332,23,16,59,180,21,10,46,130,27,18,45,084,17*79

$GPGSV,3,2,12,08,42,294,18,21,32,059,22,26,32,166,21,07,18,302,21*76

$GPGSV,3,3,12,11,06,256,,30,05,333,,15,05,048,,43,,,*42

$GPRMC,140841.000,A,4709.3835,N,00138.2679,W,0.48,280.98,180717,,,A*7C

$GPVTG,280.98,T,,M,0.48,N,0.89,K,A*3B

$GPGGA,140842.000,4709.3836,N,00138.2681,W,1,08,1.06,22.1,M,48.7,M,,*43

$GPGLL,4709.3836,N,00138.2681,W,140842.000,A,A*43

$GPGSA,A,3,07,10,26,18,21,27,08,16,,,,,1.38,1.06,0.88*0D

$GPGSV,3,1,12,27,77,332,23,16,59,180,22,10,46,130,27,18,45,084,17*7A

$GPGSV,3,2,12,08,42,294,17,21,32,059,22,26,32,166,21,07,18,302,21*79

$GPGSV,3,3,12,11,06,256,,30,05,333,,15,05,048,,43,,,*42

$GPRMC,140842.000,A,4709.3836,N,00138.2681,W,0.55,288.59,180717,,,A*72

$GPVTG,288.59,T,,M,0.55,N,1.01,K,A*33

$GPGGA,140843.000,4709.3836,N,00138.2684,W,1,08,1.06,22.1,M,48.7,M,,*47

$GPGLL,4709.3836,N,00138.2684,W,140843.000,A,A*47

$GPGSA,A,3,07,10,26,18,21,27,08,16,,,,,1.38,1.06,0.88*0D

$GPGSV,3,1,12,27,77,332,23,16,59,180,22,10,46,130,27,18,45,084,18*75

$GPGSV,3,2,12,08,42,294,17,21,32,059,22,26,32,166,21,07,18,302,21*79

$GPGSV,3,3,12,11,06,256,,30,05,333,,15,05,048,,43,,,*42

$GPRMC,140843.000,A,4709.3836,N,00138.2684,W,0.67,275.07,180717,,,A*7E

$GPVTG,275.07,T,,M,0.67,N,1.24,K,A*3C

$GPGGA,140844.000,4709.3814,N,00138.2717,W,1,08,1.06,22.5,M,48.7,M,,*4F

$GPGLL,4709.3814,N,00138.2717,W,140844.000,A,A*4B

$GPGSA,A,3,07,10,26,18,21,27,08,16,,,,,1.38,1.06,0.88*0D

$GPGSV,3,1,12,27,77,332,23,16,59,180,23,10,46,130,27,18,45,084,18*74

$GPGSV,3,2,12,08,42,294,17,21,32,059,22,26,32,166,21,07,18,302,21*79

$GPGSV,3,3,12,11,06,256,,30,05,333,,15,05,048,,43,,,*42

$GPRMC,140844.000,A,4709.3814,N,00138.2717,W,0.74,265.92,180717,,,A*7D

$GPVTG,265.92,T,,M,0.74,N,1.38,K,A*3E

$GPGGA,140845.000,4709.3812,N,00138.2725,W,1,08,1.06,22.6,M,48.7,M,,*4A

$GPGLL,4709.3812,N,00138.2725,W,140845.000,A,A*4D

$GPGSA,A,3,07,10,26,18,21,27,08,16,,,,,1.38,1.06,0.88*0D

$GPGSV,3,1,12,27,77,332,23,16,59,180,23,10,46,130,27,18,45,084,18*74

$GPGSV,3,2,12,08,42,294,17,21,32,059,22,26,32,166,21,07,18,302,21*79

$GPGSV,3,3,12,11,06,256,,30,05,333,,15,05,048,,43,,,*42

$GPRMC,140845.000,A,4709.3812,N,00138.2725,W,0.72,267.66,180717,,,A*74

$GPVTG,267.66,T,,M,0.72,N,1.34,K,A*3D

$GPGGA,140846.000,4709.3807,N,00138.2738,W,1,08,1.06,22.7,M,48.7,M,,*40

$GPGLL,4709.3807,N,00138.2738,W,140846.000,A,A*46

$GPGSA,A,3,07,10,26,18,21,27,08,16,,,,,1.38,1.06,0.88*0D

$GPGSV,3,1,12,27,77,332,23,16,59,180,22,10,46,130,27,18,45,084,18*75

$GPGSV,3,2,12,08,42,294,17,21,32,059,22,26,32,166,21,07,18,302,21*79

$GPGSV,3,3,12,11,06,256,,30,05,333,,15,05,048,,43,,,*42

$GPRMC,140846.000,A,4709.3807,N,00138.2738,W,0.75,269.04,180717,,,A*72

$GPVTG,269.04,T,,M,0.75,N,1.39,K,A*3D

$GPGGA,140847.000,4709.3806,N,00138.2746,W,1,08,1.06,22.8,M,48.7,M,,*46

$GPGLL,4709.3806,N,00138.2746,W,140847.000,A,A*4F

$GPGSA,A,3,07,10,26,18,21,27,08,16,,,,,1.38,1.06,0.88*0D

$GPGSV,3,1,12,27,77,332,23,16,59,180,22,10,46,130,27,18,45,084,18*75

$GPGSV,3,2,12,08,42,294,17,21,32,059,22,26,32,166,22,07,18,302,21*7A

$GPGSV,3,3,12,11,06,256,,30,05,333,,15,05,048,,45,,,*44

$GPRMC,140847.000,A,4709.3806,N,00138.2746,W,0.71,270.05,180717,,,A*76

$GPVTG,270.05,T,,M,0.71,N,1.32,K,A*3B

$GPGGA,140848.000,4709.3804,N,00138.2754,W,1,08,1.06,22.9,M,48.7,M,,*49

$GPGLL,4709.3804,N,00138.2754,W,140848.000,A,A*41

$GPGSA,A,3,07,10,26,18,21,27,08,16,,,,,1.38,1.06,0.88*0D

$GPGSV,3,1,12,27,77,332,23,16,59,180,23,10,46,130,27,18,45,084,18*74

$GPGSV,3,2,12,08,42,294,18,21,32,059,22,26,32,166,22,07,18,302,21*75

$GPGSV,3,3,12,11,06,256,,30,05,333,,15,05,048,,45,,,*44

$GPRMC,140848.000,A,4709.3804,N,00138.2754,W,0.72,266.40,180717,,,A*7D

$GPVTG,266.40,T,,M,0.72,N,1.33,K,A*3F

$GPGGA,140849.000,4709.3801,N,00138.2759,W,1,08,1.06,23.0,M,48.7,M,,*48

$GPGLL,4709.3801,N,00138.2759,W,140849.000,A,A*48

$GPGSA,A,3,07,10,26,18,21,27,08,16,,,,,1.38,1.06,0.88*0D

$GPGSV,3,1,12,27,77,332,23,16,59,180,23,10,46,130,27,18,45,084,18*74

$GPGSV,3,2,12,08,42,294,18,21,32,059,22,26,32,166,22,07,18,302,22*76

$GPGSV,3,3,12,11,06,256,,30,05,333,,15,05,048,,45,,,*44

$GPRMC,140849.000,A,4709.3801,N,00138.2759,W,0.62,254.52,180717,,,A*77

$GPVTG,254.52,T,,M,0.62,N,1.15,K,A*38

$GPGGA,140850.000,4709.3799,N,00138.2765,W,1,08,1.06,23.1,M,48.7,M,,*40

$GPGLL,4709.3799,N,00138.2765,W,140850.000,A,A*41

$GPGSA,A,3,07,10,26,18,21,27,08,16,,,,,1.38,1.06,0.88*0D

$GPGSV,3,1,12,27,77,332,23,16,59,180,22,10,46,130,26,18,45,084,18*74

$GPGSV,3,2,12,08,42,294,18,21,32,059,21,26,32,166,22,07,18,302,21*76

$GPGSV,3,3,12,11,06,256,,30,05,333,,15,05,048,,45,,,*44

$GPRMC,140850.000,A,4709.3799,N,00138.2765,W,0.62,253.70,180717,,,A*79

$GPVTG,253.70,T,,M,0.62,N,1.15,K,A*3F

$GPGGA,140851.000,4709.3796,N,00138.2772,W,1,08,1.06,23.1,M,48.7,M,,*48

$GPGLL,4709.3796,N,00138.2772,W,140851.000,A,A*49

$GPGSA,A,3,07,10,26,18,21,27,08,16,,,,,1.38,1.06,0.88*0D

$GPGSV,3,1,12,27,77,332,23,16,59,180,22,10,46,130,26,18,45,084,19*75

$GPGSV,3,2,12,08,42,294,18,21,32,059,21,26,31,166,23,07,18,302,21*74

$GPGSV,3,3,12,11,06,256,,30,05,333,,15,05,048,,45,,,*44

$GPRMC,140851.000,A,4709.3796,N,00138.2772,W,0.60,254.04,180717,,,A*77

$GPVTG,254.04,T,,M,0.60,N,1.11,K,A*3D

$GPGGA,140852.000,4709.3792,N,00138.2782,W,1,08,1.06,23.2,M,48.7,M,,*43

$GPGLL,4709.3792,N,00138.2782,W,140852.000,A,A*41

$GPGSA,A,3,07,10,26,18,21,27,08,16,,,,,1.38,1.06,0.88*0D

$GPGSV,3,1,12,27,77,333,23,16,59,180,22,10,46,130,26,18,45,084,19*74

$GPGSV,3,2,12,08,42,294,18,21,32,059,21,26,31,166,24,07,18,302,22*70

$GPGSV,3,3,12,11,06,256,,30,05,333,,15,05,048,,45,,,*44

$GPRMC,140852.000,A,4709.3792,N,00138.2782,W,0.59,250.61,180717,,,A*72

$GPVTG,250.61,T,,M,0.59,N,1.10,K,A*31

$GPGGA,140853.000,4709.3787,N,00138.2788,W,1,08,1.06,23.3,M,48.7,M,,*4D

$GPGLL,4709.3787,N,00138.2788,W,140853.000,A,A*4E

$GPGSA,A,3,07,10,26,18,21,27,08,16,,,,,1.38,1.06,0.88*0D

$GPGSV,3,1,12,27,77,333,24,16,59,180,21,10,46,130,26,18,45,084,19*70

$GPGSV,3,2,12,08,42,294,18,21,32,059,21,26,31,166,24,07,18,302,22*70

$GPGSV,3,3,12,11,06,256,,30,05,333,,15,05,048,,45,,,*44

$GPRMC,140853.000,A,4709.3787,N,00138.2788,W,0.55,245.44,180717,,,A*72

$GPVTG,245.44,T,,M,0.55,N,1.01,K,A*3E

$GPGGA,140854.000,4709.3785,N,00138.2793,W,1,08,1.06,23.4,M,48.7,M,,*45

$GPGLL,4709.3785,N,00138.2793,W,140854.000,A,A*41

$GPGSA,A,3,07,10,26,18,21,27,08,16,,,,,1.38,1.06,0.88*0D

$GPGSV,3,1,12,27,77,333,25,16,59,180,21,10,46,130,26,18,45,084,19*71

$GPGSV,3,2,12,08,42,294,18,21,32,059,22,26,31,166,24,07,18,302,22*73

$GPGSV,3,3,12,11,06,256,,30,05,333,,15,05,048,,46,,,*47

$GPRMC,140854.000,A,4709.3785,N,00138.2793,W,0.48,241.43,180717,,,A*72

$GPVTG,241.43,T,,M,0.48,N,0.89,K,A*30

$GPGGA,140855.000,4709.3782,N,00138.2800,W,1,08,1.06,23.5,M,48.7,M,,*47

$GPGLL,4709.3782,N,00138.2800,W,140855.000,A,A*42

$GPGSA,A,3,07,10,26,18,21,27,08,16,,,,,1.38,1.06,0.88*0D

$GPGSV,3,1,12,27,77,333,25,16,59,180,21,10,46,130,26,18,45,084,18*70

$GPGSV,3,2,12,08,42,294,18,21,32,059,21,26,31,166,23,07,18,302,22*77

$GPGSV,3,3,12,11,06,256,,30,06,333,,15,05,048,,46,,,*44

$GPRMC,140855.000,A,4709.3782,N,00138.2800,W,0.48,240.41,180717,,,A*72

$GPVTG,240.41,T,,M,0.48,N,0.89,K,A*33

$GPGGA,140856.000,4709.3778,N,00138.2807,W,1,08,1.06,23.6,M,48.7,M,,*45

$GPGLL,4709.3778,N,00138.2807,W,140856.000,A,A*43

$GPGSA,A,3,07,10,26,18,21,27,08,16,,,,,1.38,1.06,0.88*0D

$GPGSV,3,1,12,27,77,333,25,16,59,180,21,10,46,130,26,18,45,084,18*70

$GPGSV,3,2,12,08,42,294,18,21,32,059,21,26,31,166,23,07,18,302,21*74

$GPGSV,3,3,12,11,06,256,,30,06,333,,15,05,048,,46,,,*44

$GPRMC,140856.000,A,4709.3778,N,00138.2807,W,0.50,235.73,180717,,,A*79

$GPVTG,235.73,T,,M,0.50,N,0.93,K,A*32

$GPGGA,140857.000,4709.3777,N,00138.2809,W,1,08,1.06,23.6,M,48.7,M,,*45

$GPGLL,4709.3777,N,00138.2809,W,140857.000,A,A*43

$GPGSA,A,3,07,10,26,18,21,27,08,16,,,,,1.38,1.06,0.88*0D

$GPGSV,3,1,12,27,77,333,24,16,59,180,21,10,46,130,26,18,45,084,18*71

$GPGSV,3,2,12,08,42,294,18,21,32,059,21,26,31,166,23,07,18,302,21*74

$GPGSV,3,3,12,11,06,256,,30,06,333,,15,05,048,,46,,,*44

$GPRMC,140857.000,A,4709.3777,N,00138.2809,W,0.58,237.68,180717,,,A*79

$GPVTG,237.68,T,,M,0.58,N,1.08,K,A*31

$GPGGA,140858.000,4709.3776,N,00138.2811,W,1,08,1.06,23.6,M,48.7,M,,*42

$GPGLL,4709.3776,N,00138.2811,W,140858.000,A,A*44

$GPGSA,A,3,07,10,26,18,21,27,08,16,,,,,1.38,1.06,0.88*0D

$GPGSV,3,1,12,27,77,333,24,16,59,180,21,10,46,130,26,18,45,084,18*71

$GPGSV,3,2,12,08,42,294,18,21,32,059,21,26,31,166,23,07,18,302,21*74

$GPGSV,3,3,12,11,06,256,,30,06,333,,15,05,048,,46,,,*44

$GPRMC,140858.000,A,4709.3776,N,00138.2811,W,0.58,240.68,180717,,,A*7E

$GPVTG,240.68,T,,M,0.58,N,1.08,K,A*31

$GPGGA,140859.000,4709.3775,N,00138.2813,W,1,08,1.06,23.6,M,48.7,M,,*42

$GPGLL,4709.3775,N,00138.2813,W,140859.000,A,A*44

$GPGSA,A,3,07,10,26,18,21,27,08,16,,,,,1.38,1.06,0.88*0D

$GPGSV,3,1,12,27,77,333,24,16,59,180,22,10,46,130,25,18,45,084,18*71

$GPGSV,3,2,12,08,42,294,18,21,32,059,21,26,31,166,23,07,18,302,21*74

$GPGSV,3,3,12,11,06,256,,30,06,333,,15,05,048,,46,,,*44

$GPRMC,140859.000,A,4709.3775,N,00138.2813,W,0.53,241.38,180717,,,A*71

$GPVTG,241.38,T,,M,0.53,N,0.99,K,A*37

$GPGGA,140900.000,4709.3774,N,00138.2815,W,1,08,1.06,23.6,M,48.7,M,,*48

$GPGLL,4709.3774,N,00138.2815,W,140900.000,A,A*4E

$GPGSA,A,3,07,10,26,18,21,27,08,16,,,,,1.38,1.06,0.88*0D

$GPGSV,3,1,12,27,77,333,24,16,59,180,21,10,46,130,24,18,45,084,18*73

$GPGSV,3,2,12,08,42,294,18,21,32,059,21,26,31,166,22,07,18,302,20*74

$GPGSV,3,3,12,11,06,256,,30,06,333,,15,05,048,,46,,,*44

$GPRMC,140900.000,A,4709.3774,N,00138.2815,W,0.56,236.73,180717,,,A*71

$GPVTG,236.73,T,,M,0.56,N,1.04,K,A*38

$GPGGA,140901.000,4709.3773,N,00138.2817,W,1,08,1.06,23.6,M,48.7,M,,*4C

$GPGLL,4709.3773,N,00138.2817,W,140901.000,A,A*4A

$GPGSA,A,3,07,10,26,18,21,27,08,16,,,,,1.38,1.06,0.88*0D

$GPGSV,3,1,11,27,77,333,24,16,59,180,21,10,46,130,24,18,45,084,18*70

$GPGSV,3,2,11,08,42,294,18,21,32,059,21,26,31,166,22,07,18,302,20*77

$GPGSV,3,3,11,11,06,256,,30,06,333,,15,05,048,*45

$GPRMC,140901.000,A,4709.3773,N,00138.2817,W,0.51,233.88,180717,,,A*73

$GPVTG,233.88,T,,M,0.51,N,0.94,K,A*36

$GPGGA,140902.000,4709.3773,N,00138.2819,W,1,08,1.06,23.6,M,48.7,M,,*41

$GPGLL,4709.3773,N,00138.2819,W,140902.000,A,A*47

$GPGSA,A,3,07,10,26,18,21,27,08,16,,,,,1.38,1.06,0.88*0D

$GPGSV,3,1,11,27,77,333,24,16,59,180,21,10,46,130,24,18,45,084,18*70

$GPGSV,3,2,11,08,42,294,17,21,32,059,21,26,31,166,22,07,18,302,20*78

$GPGSV,3,3,11,11,06,256,,30,06,333,,15,05,048,*45

$GPRMC,140902.000,A,4709.3773,N,00138.2819,W,0.47,236.73,180717,,,A*78

$GPVTG,236.73,T,,M,0.47,N,0.86,K,A*33

$GPGGA,140903.000,4709.3772,N,00138.2820,W,1,08,1.06,23.6,M,48.7,M,,*4B

$GPGLL,4709.3772,N,00138.2820,W,140903.000,A,A*4D

$GPGSA,A,3,07,10,26,18,21,27,08,16,,,,,1.38,1.06,0.88*0D

$GPGSV,3,1,11,27,77,333,24,16,59,180,21,10,46,130,24,18,45,084,18*70

$GPGSV,3,2,11,08,42,294,17,21,32,059,21,26,31,166,22,07,18,302,21*79

$GPGSV,3,3,11,11,06,256,,30,06,333,,15,05,048,*45

$GPRMC,140903.000,A,4709.3772,N,00138.2820,W,0.45,245.25,180717,,,A*77

$GPVTG,245.25,T,,M,0.45,N,0.84,K,A*34

$GPGGA,140904.000,4709.3771,N,00138.2822,W,1,08,1.06,23.6,M,48.7,M,,*4D

$GPGLL,4709.3771,N,00138.2822,W,140904.000,A,A*4B

$GPGSA,A,3,07,10,26,18,21,27,08,16,,,,,1.38,1.06,0.88*0D

$GPGSV,3,1,11,27,77,333,24,16,59,180,21,10,46,130,24,18,45,084,18*70

$GPGSV,3,2,11,08,42,294,18,21,32,059,21,26,31,166,22,07,18,302,21*76

$GPGSV,3,3,11,11,06,256,,30,06,333,,15,05,048,*45

$GPRMC,140904.000,A,4709.3771,N,00138.2822,W,0.42,247.50,180717,,,A*76

$GPVTG,247.50,T,,M,0.42,N,0.79,K,A*31

$GPGGA,140905.000,4709.3771,N,00138.2824,W,1,08,1.06,23.6,M,48.7,M,,*4A

$GPGLL,4709.3771,N,00138.2824,W,140905.000,A,A*4C

$GPGSA,A,3,07,10,26,18,21,27,08,16,,,,,1.38,1.06,0.88*0D

$GPGSV,3,1,11,27,77,333,24,16,59,180,20,10,46,130,24,18,45,084,18*71

$GPGSV,3,2,11,08,42,294,18,21,32,059,21,26,31,166,22,07,18,302,21*76

$GPGSV,3,3,11,11,06,256,,30,06,333,,15,05,048,*45

$GPRMC,140905.000,A,4709.3771,N,00138.2824,W,0.48,246.24,180717,,,A*79

$GPVTG,246.24,T,,M,0.48,N,0.89,K,A*36

$GPGGA,140906.000,4709.3770,N,00138.2826,W,1,08,1.06,23.6,M,48.7,M,,*4A

$GPGLL,4709.3770,N,00138.2826,W,140906.000,A,A*4C

$GPGSA,A,3,07,10,26,18,21,27,08,16,,,,,1.38,1.06,0.88*0D

$GPGSV,3,1,11,27,77,333,24,16,59,180,20,10,46,130,24,18,45,084,19*70

$GPGSV,3,2,11,08,42,294,18,21,32,059,21,26,31,166,22,07,18,302,21*76

$GPGSV,3,3,11,11,06,256,,30,06,333,,15,05,048,*45

$GPRMC,140906.000,A,4709.3770,N,00138.2826,W,0.51,251.60,180717,,,A*77

$GPVTG,251.60,T,,M,0.51,N,0.95,K,A*35

$GPGGA,140907.000,4709.3770,N,00138.2828,W,1,08,1.06,23.6,M,48.7,M,,*45

$GPGLL,4709.3770,N,00138.2828,W,140907.000,A,A*43

$GPGSA,A,3,07,10,26,18,21,27,08,16,,,,,1.38,1.06,0.88*0D

$GPGSV,3,1,11,27,77,333,24,16,59,180,20,10,46,130,24,18,45,084,19*70

$GPGSV,3,2,11,08,42,294,18,21,32,059,21,26,31,166,22,07,18,302,21*76

$GPGSV,3,3,11,11,06,256,,30,06,333,,15,05,048,*45

$GPRMC,140907.000,A,4709.3770,N,00138.2828,W,0.49,249.10,180717,,,A*7F

$GPVTG,249.10,T,,M,0.49,N,0.92,K,A*35

$GPGGA,140908.000,4709.3769,N,00138.2830,W,1,08,1.06,23.6,M,48.7,M,,*4B

$GPGLL,4709.3769,N,00138.2830,W,140908.000,A,A*4D

$GPGSA,A,3,07,10,26,18,21,27,08,16,,,,,1.38,1.06,0.88*0D

$GPGSV,3,1,11,27,77,333,25,16,59,180,20,10,46,130,24,18,45,084,19*71

$GPGSV,3,2,11,08,43,294,18,21,32,059,21,26,31,166,22,07,18,302,20*76

$GPGSV,3,3,11,11,06,256,,30,06,333,,15,05,048,*45

$GPRMC,140908.000,A,4709.3769,N,00138.2830,W,0.54,250.36,180717,,,A*71

$GPVTG,250.36,T,,M,0.54,N,0.99,K,A*3E

$GPGGA,140909.000,4709.3769,N,00138.2832,W,1,08,1.06,23.6,M,48.7,M,,*48

$GPGLL,4709.3769,N,00138.2832,W,140909.000,A,A*4E

$GPGSA,A,3,07,10,26,18,21,27,08,16,,,,,1.38,1.06,0.88*0D

$GPGSV,3,1,12,27,77,333,27,16,59,180,20,10,46,130,24,18,45,084,20*7A

$GPGSV,3,2,12,08,43,294,18,21,32,059,21,26,31,166,23,07,18,302,20*74

$GPGSV,3,3,12,11,06,256,,30,06,333,,15,05,048,,47,,,*45

$GPRMC,140909.000,A,4709.3769,N,00138.2832,W,0.51,248.09,180717,,,A*72

$GPVTG,248.09,T,,M,0.51,N,0.94,K,A*33

$GPGGA,140910.000,4709.3768,N,00138.2834,W,1,08,1.06,23.6,M,48.7,M,,*47

$GPGLL,4709.3768,N,00138.2834,W,140910.000,A,A*41

$GPGSA,A,3,07,10,26,18,21,27,08,16,,,,,1.38,1.06,0.88*0D

$GPGSV,3,1,12,27,77,333,27,16,59,180,20,10,46,130,24,18,45,084,20*7A

$GPGSV,3,2,12,08,43,294,19,21,32,059,21,26,31,166,23,07,18,302,20*75

$GPGSV,3,3,12,11,06,256,,30,06,333,,15,05,048,,47,,,*45

$GPRMC,140910.000,A,4709.3768,N,00138.2834,W,0.47,256.36,180717,,,A*79

$GPVTG,256.36,T,,M,0.47,N,0.87,K,A*35

$GPGGA,140911.000,4709.3768,N,00138.2836,W,1,08,1.06,23.6,M,48.7,M,,*44

$GPGLL,4709.3768,N,00138.2836,W,140911.000,A,A*42

$GPGSA,A,3,07,10,26,18,21,27,08,16,,,,,1.38,1.06,0.88*0D

$GPGSV,3,1,12,27,77,333,26,16,59,180,20,10,46,130,23,18,45,084,20*7C

$GPGSV,3,2,12,08,43,294,19,21,32,059,21,26,31,166,23,07,18,302,20*75

$GPGSV,3,3,12,11,06,256,,30,06,333,,15,05,048,,47,,,*45

$GPRMC,140911.000,A,4709.3768,N,00138.2836,W,0.42,258.33,180717,,,A*74

$GPVTG,258.33,T,,M,0.42,N,0.77,K,A*34

$GPGGA,140912.000,4709.3767,N,00138.2838,W,1,08,1.06,23.6,M,48.7,M,,*46

$GPGLL,4709.3767,N,00138.2838,W,140912.000,A,A*40

$GPGSA,A,3,07,10,26,18,21,27,08,16,,,,,1.38,1.06,0.88*0D

$GPGSV,3,1,12,27,77,333,24,16,59,180,20,10,46,130,23,18,45,084,21*7F

$GPGSV,3,2,12,08,43,294,18,21,32,059,21,26,31,166,23,07,18,302,20*74

$GPGSV,3,3,12,11,06,256,,30,06,333,,15,05,048,,47,,,*45

$GPRMC,140912.000,A,4709.3767,N,00138.2838,W,0.43,260.97,180717,,,A*72

$GPVTG,260.97,T,,M,0.43,N,0.80,K,A*38

$GPGGA,140913.000,4709.3767,N,00138.2839,W,1,08,1.05,23.6,M,48.7,M,,*45

$GPGLL,4709.3767,N,00138.2839,W,140913.000,A,A*40

$GPGSA,A,3,07,10,26,18,21,27,08,16,,,,,1.38,1.05,0.88*0E

$GPGSV,3,1,12,27,77,333,23,16,59,180,20,10,46,130,25,18,45,084,21*7E

$GPGSV,3,2,12,08,43,294,18,21,32,059,21,26,31,166,22,07,18,302,20*75

$GPGSV,3,3,12,11,06,256,,30,06,333,,15,05,048,,47,,,*45

$GPRMC,140913.000,A,4709.3767,N,00138.2839,W,0.45,260.33,180717,,,A*7A

$GPVTG,260.33,T,,M,0.45,N,0.84,K,A*34

$GPGGA,140914.000,4709.3767,N,00138.2841,W,1,08,1.06,23.6,M,48.7,M,,*4E

$GPGLL,4709.3767,N,00138.2841,W,140914.000,A,A*48

$GPGSA,A,3,07,10,26,18,21,27,08,16,,,,,1.38,1.06,0.88*0D

$GPGSV,3,1,12,27,77,333,23,16,59,180,19,10,46,130,26,18,45,084,21*77

$GPGSV,3,2,12,08,43,294,19,21,32,059,21,26,31,166,23,07,18,302,20*75

$GPGSV,3,3,12,11,06,256,,30,06,333,,15,05,048,,47,,,*45

$GPRMC,140914.000,A,4709.3767,N,00138.2841,W,0.35,252.10,180717,,,A*75

$GPVTG,252.10,T,,M,0.35,N,0.65,K,A*3C

$GPGGA,140915.000,4709.3767,N,00138.2842,W,1,08,1.05,23.6,M,48.7,M,,*4F

$GPGLL,4709.3767,N,00138.2842,W,140915.000,A,A*4A

$GPGSA,A,3,07,10,26,18,21,27,08,16,,,,,1.38,1.05,0.88*0E

$GPGSV,3,1,12,27,77,333,24,16,59,180,19,10,46,130,24,18,45,084,21*72

$GPGSV,3,2,12,08,43,294,19,21,32,059,21,26,31,166,23,07,18,302,20*75

$GPGSV,3,3,12,11,06,256,,30,06,333,,15,05,048,,47,,,*45

$GPRMC,140915.000,A,4709.3767,N,00138.2842,W,0.30,243.62,180717,,,A*77

$GPVTG,243.62,T,,M,0.30,N,0.55,K,A*3F

$GPGGA,140916.000,4709.3766,N,00138.2844,W,1,08,1.06,23.6,M,48.7,M,,*48

$GPGLL,4709.3766,N,00138.2844,W,140916.000,A,A*4E

$GPGSA,A,3,07,10,26,18,21,27,08,16,,,,,1.38,1.06,0.88*0D

$GPGSV,3,1,11,27,77,333,24,16,59,180,19,10,46,130,22,18,45,084,20*76

$GPGSV,3,2,11,08,43,294,18,21,32,059,21,26,31,166,22,07,18,302,20*76

$GPGSV,3,3,11,11,06,256,,30,06,333,,15,05,048,*45

$GPRMC,140916.000,A,4709.3766,N,00138.2844,W,0.30,244.06,180717,,,A*76

$GPVTG,244.06,T,,M,0.30,N,0.56,K,A*39

$GPGGA,140917.000,4709.3766,N,00138.2845,W,1,08,1.05,23.6,M,48.7,M,,*4B

$GPGLL,4709.3766,N,00138.2845,W,140917.000,A,A*4E

$GPGSA,A,3,07,10,26,18,21,27,08,16,,,,,1.38,1.05,0.88*0E

$GPGSV,3,1,12,27,77,333,25,16,59,180,19,10,46,130,22,18,45,084,20*74

$GPGSV,3,2,12,08,43,294,18,21,32,059,21,26,31,166,22,07,18,302,20*75

$GPGSV,3,3,12,11,06,256,,30,06,333,,15,05,048,,49,,,*4B

$GPRMC,140917.000,A,4709.3766,N,00138.2845,W,0.29,242.87,180717,,,A*71

$GPVTG,242.87,T,,M,0.29,N,0.53,K,A*3B

$GPGGA,140918.000,4709.3765,N,00138.2846,W,1,08,1.05,23.6,M,48.7,M,,*44

$GPGLL,4709.3765,N,00138.2846,W,140918.000,A,A*41

$GPGSA,A,3,07,10,26,18,21,27,08,16,,,,,1.38,1.05,0.88*0E

$GPGSV,3,1,12,27,77,333,25,16,59,180,19,10,46,130,22,18,45,083,20*73

$GPGSV,3,2,12,08,43,294,18,21,32,059,21,26,31,166,22,07,18,302,20*75

$GPGSV,3,3,12,11,06,256,,30,06,333,,15,05,048,,49,,,*4B

$GPRMC,140918.000,A,4709.3765,N,00138.2846,W,0.37,241.54,180717,,,A*7C

$GPVTG,241.54,T,,M,0.37,N,0.69,K,A*30

$GPGGA,140919.000,4709.3765,N,00138.2847,W,1,08,1.05,23.6,M,48.7,M,,*44

$GPGLL,4709.3765,N,00138.2847,W,140919.000,A,A*41

$GPGSA,A,3,07,10,26,18,21,27,08,16,,,,,1.38,1.05,0.88*0E

$GPGSV,3,1,12,27,77,333,25,16,59,180,19,10,46,130,21,18,45,083,20*70

$GPGSV,3,2,12,08,43,294,19,21,32,059,21,26,31,166,22,07,18,302,20*74

$GPGSV,3,3,12,11,06,256,,30,06,333,,15,05,048,,49,,,*4B

$GPRMC,140919.000,A,4709.3765,N,00138.2847,W,0.42,229.73,180717,,,A*75

$GPVTG,229.73,T,,M,0.42,N,0.79,K,A*38

$GPGGA,140920.000,4709.3764,N,00138.2848,W,1,08,1.05,23.6,M,48.7,M,,*40

$GPGLL,4709.3764,N,00138.2848,W,140920.000,A,A*45

$GPGSA,A,3,07,10,26,18,21,27,08,16,,,,,1.38,1.05,0.88*0E

$GPGSV,3,1,12,27,77,333,25,16,59,180,18,10,46,130,21,18,45,083,20*71

$GPGSV,3,2,12,08,43,294,19,21,32,059,21,26,31,166,22,07,18,302,20*74

$GPGSV,3,3,12,11,06,256,,30,06,333,,15,05,048,,49,,,*4B

$GPRMC,140920.000,A,4709.3764,N,00138.2848,W,0.41,219.56,180717,,,A*76

$GPVTG,219.56,T,,M,0.41,N,0.76,K,A*30

$GPGGA,140921.000,4709.3763,N,00138.2850,W,1,08,1.05,23.6,M,48.7,M,,*4F

$GPGLL,4709.3763,N,00138.2850,W,140921.000,A,A*4A

$GPGSA,A,3,07,10,26,18,21,27,08,16,,,,,1.38,1.05,0.88*0E

$GPGSV,3,1,12,27,77,333,25,16,59,180,18,10,46,130,19,18,45,083,20*7A

$GPGSV,3,2,12,08,43,294,18,21,31,059,21,26,31,166,22,07,18,302,20*76

$GPGSV,3,3,12,11,06,256,,30,06,333,,15,05,048,,49,,,*4B

$GPRMC,140921.000,A,4709.3763,N,00138.2850,W,0.38,211.73,180717,,,A*78

$GPVTG,211.73,T,,M,0.38,N,0.71,K,A*36

$GPGGA,140922.000,4709.3762,N,00138.2850,W,1,08,1.05,23.7,M,48.7,M,,*4C

$GPGLL,4709.3762,N,00138.2850,W,140922.000,A,A*48

$GPGSA,A,3,07,10,26,18,21,27,08,16,,,,,1.38,1.05,0.88*0E

$GPGSV,3,1,12,27,77,333,25,16,59,180,18,10,46,130,20,18,45,083,20*70

$GPGSV,3,2,12,08,43,294,18,21,31,059,20,26,31,166,22,07,18,302,20*77

$GPGSV,3,3,12,11,06,256,,30,06,333,,15,05,048,,49,,,*4B

$GPRMC,140922.000,A,4709.3762,N,00138.2850,W,0.39,204.64,180717,,,A*79

$GPVTG,204.64,T,,M,0.39,N,0.73,K,A*37

$GPGGA,140923.000,4709.3761,N,00138.2851,W,1,08,1.05,23.7,M,48.7,M,,*4F

$GPGLL,4709.3761,N,00138.2851,W,140923.000,A,A*4B

$GPGSA,A,3,07,10,26,18,21,27,08,16,,,,,1.38,1.05,0.88*0E

$GPGSV,3,1,11,27,77,333,25,16,59,180,18,10,46,130,21,18,45,083,21*73

$GPGSV,3,2,11,08,43,294,18,21,31,059,20,26,31,166,22,07,18,302,20*74

$GPGSV,3,3,11,11,06,256,,30,06,333,,15,05,048,*45

$GPRMC,140923.000,A,4709.3761,N,00138.2851,W,0.39,200.31,180717,,,A*7E

$GPVTG,200.31,T,,M,0.39,N,0.73,K,A*33

$GPGGA,140924.000,4709.3760,N,00138.2852,W,1,08,1.05,23.7,M,48.7,M,,*4A

$GPGLL,4709.3760,N,00138.2852,W,140924.000,A,A*4E

$GPGSA,A,3,07,10,26,18,21,27,08,16,,,,,1.38,1.05,0.88*0E

$GPGSV,3,1,11,27,77,333,25,16,59,180,18,10,46,130,19,18,45,083,21*78

$GPGSV,3,2,11,08,43,294,18,21,31,059,19,26,31,166,22,07,18,302,20*7E

$GPGSV,3,3,11,11,06,256,,30,06,333,,15,05,048,*45

$GPRMC,140924.000,A,4709.3760,N,00138.2852,W,0.40,200.65,180717,,,A*74

$GPVTG,200.65,T,,M,0.40,N,0.74,K,A*3B

$GPGGA,140925.000,4709.3759,N,00138.2852,W,1,08,1.05,23.7,M,48.7,M,,*41

$GPGLL,4709.3759,N,00138.2852,W,140925.000,A,A*45

$GPGSA,A,3,07,10,26,18,21,27,08,16,,,,,1.37,1.05,0.88*01

$GPGSV,3,1,11,27,77,333,25,16,59,180,19,10,46,130,19,18,45,083,21*79

$GPGSV,3,2,11,08,43,294,18,21,31,059,19,26,31,166,21,07,18,302,20*7D

$GPGSV,3,3,11,11,06,256,,30,06,333,,15,05,048,*45

$GPRMC,140925.000,A,4709.3759,N,00138.2852,W,0.38,199.93,180717,,,A*7A

$GPVTG,199.93,T,,M,0.38,N,0.70,K,A*3A

$GPGGA,140926.000,4709.3758,N,00138.2853,W,1,08,1.05,23.7,M,48.7,M,,*42

$GPGLL,4709.3758,N,00138.2853,W,140926.000,A,A*46

$GPGSA,A,3,07,10,26,18,21,27,08,16,,,,,1.37,1.05,0.88*01

$GPGSV,3,1,12,27,77,333,25,16,59,180,19,10,46,130,19,18,45,083,22*79

$GPGSV,3,2,12,08,43,294,18,21,31,059,19,26,31,166,21,07,18,302,20*7E

$GPGSV,3,3,12,11,06,256,,30,06,333,,15,05,048,,51,,,*42

$GPRMC,140926.000,A,4709.3758,N,00138.2853,W,0.52,198.73,180717,,,A*7A

$GPVTG,198.73,T,,M,0.52,N,0.96,K,A*31

$GPGGA,140927.000,4709.3756,N,00138.2854,W,1,08,1.05,23.7,M,48.7,M,,*4A

$GPGLL,4709.3756,N,00138.2854,W,140927.000,A,A*4E

$GPGSA,A,3,07,10,26,18,21,27,08,16,,,,,1.37,1.05,0.88*01

$GPGSV,3,1,12,27,78,334,24,16,59,180,19,10,46,130,19,18,45,083,21*73

$GPGSV,3,2,12,08,43,294,18,21,31,059,19,26,31,166,21,07,18,302,20*7E

$GPGSV,3,3,12,11,06,256,,30,06,333,,15,05,048,,51,,,*42

$GPRMC,140927.000,A,4709.3756,N,00138.2854,W,0.56,200.20,180717,,,A*72

$GPVTG,200.20,T,,M,0.56,N,1.04,K,A*3B

$GPGGA,140928.000,4709.3755,N,00138.2855,W,1,08,1.05,23.7,M,48.7,M,,*47

$GPGLL,4709.3755,N,00138.2855,W,140928.000,A,A*43

$GPGSA,A,3,07,10,26,18,21,27,08,16,,,,,1.37,1.05,0.88*01

$GPGSV,3,1,12,27,78,334,24,16,59,180,19,10,46,130,19,18,45,083,21*73

$GPGSV,3,2,12,08,43,294,18,21,31,059,19,26,31,166,21,07,18,302,20*7E

$GPGSV,3,3,12,11,06,256,,30,06,333,,15,05,048,,51,,,*42

$GPRMC,140928.000,A,4709.3755,N,00138.2855,W,0.67,201.56,180717,,,A*7D

$GPVTG,201.56,T,,M,0.67,N,1.24,K,A*3B

$GPGGA,140929.000,4709.3751,N,00138.2858,W,1,08,1.05,23.7,M,48.7,M,,*4F

$GPGLL,4709.3751,N,00138.2858,W,140929.000,A,A*4B

$GPGSA,A,3,07,10,26,18,21,27,08,16,,,,,1.37,1.05,0.88*01

$GPGSV,3,1,12,27,78,334,23,16,59,180,19,10,46,130,19,18,45,083,21*74

$GPGSV,3,2,12,08,43,294,18,21,31,059,19,26,31,166,21,07,18,302,19*74

$GPGSV,3,3,12,11,06,256,,30,06,333,,15,05,048,,51,,,*42

$GPRMC,140929.000,A,4709.3751,N,00138.2858,W,0.70,202.44,180717,,,A*73

$GPVTG,202.44,T,,M,0.70,N,1.30,K,A*38

$GPGGA,140930.000,4709.3746,N,00138.2861,W,1,08,1.05,23.7,M,48.7,M,,*4B

$GPGLL,4709.3746,N,00138.2861,W,140930.000,A,A*4F

$GPGSA,A,3,07,10,26,18,21,27,08,16,,,,,1.37,1.05,0.88*01

$GPGSV,3,1,12,27,78,334,23,16,59,180,18,10,46,130,19,18,45,083,21*75

$GPGSV,3,2,12,08,43,294,18,21,31,059,19,26,31,166,20,07,18,302,19*75

$GPGSV,3,3,12,11,06,256,,30,06,332,,15,05,048,,51,,,*43

$GPRMC,140930.000,A,4709.3746,N,00138.2861,W,0.77,202.02,180717,,,A*72

$GPVTG,202.02,T,,M,0.77,N,1.42,K,A*38

$GPGGA,140931.000,4709.3742,N,00138.2863,W,1,08,1.05,23.8,M,48.7,M,,*43

$GPGLL,4709.3742,N,00138.2863,W,140931.000,A,A*48

$GPGSA,A,3,07,10,26,18,21,27,08,16,,,,,1.38,1.05,0.88*0E

$GPGSV,3,1,12,27,78,334,22,16,59,180,18,10,46,130,19,18,45,083,21*74

$GPGSV,3,2,12,08,43,294,18,21,31,059,19,26,31,166,20,07,18,302,19*75

$GPGSV,3,3,12,11,06,256,,30,06,332,,15,05,048,,51,,,*43

$GPRMC,140931.000,A,4709.3742,N,00138.2863,W,0.81,200.18,180717,,,A*75

$GPVTG,200.18,T,,M,0.81,N,1.51,K,A*3A

$GPGGA,140932.000,4709.3736,N,00138.2865,W,1,08,1.05,23.8,M,48.7,M,,*45

$GPGLL,4709.3736,N,00138.2865,W,140932.000,A,A*4E

$GPGSA,A,3,07,10,26,18,21,27,08,16,,,,,1.38,1.05,0.88*0E

$GPGSV,3,1,12,27,78,334,23,16,59,180,18,10,46,130,19,18,45,083,22*76

$GPGSV,3,2,12,08,43,294,18,21,31,059,19,26,31,166,20,07,18,302,19*75

$GPGSV,3,3,12,11,06,256,,30,06,332,,15,05,048,,51,,,*43

$GPRMC,140932.000,A,4709.3736,N,00138.2865,W,0.87,196.74,180717,,,A*73

$GPVTG,196.74,T,,M,0.87,N,1.62,K,A*3A

$GPGGA,140933.000,4709.3733,N,00138.2864,W,1,08,1.05,23.8,M,48.7,M,,*40

$GPGLL,4709.3733,N,00138.2864,W,140933.000,A,A*4B

$GPGSA,A,3,07,10,26,18,21,27,08,16,,,,,1.37,1.05,0.88*01

$GPGSV,3,1,11,27,78,334,24,16,59,180,18,10,46,130,20,18,45,083,22*78

$GPGSV,3,2,11,08,43,294,19,21,31,059,19,26,31,166,20,07,18,302,20*7D

$GPGSV,3,3,11,11,06,256,,30,06,332,,15,05,048,*44

$GPRMC,140933.000,A,4709.3733,N,00138.2864,W,0.86,194.62,180717,,,A*72

$GPVTG,194.62,T,,M,0.86,N,1.59,K,A*36

$GPGGA,140934.000,4709.3731,N,00138.2864,W,1,08,1.05,23.8,M,48.7,M,,*45

$GPGLL,4709.3731,N,00138.2864,W,140934.000,A,A*4E

$GPGSA,A,3,07,10,26,18,21,27,08,16,,,,,1.37,1.05,0.88*01

$GPGSV,3,1,11,27,78,334,24,16,59,180,18,10,46,130,20,18,45,083,22*78

$GPGSV,3,2,11,08,43,294,19,21,31,059,19,26,31,166,20,07,18,302,20*7D

$GPGSV,3,3,11,11,06,256,,30,06,332,,15,05,048,*44

$GPRMC,140934.000,A,4709.3731,N,00138.2864,W,0.81,198.61,180717,,,A*7F

$GPVTG,198.61,T,,M,0.81,N,1.50,K,A*37

$GPGGA,140935.000,4709.3728,N,00138.2865,W,1,08,1.05,23.8,M,48.7,M,,*4D

$GPGLL,4709.3728,N,00138.2865,W,140935.000,A,A*46

$GPGSA,A,3,07,10,26,18,21,27,08,16,,,,,1.37,1.05,0.88*01

$GPGSV,3,1,11,27,78,334,24,16,59,180,18,10,46,130,19,18,45,083,23*73

$GPGSV,3,2,11,08,43,294,19,21,31,059,19,26,31,166,20,07,18,302,21*7C

$GPGSV,3,3,11,11,06,256,,30,06,332,,15,05,048,*44

$GPRMC,140935.000,A,4709.3728,N,00138.2865,W,0.77,200.20,180717,,,A*79

$GPVTG,200.20,T,,M,0.77,N,1.43,K,A*3B

$GPGGA,140936.000,4709.3724,N,00138.2868,W,1,08,1.05,23.8,M,48.7,M,,*4F

$GPGLL,4709.3724,N,00138.2868,W,140936.000,A,A*44

$GPGSA,A,3,07,10,26,18,21,27,08,16,,,,,1.37,1.05,0.88*01

$GPGSV,3,1,12,27,78,334,25,16,59,180,19,10,46,130,19,18,45,083,24*77

$GPGSV,3,2,12,08,43,294,20,21,31,059,20,26,31,166,21,07,18,302,22*7D

$GPGSV,3,3,12,11,06,256,,30,06,332,,15,05,048,,48,,,*4B

$GPRMC,140936.000,A,4709.3724,N,00138.2868,W,0.81,205.28,180717,,,A*7F

$GPVTG,205.28,T,,M,0.81,N,1.51,K,A*3C

$GPGGA,140937.000,4709.3720,N,00138.2868,W,1,08,1.05,23.8,M,48.7,M,,*4A

$GPGLL,4709.3720,N,00138.2868,W,140937.000,A,A*41

$GPGSA,A,3,07,10,26,18,21,27,08,16,,,,,1.37,1.05,0.88*01

$GPGSV,3,1,12,27,78,334,25,16,59,180,19,10,46,130,18,18,45,083,24*76

$GPGSV,3,2,12,08,43,294,20,21,31,059,20,26,31,166,22,07,18,302,22*7E

$GPGSV,3,3,12,11,06,256,,30,06,332,,15,05,048,,48,,,*4B

$GPRMC,140937.000,A,4709.3720,N,00138.2868,W,0.81,204.85,180717,,,A*7C

$GPVTG,204.85,T,,M,0.81,N,1.50,K,A*3B

$GPGGA,140938.000,4709.3720,N,00138.2868,W,1,08,1.05,23.7,M,48.7,M,,*4A

$GPGLL,4709.3720,N,00138.2868,W,140938.000,A,A*4E

$GPGSA,A,3,07,10,26,18,21,27,08,16,,,,,1.37,1.05,0.88*01

$GPGSV,3,1,12,27,78,334,26,16,59,180,19,10,46,130,17,18,45,083,24*7A

$GPGSV,3,2,12,08,43,294,20,21,31,059,20,26,31,166,22,07,18,302,22*7E

$GPGSV,3,3,12,11,06,256,,30,06,332,,15,05,048,,48,,,*4B

$GPRMC,140938.000,A,4709.3720,N,00138.2868,W,0.72,206.62,180717,,,A*74

$GPVTG,206.62,T,,M,0.72,N,1.34,K,A*3E

$GPGGA,140939.000,4709.3718,N,00138.2868,W,1,08,1.05,23.7,M,48.7,M,,*40

$GPGLL,4709.3718,N,00138.2868,W,140939.000,A,A*44

$GPGSA,A,3,07,10,26,18,21,27,08,16,,,,,1.37,1.05,0.88*01

$GPGSV,3,1,12,27,78,334,27,16,59,180,20,10,46,130,19,18,45,083,25*7E

$GPGSV,3,2,12,08,43,294,21,21,31,059,21,26,31,166,22,07,18,302,23*7F

$GPGSV,3,3,12,11,06,256,,30,06,332,,15,05,048,,48,,,*4B

$GPRMC,140939.000,A,4709.3718,N,00138.2868,W,0.65,203.99,180717,,,A*79

$GPVTG,203.99,T,,M,0.65,N,1.20,K,A*3C

$GPGGA,140940.000,4709.3718,N,00138.2868,W,1,08,1.05,23.7,M,48.7,M,,*4E

$GPGLL,4709.3718,N,00138.2868,W,140940.000,A,A*4A

$GPGSA,A,3,07,10,26,18,21,27,08,16,,,,,1.37,1.05,0.88*01

$GPGSV,3,1,12,27,78,334,26,16,59,180,20,10,46,130,18,18,45,083,24*7F

$GPGSV,3,2,12,08,43,294,21,21,31,059,21,26,31,166,22,07,18,302,23*7F

$GPGSV,3,3,12,11,06,256,,30,06,332,,15,05,048,,48,,,*4B

$GPRMC,140940.000,A,4709.3718,N,00138.2868,W,0.54,207.12,180717,,,A*72

$GPVTG,207.12,T,,M,0.54,N,1.00,K,A*3B

$GPGGA,140941.000,4709.3717,N,00138.2867,W,1,08,1.05,23.7,M,48.7,M,,*4F

$GPGLL,4709.3717,N,00138.2867,W,140941.000,A,A*4B

$GPGSA,A,3,07,10,26,18,21,27,08,16,,,,,1.37,1.05,0.88*01

$GPGSV,3,1,12,27,78,334,25,16,59,180,19,10,46,130,20,18,45,083,24*7D

$GPGSV,3,2,12,08,43,294,20,21,31,059,20,26,31,166,21,07,18,302,22*7D

$GPGSV,3,3,12,11,06,256,,30,06,332,,15,05,048,,48,,,*4B

$GPRMC,140941.000,A,4709.3717,N,00138.2867,W,0.46,205.16,180717,,,A*76

$GPVTG,205.16,T,,M,0.46,N,0.86,K,A*31

$GPGGA,140942.000,4709.3717,N,00138.2866,W,1,08,1.05,23.7,M,48.7,M,,*4D

$GPGLL,4709.3717,N,00138.2866,W,140942.000,A,A*49

$GPGSA,A,3,07,10,26,18,21,27,08,16,,,,,1.37,1.05,0.88*01

$GPGSV,3,1,12,27,78,334,25,16,59,180,18,10,46,130,18,18,45,083,24*77

$GPGSV,3,2,12,08,43,294,19,21,31,059,20,26,31,166,21,07,18,301,21*77

$GPGSV,3,3,12,11,06,256,,30,06,332,,15,05,048,,48,,,*4B

$GPRMC,140942.000,A,4709.3717,N,00138.2866,W,0.39,195.89,180717,,,A*70

$GPVTG,195.89,T,,M,0.39,N,0.72,K,A*3E

$GPGGA,140943.000,4709.3717,N,00138.2862,W,1,08,1.05,23.7,M,48.7,M,,*48

$GPGLL,4709.3717,N,00138.2862,W,140943.000,A,A*4C

$GPGSA,A,3,07,10,26,18,21,27,08,16,,,,,1.37,1.05,0.88*01

$GPGSV,3,1,11,27,78,334,25,16,59,180,18,10,46,130,17,18,45,083,24*7B

$GPGSV,3,2,11,08,43,294,18,21,31,059,20,26,31,166,21,07,18,301,21*75

$GPGSV,3,3,11,11,06,256,,30,06,332,,15,05,048,*44

$GPRMC,140943.000,A,4709.3717,N,00138.2862,W,0.33,184.46,180717,,,A*7C

$GPVTG,184.46,T,,M,0.33,N,0.61,K,A*35

$GPGGA,140944.000,4709.3717,N,00138.2862,W,1,08,1.05,23.7,M,48.7,M,,*4F

$GPGLL,4709.3717,N,00138.2862,W,140944.000,A,A*4B

$GPGSA,A,3,07,10,26,18,21,27,08,16,,,,,1.37,1.05,0.88*01

$GPGSV,3,1,12,27,78,334,25,16,59,180,17,10,46,130,17,18,45,083,24*77

$GPGSV,3,2,12,08,43,294,18,21,31,059,20,26,31,166,21,07,18,301,21*76

$GPGSV,3,3,12,11,06,256,,30,06,332,,15,05,048,,42,,,*41

$GPRMC,140944.000,A,4709.3717,N,00138.2862,W,0.27,183.78,180717,,,A*74

$GPVTG,183.78,T,,M,0.27,N,0.51,K,A*39

$GPGGA,140945.000,4709.3716,N,00138.2862,W,1,08,1.05,23.7,M,48.7,M,,*4F

$GPGLL,4709.3716,N,00138.2862,W,140945.000,A,A*4B

$GPGSA,A,3,07,10,26,18,21,27,08,16,,,,,1.37,1.05,0.88*01

$GPGSV,3,1,12,27,78,334,25,16,59,180,17,10,47,129,17,18,45,083,24*7E

$GPGSV,3,2,12,08,43,294,18,21,31,059,20,26,31,166,21,07,18,301,21*76

$GPGSV,3,3,12,11,06,256,,30,06,332,,15,05,048,,42,,,*41

$GPRMC,140945.000,A,4709.3716,N,00138.2862,W,0.22,173.54,180717,,,A*70

$GPVTG,173.54,T,,M,0.22,N,0.41,K,A*3C

$GPGGA,140946.000,4709.3715,N,00138.2862,W,1,08,1.05,23.7,M,48.7,M,,*4F

$GPGLL,4709.3715,N,00138.2862,W,140946.000,A,A*4B

$GPGSA,A,3,07,10,26,18,21,27,08,16,,,,,1.37,1.05,0.88*01

$GPGSV,3,1,12,27,78,334,25,16,59,180,18,10,47,129,17,18,45,083,24*71

$GPGSV,3,2,12,08,43,294,19,21,31,059,20,26,31,166,21,07,18,301,22*74

$GPGSV,3,3,12,11,06,256,,30,06,332,,15,05,048,,42,,,*41

$GPRMC,140946.000,A,4709.3715,N,00138.2862,W,0.18,157.91,180717,,,A*76

$GPVTG,157.91,T,,M,0.18,N,0.33,K,A*3F

$GPGGA,140947.000,4709.3715,N,00138.2861,W,1,08,1.05,23.7,M,48.7,M,,*4D

$GPGLL,4709.3715,N,00138.2861,W,140947.000,A,A*49

$GPGSA,A,3,07,10,26,18,21,27,08,16,,,,,1.37,1.05,0.88*01

$GPGSV,3,1,12,27,78,334,26,16,59,180,18,10,47,129,18,18,45,083,24*7D

$GPGSV,3,2,12,08,43,294,19,21,31,059,21,26,31,166,22,07,18,301,22*76

$GPGSV,3,3,12,11,06,256,,30,06,332,,15,05,048,,42,,,*41

$GPRMC,140947.000,A,4709.3715,N,00138.2861,W,0.14,184.79,180717,,,A*70

$GPVTG,184.79,T,,M,0.14,N,0.25,K,A*3C

$GPGGA,140948.000,4709.3708,N,00138.2862,W,1,08,1.05,23.7,M,48.7,M,,*4D

$GPGLL,4709.3708,N,00138.2862,W,140948.000,A,A*49

$GPGSA,A,3,07,10,26,18,21,27,08,16,,,,,1.37,1.05,0.88*01

$GPGSV,3,1,12,27,78,334,27,16,59,180,18,10,47,129,19,18,45,083,24*7D

$GPGSV,3,2,12,08,43,294,19,21,31,059,22,26,31,166,22,07,18,301,22*75

$GPGSV,3,3,12,11,06,256,,30,06,332,,15,05,048,,42,,,*41

$GPRMC,140948.000,A,4709.3708,N,00138.2862,W,0.27,178.49,180717,,,A*70

$GPVTG,178.49,T,,M,0.27,N,0.49,K,A*36

$GPGGA,140949.000,4709.3708,N,00138.2859,W,1,08,1.05,23.7,M,48.7,M,,*44

$GPGLL,4709.3708,N,00138.2859,W,140949.000,A,A*40

$GPGSA,A,3,07,10,26,18,21,27,08,16,,,,,1.37,1.05,0.88*01

$GPGSV,3,1,12,27,78,334,27,16,59,180,18,10,47,129,19,18,45,083,23*7A

$GPGSV,3,2,12,08,43,294,19,21,31,059,22,26,31,166,22,07,18,301,22*75

$GPGSV,3,3,12,11,06,256,,30,06,332,,15,05,048,,42,,,*41

$GPRMC,140949.000,A,4709.3708,N,00138.2859,W,0.24,168.28,180717,,,A*7C

$GPVTG,168.28,T,,M,0.24,N,0.45,K,A*3F

$GPGGA,140950.000,4709.3713,N,00138.2856,W,1,08,1.05,23.7,M,48.7,M,,*49

$GPGLL,4709.3713,N,00138.2856,W,140950.000,A,A*4D

$GPGSA,A,3,07,10,26,18,21,27,08,16,,,,,1.37,1.05,0.88*01

$GPGSV,3,1,11,27,78,334,26,16,59,180,18,10,47,129,19,18,45,083,23*78

$GPGSV,3,2,11,08,43,294,19,21,31,059,22,26,31,166,23,07,18,301,22*77

$GPGSV,3,3,11,11,06,256,,30,06,332,,15,05,048,*44

$GPRMC,140950.000,A,4709.3713,N,00138.2856,W,0.12,159.94,180717,,,A*71

$GPVTG,159.94,T,,M,0.12,N,0.22,K,A*3E

$GPGGA,140951.000,4709.3715,N,00138.2855,W,1,08,1.05,23.7,M,48.7,M,,*4D

$GPGLL,4709.3715,N,00138.2855,W,140951.000,A,A*49

$GPGSA,A,3,07,10,26,18,21,27,08,16,,,,,1.37,1.05,0.88*01

$GPGSV,3,1,11,27,78,334,26,16,59,180,18,10,47,129,19,18,45,083,23*78

$GPGSV,3,2,11,08,43,294,19,21,31,059,22,26,31,166,23,07,18,301,22*77

$GPGSV,3,3,11,11,06,256,,30,06,332,,15,05,048,*44

$GPRMC,140951.000,A,4709.3715,N,00138.2855,W,0.04,161.92,180717,,,A*7F

$GPVTG,161.92,T,,M,0.04,N,0.07,K,A*33

$GPGGA,140952.000,4709.3715,N,00138.2855,W,1,08,1.05,23.7,M,48.7,M,,*4E

$GPGLL,4709.3715,N,00138.2855,W,140952.000,A,A*4A

$GPGSA,A,3,07,10,26,18,21,27,08,16,,,,,1.37,1.05,0.88*01

$GPGSV,3,1,11,27,78,334,26,16,59,180,18,10,47,129,19,18,45,083,23*78

$GPGSV,3,2,11,08,43,294,19,21,31,059,22,26,31,166,23,07,18,301,21*74

$GPGSV,3,3,11,11,06,256,,30,06,332,,15,05,048,*44

$GPRMC,140952.000,A,4709.3715,N,00138.2855,W,0.01,104.13,180717,,,A*73

$GPVTG,104.13,T,,M,0.01,N,0.02,K,A*39

$GPGGA,140953.000,4709.3715,N,00138.2854,W,1,08,1.05,23.7,M,48.7,M,,*4E

$GPGLL,4709.3715,N,00138.2854,W,140953.000,A,A*4A

$GPGSA,A,3,07,10,26,18,21,27,08,16,,,,,1.37,1.05,0.88*01

$GPGSV,3,1,12,27,78,334,26,16,59,180,18,10,47,129,19,18,45,083,23*7B

$GPGSV,3,2,12,08,43,294,19,21,31,059,22,26,31,166,23,07,18,301,21*77

$GPGSV,3,3,12,11,06,256,,30,06,332,,15,05,048,,50,,,*42

$GPRMC,140953.000,A,4709.3715,N,00138.2854,W,0.02,73.80,180717,,,A*4B

$GPVTG,73.80,T,,M,0.02,N,0.04,K,A*07

$GPGGA,140954.000,4709.3715,N,00138.2854,W,1,08,1.05,23.7,M,48.7,M,,*49

$GPGLL,4709.3715,N,00138.2854,W,140954.000,A,A*4D

$GPGSA,A,3,07,10,26,18,21,27,08,16,,,,,1.37,1.05,0.88*01

$GPGSV,3,1,12,27,78,334,26,16,59,180,19,10,47,129,19,18,45,083,23*7A

$GPGSV,3,2,12,08,43,294,19,21,31,059,22,26,31,166,23,07,18,301,21*77

$GPGSV,3,3,12,11,06,256,,30,06,332,,15,05,048,,50,,,*42

$GPRMC,140954.000,A,4709.3715,N,00138.2854,W,0.05,137.32,180717,,,A*73

$GPVTG,137.32,T,,M,0.05,N,0.09,K,A*35

$GPGGA,140955.000,4709.3715,N,00138.2851,W,1,08,1.05,23.7,M,48.7,M,,*4D

$GPGLL,4709.3715,N,00138.2851,W,140955.000,A,A*49

$GPGSA,A,3,07,10,26,18,21,27,08,16,,,,,1.37,1.05,0.88*01

$GPGSV,3,1,12,27,78,334,26,16,59,180,20,10,47,129,19,18,45,083,23*70

$GPGSV,3,2,12,08,43,294,19,21,31,059,22,26,31,166,23,07,18,301,21*77

$GPGSV,3,3,12,11,06,256,,30,06,332,,15,05,048,,50,,,*42

$GPRMC,140955.000,A,4709.3715,N,00138.2851,W,0.11,141.33,180717,,,A*72

$GPVTG,141.33,T,,M,0.11,N,0.20,K,A*3B

$GPGGA,140956.000,4709.3715,N,00138.2848,W,1,08,1.05,23.7,M,48.7,M,,*46

$GPGLL,4709.3715,N,00138.2848,W,140956.000,A,A*42

$GPGSA,A,3,07,10,26,18,21,27,08,16,,,,,1.37,1.05,0.88*01

$GPGSV,3,1,12,27,78,334,26,16,59,180,20,10,47,129,19,18,45,083,23*70

$GPGSV,3,2,12,08,43,294,20,21,31,059,22,26,31,166,23,07,18,301,21*7D

$GPGSV,3,3,12,11,06,256,,30,06,332,,15,05,048,,50,,,*42

$GPRMC,140956.000,A,4709.3715,N,00138.2848,W,0.14,144.39,180717,,,A*73

$GPVTG,144.39,T,,M,0.14,N,0.26,K,A*37

$GPGGA,140957.000,4709.3715,N,00138.2847,W,1,08,1.05,23.7,M,48.7,M,,*48

$GPGLL,4709.3715,N,00138.2847,W,140957.000,A,A*4C

$GPGSA,A,3,07,10,26,18,21,27,08,16,,,,,1.37,1.05,0.88*01

$GPGSV,3,1,12,27,78,334,26,16,59,180,20,10,47,129,19,18,45,083,23*70

$GPGSV,3,2,12,08,43,294,21,21,31,059,22,26,31,166,22,07,18,301,21*7D

$GPGSV,3,3,12,11,06,256,,30,06,332,,15,05,048,,50,,,*42

